     3.02           OBSERVATION DATA    M: Mixed            RINEX VERSION / TYPE
BUPT PLAN 6.0                           20210227 042630 UTC PGM / RUN BY / DATE 
                                                            MARKER NAME         
                                                            MARKER NUMBER       
                                                            MARKER TYPE         
                                                            OBSERVER / AGENCY   
                                                            REC # / TYPE / VERS 
                                                            ANT # / TYPE        
        0.0000        0.0000        0.0000                  APPROX POSITION XYZ 
        0.0000        0.0000        0.0000                  ANTENNA: DELTA H/E/N
G    3 C1C L1C D1C                                          SYS / # / OBS TYPES 
  2019     1    10     9    50   24.0680349     GPS         TIME OF FIRST OBS   
  2019     1    10     9    51   27.9433589     GPS         TIME OF LAST OBS    
G                                                           SYS / PHASE SHIFT   
  0                                                         GLONASS SLOT / FRQ #
 C1C    0.000 C1P    0.000 C2C    0.000 C2P    0.000        GLONASS COD/PHS/BIS 
                                                            END OF HEADER       
> 2019  1 10  9 50 24.0680349  0  6                     
G 9  20682137.711      -18607.137        3102.219  
G16  17083370.907       -3155.669         525.660  
G23  18927233.918      -11771.977        1960.681  
G26  17360360.824        6701.176       -1120.783  
G27  19494844.871      -21370.393        3560.369  
G31  18786792.523       11726.319       -1955.874  
> 2019  1 10  9 50 24.1930356  0  6                     
G 9  20682064.027      -18994.796        3101.908  
G16  17083359.503       -3221.246         523.720  
G23  18927187.030      -12017.065        1962.401  
G26  17360387.909        6840.979       -1120.367  
G27  19494760.024      -21815.557        3560.924  
G31  18786838.458       11970.800       -1951.008  
> 2019  1 10  9 50 24.3180363  0  6                     
G 9  20681990.004      -19382.447        3100.103  
G16  17083346.750       -3286.812         522.957  
G23  18927140.557      -12262.141        1959.721  
G26  17360414.420        6980.790       -1120.904  
G27  19494674.872      -22260.728        3561.038  
G31  18786885.746       12215.278       -1956.285  
> 2019  1 10  9 50 24.4430368  0  6                     
G 9  20681916.821      -19770.090        3103.169  
G16  17083333.933       -3352.368         527.428  
G23  18927094.587      -12507.211        1959.939  
G26  17360441.050        7120.600       -1121.911  
G27  19494590.357      -22705.884        3561.363  
G31  18786932.302       12459.762       -1955.957  
> 2019  1 10  9 50 24.5680375  0  6                     
G 9  20681842.228      -20157.739        3099.668  
G16  17083322.057       -3417.914         527.627  
G23  18927047.279      -12752.283        1958.598  
G26  17360467.541        7260.421       -1119.870  
G27  19494506.028      -23151.040        3560.859  
G31  18786978.801       12704.247       -1952.193  
> 2019  1 10  9 50 24.6930382  0  6                     
G 9  20681769.588      -20545.372        3101.636  
G16  17083309.474       -3483.458         525.592  
G23  18927000.941      -12997.331        1960.247  
G26  17360493.373        7400.256       -1116.853  
G27  19494420.204      -23596.200        3560.265  
G31  18787025.018       12948.739       -1956.548  
> 2019  1 10  9 50 24.8180387  0  6                     
G 9  20681695.873      -20933.006        3100.998  
G16  17083297.334       -3548.990         523.702  
G23  18926954.156      -13242.387        1963.480  
G26  17360520.372        7540.083       -1119.639  
G27  19494336.015      -24041.343        3563.602  
G31  18787071.223       13193.233       -1958.379  
> 2019  1 10  9 50 24.9430394  0  6                     
G 9  20681621.102      -21320.640        3102.327  
G16  17083284.501       -3614.521         522.291  
G23  18926907.401      -13487.422        1961.259  
G26  17360547.356        7679.927       -1119.134  
G27  19494250.617      -24486.485        3559.771  
G31  18787118.089       13437.731       -1954.790  
> 2019  1 10  9 50 25.0680401  0  6                     
G 9  20681548.171      -21708.263        3098.871  
G16  17083272.067       -3680.038         523.649  
G23  18926860.829      -13732.458        1961.081  
G26  17360574.995        7819.771       -1117.396  
G27  19494166.247      -24931.625        3561.422  
G31  18787164.383       13682.232       -1956.916  
> 2019  1 10  9 50 25.1930406  0  6                     
G 9  20681473.993      -22095.871        3099.973  
G16  17083259.671       -3745.551         522.052  
G23  18926813.714      -13977.478        1958.562  
G26  17360601.436        7959.618       -1118.047  
G27  19494081.901      -25376.753        3561.344  
G31  18787211.184       13926.734       -1956.954  
> 2019  1 10  9 50 25.3180413  0  6                     
G 9  20681400.182      -22483.482        3105.803  
G16  17083246.826       -3811.045         525.711  
G23  18926767.229      -14222.495        1959.159  
G26  17360627.943        8099.476       -1118.349  
G27  19493997.644      -25821.889        3559.282  
G31  18787257.602       14171.242       -1957.981  
> 2019  1 10  9 50 25.4430420  0  6                     
G 9  20681326.958      -22871.093        3102.625  
G16  17083234.565       -3876.544         523.690  
G23  18926720.539      -14467.501        1959.852  
G26  17360654.000        8239.330       -1119.418  
G27  19493912.680      -26267.020        3561.666  
G31  18787304.199       14415.758       -1955.510  
> 2019  1 10  9 50 25.5680425  0  6                     
G 9  20681252.665      -23258.696        3100.919  
G16  17083221.742       -3942.026         522.454  
G23  18926674.421      -14712.507        1958.804  
G26  17360680.735        8379.207       -1117.195  
G27  19493828.330      -26712.130        3564.485  
G31  18787350.588       14660.276       -1957.144  
> 2019  1 10  9 50 25.6930432  0  6                     
G 9  20681179.260      -23646.293        3101.440  
G16  17083209.247       -4007.504         523.678  
G23  18926627.541      -14957.501        1958.108  
G26  17360707.092        8519.076       -1118.851  
G27  19493743.124      -27157.250        3562.676  
G31  18787397.589       14904.795       -1958.013  
> 2019  1 10  9 50 25.8180439  0  6                     
G 9  20681105.278      -24033.893        3099.005  
G16  17083196.540       -4072.978         524.660  
G23  18926580.780      -15202.481        1960.800  
G26  17360734.012        8658.955       -1117.018  
G27  19493658.571      -27602.366        3558.925  
G31  18787444.045       15149.322       -1959.244  
> 2019  1 10  9 50 25.9430444  0  6                     
G 9  20681031.597      -24421.480        3102.599  
G16  17083184.163       -4138.430         526.756  
G23  18926534.326      -15447.458        1961.835  
G26  17360760.683        8798.838       -1122.471  
G27  19493574.755      -28047.472        3561.371  
G31  18787490.543       15393.850       -1956.148  
> 2019  1 10  9 50 26.0680451  0  6                     
G 9  20680958.354      -24809.066        3101.619  
G16  17083171.891       -4203.899         522.380  
G23  18926487.862      -15692.424        1961.013  
G26  17360787.572        8938.725       -1117.792  
G27  19493489.408      -28492.572        3561.115  
G31  18787537.115       15638.385       -1958.049  
> 2019  1 10  9 50 26.1930459  0  6                     
G 9  20680884.503      -25196.644        3101.419  
G16  17083159.203       -4269.339         522.664  
G23  18926441.698      -15937.378        1957.309  
G26  17360813.619        9078.616       -1119.911  
G27  19493404.823      -28937.678        3559.556  
G31  18787583.929       15882.926       -1955.635  
> 2019  1 10  9 50 26.3180463  0  6                     
G 9  20680810.525      -25584.216        3099.392  
G16  17083146.794       -4334.777         523.873  
G23  18926394.855      -16182.338        1959.907  
G26  17360839.684        9218.515       -1120.498  
G27  19493320.306      -29382.771        3562.693  
G31  18787630.144       16127.469       -1956.880  
> 2019  1 10  9 50 26.4430470  0  6                     
G 9  20680736.241      -25971.786        3100.325  
G16  17083134.855       -4400.207         523.197  
G23  18926347.457      -16427.283        1961.413  
G26  17360866.922        9358.429       -1117.969  
G27  19493235.653      -29827.863        3560.213  
G31  18787677.070       16372.010       -1956.831  
> 2019  1 10  9 50 26.5680478  0  6                     
G 9  20680663.311      -26359.349        3100.021  
G16  17083122.506       -4465.627         528.473  
G23  18926300.947      -16672.223        1959.485  
G26  17360893.624        9498.338       -1120.023  
G27  19493151.093      -30272.944        3561.040  
G31  18787722.984       16616.558       -1956.999  
> 2019  1 10  9 50 26.6930482  0  6                     
G 9  20680589.836      -26746.913        3096.647  
G16  17083109.755       -4531.047         522.354  
G23  18926254.264      -16917.151        1958.018  
G26  17360919.581        9638.257       -1117.519  
G27  19493065.692      -30718.024        3559.081  
G31  18787770.340       16861.111       -1953.799  
> 2019  1 10  9 50 26.8180490  0  6                     
G 9  20680515.985      -27134.460        3100.329  
G16  17083097.375       -4596.456         524.464  
G23  18926208.035      -17162.065        1959.866  
G26  17360946.712        9778.179       -1118.524  
G27  19492981.044      -31163.098        3560.072  
G31  18787816.558       17105.660       -1955.132  
> 2019  1 10  9 50 26.9430497  0  6                     
G 9  20680441.363      -27522.009        3099.312  
G16  17083085.351       -4661.857         523.268  
G23  18926161.494      -17406.980        1959.703  
G26  17360973.803        9918.109       -1119.691  
G27  19492896.329      -31608.171        3559.626  
G31  18787863.001       17350.223       -1955.871  
> 2019  1 10  9 50 27.0680501  0  6                     
G 9  20680367.806      -27909.553        3099.156  
G16  17083072.592       -4727.254         521.778  
G23  18926114.936      -17651.888        1957.763  
G26  17361000.346       10058.044       -1119.078  
G27  19492811.953      -32053.237        3561.989  
G31  18787909.274       17594.788       -1956.084  
> 2019  1 10  9 50 27.1930509  0  6                     
G 9  20680294.316      -28297.089        3100.871  
G16  17083059.853       -4792.632         521.187  
G23  18926068.219      -17896.781        1957.438  
G26  17361027.156       10197.980       -1122.195  
G27  19492726.890      -32498.302        3559.224  
G31  18787955.843       17839.352       -1953.650  
> 2019  1 10  9 50 27.3180516  0  6                     
G 9  20680221.298      -28684.624        3099.979  
G16  17083047.770       -4858.011         519.430  
G23  18926021.134      -18141.670        1960.013  
G26  17361053.727       10337.926       -1118.611  
G27  19492641.651      -32943.358        3561.559  
G31  18788002.329       18083.932       -1956.796  
> 2019  1 10  9 50 27.4430521  0  6                     
G 9  20680147.843      -29072.154        3104.575  
G16  17083035.150       -4923.372         523.542  
G23  18925975.250      -18386.551        1960.626  
G26  17361080.163       10477.877       -1123.215  
G27  19492557.274      -33388.416        3558.576  
G31  18788048.383       18328.501       -1957.422  
> 2019  1 10  9 50 27.5680528  0  6                     
G 9  20680073.288      -29459.678        3099.900  
G16  17083022.003       -4988.736         523.130  
G23  18925928.628      -18631.424        1959.521  
G26  17361106.743       10617.832       -1120.127  
G27  19492472.711      -33833.464        3561.809  
G31  18788094.475       18573.078       -1957.216  
> 2019  1 10  9 50 27.6930535  0  6                     
G 9  20679999.444      -29847.207        3097.921  
G16  17083010.206       -5054.090         521.448  
G23  18925882.457      -18876.294        1957.435  
G26  17361132.435       10757.797       -1119.020  
G27  19492387.800      -34278.506        3558.740  
G31  18788141.903       18817.672       -1956.282  
> 2019  1 10  9 50 27.8180540  0  6                     
G 9  20679925.043      -30234.720        3098.179  
G16  17082998.736       -5119.433         526.109  
G23  18925835.931      -19121.141        1958.589  
G26  17361159.204       10897.766       -1121.176  
G27  19492303.180      -34723.552        3557.464  
G31  18788188.687       19062.253       -1954.889  
> 2019  1 10  9 50 27.9430547  0  6                     
G 9  20679851.493      -30622.226        3098.626  
G16  17082986.274       -5184.766         523.781  
G23  18925788.617      -19365.998        1960.180  
G26  17361185.752       11037.735       -1123.741  
G27  19492218.917      -35168.584        3563.498  
G31  18788235.172       19306.845       -1955.258  
> 2019  1 10  9 50 28.0680554  0  6                     
G 9  20679778.283      -31009.735        3098.812  
G16  17082973.564       -5250.102         521.361  
G23  18925741.862      -19610.831        1958.963  
G26  17361213.591       11177.713       -1120.610  
G27  19492134.248      -35613.616        3558.835  
G31  18788281.624       19551.435       -1956.904  
> 2019  1 10  9 50 28.1930559  0  6                     
G 9  20679704.010      -31397.234        3098.862  
G16  17082961.135       -5315.418         522.540  
G23  18925695.386      -19855.665        1957.957  
G26  17361239.577       11317.699       -1119.569  
G27  19492049.304      -36058.644        3561.686  
G31  18788328.436       19796.042       -1955.576  
> 2019  1 10  9 50 28.3180566  0  6                     
G 9  20679631.040      -31784.728        3101.089  
G16  17082948.447       -5380.729         519.637  
G23  18925648.450      -20100.490        1959.945  
G26  17361266.385       11457.692       -1118.999  
G27  19491965.010      -36503.665        3558.250  
G31  18788374.472       20040.639       -1959.670  
> 2019  1 10  9 50 28.4430573  0  6                     
G 9  20679557.224      -32172.218        3103.225  
G16  17082935.533       -5446.040         520.612  
G23  18925601.560      -20345.306        1954.433  
G26  17361292.578       11597.686       -1119.889  
G27  19491880.348      -36948.680        3559.762  
G31  18788421.034       20285.248       -1956.649  
> 2019  1 10  9 50 28.5680578  0  6                     
G 9  20679483.897      -32559.707        3098.767  
G16  17082922.464       -5511.334         523.159  
G23  18925555.721      -20590.119        1958.445  
G26  17361319.973       11737.690       -1119.893  
G27  19491796.122      -37393.698        3558.656  
G31  18788467.732       20529.861       -1958.168  
> 2019  1 10  9 50 28.6930585  0  6                     
G 9  20679410.234      -32947.189        3099.263  
G16  17082910.763       -5576.624         520.565  
G23  18925509.283      -20834.917        1959.914  
G26  17361346.734       11877.695       -1118.655  
G27  19491711.532      -37838.707        3559.926  
G31  18788514.537       20774.475       -1958.478  
> 2019  1 10  9 50 28.8180592  0  6                     
G 9  20679336.583      -33334.659        3100.080  
G16  17082898.512       -5641.903         521.856  
G23  18925462.426      -21079.711        1956.383  
G26  17361373.238       12017.710       -1121.792  
G27  19491626.350      -38283.709        3559.677  
G31  18788560.986       21019.085       -1954.804  
> 2019  1 10  9 50 28.9430597  0  6                     
G 9  20679261.900      -33722.137        3101.860  
G16  17082886.003       -5707.180         521.186  
G23  18925416.339      -21324.495        1956.792  
G26  17361399.496       12157.729       -1118.373  
G27  19491541.762      -38728.708        3560.186  
G31  18788607.678       21263.716       -1958.156  
> 2019  1 10  9 50 29.0680604  0  6                     
G 9  20679188.415      -34109.604        3099.484  
G16  17082873.953       -5772.445         522.799  
G23  18925369.358      -21569.266        1957.829  
G26  17361426.335       12297.753       -1120.680  
G27  19491456.804      -39173.705        3560.255  
G31  18788654.047       21508.342       -1960.048  
> 2019  1 10  9 50 29.1930609  0  6                     
G 9  20679114.684      -34497.070        3099.293  
G16  17082861.956       -5837.700         523.617  
G23  18925322.658      -21814.040        1957.448  
G26  17361453.086       12437.784       -1119.305  
G27  19491371.798      -39618.698        3563.282  
G31  18788700.090       21752.972       -1955.284  
> 2019  1 10  9 50 29.3180616  0  6                     
G 9  20679040.538      -34884.521        3099.177  
G16  17082849.733       -5902.954         523.013  
G23  18925276.351      -22058.801        1958.068  
G26  17361479.849       12577.818       -1122.009  
G27  19491287.385      -40063.687        3561.845  
G31  18788747.138       21997.607       -1957.099  
> 2019  1 10  9 50 29.4430623  0  6                     
G 9  20678967.138      -35271.972        3099.985  
G16  17082836.532       -5968.194         522.904  
G23  18925229.574      -22303.551        1956.456  
G26  17361506.209       12717.856       -1121.524  
G27  19491202.858      -40508.670        3559.652  
G31  18788794.003       22242.239       -1959.470  
> 2019  1 10  9 50 29.5680628  0  6                     
G 9  20678893.200      -35659.420        3097.168  
G16  17082823.977       -6033.431         521.942  
G23  18925182.965      -22548.293        1958.898  
G26  17361533.263       12857.908       -1119.807  
G27  19491117.924      -40953.639        3561.410  
G31  18788840.519       22486.883       -1957.965  
> 2019  1 10  9 50 29.6930635  0  6                     
G 9  20678819.684      -36046.858        3099.436  
G16  17082811.504       -6098.657         521.733  
G23  18925136.192      -22793.033        1959.642  
G26  17361559.515       12997.960       -1121.781  
G27  19491033.136      -41398.615        3561.490  
G31  18788886.959       22731.531       -1956.149  
> 2019  1 10  9 50 29.8180642  0  6                     
G 9  20678745.380      -36434.299        3099.656  
G16  17082799.348       -6163.876         521.971  
G23  18925089.598      -23037.765        1956.337  
G26  17361586.024       13138.019       -1122.742  
G27  19490948.764      -41843.586        3559.960  
G31  18788933.505       22976.176       -1957.695  
> 2019  1 10  9 50 29.9430647  0  6                     
G 9  20678671.444      -36821.725        3102.942  
G16  17082786.698       -6229.085         521.013  
G23  18925043.201      -23282.486        1957.410  
G26  17361612.956       13278.083       -1122.252  
G27  19490864.041      -42288.551        3557.928  
G31  18788979.413       23220.830       -1955.443  
> 2019  1 10  9 50 30.0680654  0  6                     
G 9  20678597.811      -37209.159        3100.390  
G16  17082774.437       -6294.287         524.217  
G23  18924997.524      -23527.198        1958.984  
G26  17361639.044       13418.152       -1119.160  
G27  19490779.189      -42733.508        3558.867  
G31  18789025.811       23465.495       -1955.985  
> 2019  1 10  9 50 30.1930661  0  6                     
G 9  20678524.451      -37596.587        3098.366  
G16  17082761.267       -6359.483         522.255  
G23  18924950.382      -23771.898        1957.095  
G26  17361665.874       13558.230       -1117.924  
G27  19490694.293      -43178.462        3561.811  
G31  18789073.059       23710.153       -1957.855  
> 2019  1 10  9 50 30.3180666  0  6                     
G 9  20678450.660      -37984.002        3100.431  
G16  17082749.466       -6424.669         522.629  
G23  18924903.780      -24016.598        1957.029  
G26  17361692.554       13698.308       -1123.642  
G27  19490609.783      -43623.415        3559.915  
G31  18789119.617       23954.819       -1959.609  
> 2019  1 10  9 50 30.4430673  0  6                     
G 9  20678376.607      -38371.413        3095.348  
G16  17082737.099       -6489.852         521.529  
G23  18924856.887      -24261.285        1956.964  
G26  17361719.155       13838.397       -1119.304  
G27  19490525.109      -44068.361        3557.808  
G31  18789166.003       24199.482       -1959.601  
> 2019  1 10  9 50 30.5680680  0  6                     
G 9  20678303.591      -38758.821        3099.487  
G16  17082725.843       -6555.020         524.335  
G23  18924810.170      -24505.973        1956.420  
G26  17361745.383       13978.483       -1122.021  
G27  19490440.601      -44513.301        3559.983  
G31  18789213.354       24444.163       -1954.722  
> 2019  1 10  9 50 30.6930685  0  6                     
G 9  20678229.987      -39146.227        3099.927  
G16  17082713.038       -6620.188         519.982  
G23  18924764.251      -24750.639        1958.879  
G26  17361773.233       14118.585       -1122.630  
G27  19490356.176      -44958.239        3559.624  
G31  18789259.721       24688.835       -1955.919  
> 2019  1 10  9 50 30.8180692  0  6                     
G 9  20678156.345      -39533.625        3102.370  
G16  17082700.310       -6685.342         524.080  
G23  18924717.673      -24995.303        1958.312  
G26  17361799.746       14258.688       -1121.262  
G27  19490271.597      -45403.172        3559.499  
G31  18789306.075       24933.516       -1958.818  
> 2019  1 10  9 50 30.9430699  0  6                     
G 9  20678082.487      -39921.018        3098.096  
G16  17082688.134       -6750.490         521.429  
G23  18924671.037      -25239.959        1956.452  
G26  17361825.921       14398.796       -1123.797  
G27  19490186.923      -45848.099        3559.848  
G31  18789352.001       25178.205       -1954.532  
> 2019  1 10  9 50 31.0680704  0  6                     
G 9  20678008.460      -40308.407        3099.073  
G16  17082675.876       -6815.630         523.989  
G23  18924624.967      -25484.610        1955.672  
G26  17361852.476       14538.912       -1120.823  
G27  19490102.451      -46293.022        3556.896  
G31  18789399.085       25422.893       -1960.453  
> 2019  1 10  9 50 31.1930711  0  6                     
G 9  20677934.672      -40695.791        3097.060  
G16  17082662.649       -6880.758         520.881  
G23  18924578.010      -25729.251        1956.696  
G26  17361879.296       14679.032       -1118.970  
G27  19490017.542      -46737.951        3558.629  
G31  18789445.440       25667.581       -1954.706  
> 2019  1 10  9 50 31.3180718  0  6                     
G 9  20677861.227      -41083.171        3098.516  
G16  17082650.318       -6945.882         520.679  
G23  18924531.177      -25973.888        1954.298  
G26  17361905.695       14819.160       -1120.294  
G27  19489932.232      -47182.864        3558.816  
G31  18789491.985       25912.276       -1956.447  
> 2019  1 10  9 50 31.4430723  0  6                     
G 9  20677787.541      -41470.545        3094.874  
G16  17082638.255       -7011.003         519.031  
G23  18924484.436      -26218.513        1959.784  
G26  17361932.648       14959.291       -1122.703  
G27  19489847.610      -47627.768        3560.489  
G31  18789538.489       26156.982       -1959.092  
> 2019  1 10  9 50 31.5680730  0  6                     
G 9  20677713.192      -41857.910        3101.268  
G16  17082626.270       -7076.114         520.381  
G23  18924437.824      -26463.122        1954.824  
G26  17361959.253       15099.421       -1123.622  
G27  19489763.294      -48072.674        3558.446  
G31  18789585.533       26401.681       -1956.050  
> 2019  1 10  9 50 31.6930737  0  6                     
G 9  20677639.657      -42245.274        3096.271  
G16  17082613.390       -7141.213         520.184  
G23  18924391.364      -26707.738        1954.746  
G26  17361985.502       15239.567       -1118.551  
G27  19489678.833      -48517.578        3559.678  
G31  18789631.495       26646.390       -1957.566  
> 2019  1 10  9 50 31.8180742  0  6                     
G 9  20677566.638      -42632.629        3101.681  
G16  17082600.501       -7206.305         521.061  
G23  18924345.041      -26952.341        1958.365  
G26  17362012.969       15379.720       -1120.757  
G27  19489594.488      -48962.479        3557.303  
G31  18789677.771       26891.095       -1958.263  
> 2019  1 10  9 50 31.9430749  0  6                     
G 9  20677492.369      -43019.985        3099.530  
G16  17082587.940       -7271.386         522.159  
G23  18924298.796      -27196.930        1956.634  
G26  17362039.031       15519.861       -1121.879  
G27  19489509.810      -49407.367        3556.972  
G31  18789724.182       27135.811       -1958.376  
> 2019  1 10  9 50 32.0680757  0  6                     
G 9  20677418.812      -43407.337        3098.512  
G16  17082575.617       -7336.466         522.755  
G23  18924252.688      -27441.516        1955.530  
G26  17362065.556       15660.034       -1121.151  
G27  19489425.155      -49852.256        3559.120  
G31  18789771.382       27380.533       -1958.319  
> 2019  1 10  9 50 32.1930761  0  6                     
G 9  20677345.173      -43794.679        3099.919  
G16  17082563.359       -7401.535         522.119  
G23  18924205.438      -27686.098        1957.812  
G26  17362092.839       15800.194       -1119.467  
G27  19489340.442      -50297.139        3557.971  
G31  18789818.187       27625.261       -1954.086  
> 2019  1 10  9 50 32.3180768  0  6                     
G 9  20677270.999      -44182.023        3096.858  
G16  17082551.419       -7466.596         520.854  
G23  18924159.078      -27930.658        1960.120  
G26  17362119.509       15940.365       -1123.943  
G27  19489256.147      -50742.018        3561.513  
G31  18789864.968       27869.982       -1958.124  
> 2019  1 10  9 50 32.4430776  0  6                     
G 9  20677198.128      -44569.360        3100.408  
G16  17082539.102       -7531.651         519.404  
G23  18924111.787      -28175.218        1955.142  
G26  17362145.789       16080.537       -1122.654  
G27  19489170.830      -51186.893        3556.711  
G31  18789911.504       28114.715       -1957.140  
> 2019  1 10  9 50 32.5680780  0  6                     
G 9  20677124.141      -44956.688        3101.761  
G16  17082526.613       -7596.696         523.894  
G23  18924065.182      -28419.780        1954.322  
G26  17362172.395       16220.728       -1119.673  
G27  19489085.869      -51631.764        3560.740  
G31  18789957.895       28359.454       -1959.480  
> 2019  1 10  9 50 32.6930788  0  6                     
G 9  20677050.558      -45344.011        3097.840  
G16  17082513.986       -7661.732         521.698  
G23  18924019.334      -28664.325        1958.824  
G26  17362199.013       16360.914       -1123.013  
G27  19489001.746      -52076.631        3556.590  
G31  18790004.144       28604.191       -1953.797  
> 2019  1 10  9 50 32.8180795  0  6                     
G 9  20676976.515      -45731.333        3094.656  
G16  17082501.380       -7726.762         519.849  
G23  18923972.390      -28908.858        1956.290  
G26  17362226.224       16501.101       -1121.478  
G27  19488916.835      -52521.490        3559.100  
G31  18790050.586       28848.932       -1956.063  
> 2019  1 10  9 50 32.9430799  0  6                     
G 9  20676903.047      -46118.647        3099.832  
G16  17082489.195       -7791.788         516.187  
G23  18923926.062      -29153.384        1953.722  
G26  17362252.741       16641.299       -1119.413  
G27  19488831.707      -52966.346        3560.746  
G31  18790097.336       29093.675       -1958.591  
> 2019  1 10  9 50 33.0680807  0  6                     
G 9  20676829.221      -46505.958        3096.684  
G16  17082477.104       -7856.796         521.245  
G23  18923880.005      -29397.913        1954.943  
G26  17362279.336       16781.509       -1121.495  
G27  19488746.538      -53411.203        3561.438  
G31  18790144.184       29338.426       -1958.561  
> 2019  1 10  9 50 33.1930814  0  6                     
G 9  20676755.739      -46893.263        3101.079  
G16  17082464.682       -7921.803         518.414  
G23  18923833.503      -29642.423        1957.968  
G26  17362305.635       16921.721       -1122.277  
G27  19488662.696      -53856.051        3559.653  
G31  18790190.606       29583.184       -1958.073  
> 2019  1 10  9 50 33.3180819  0  6                     
G 9  20676681.571      -47280.563        3097.982  
G16  17082452.417       -7986.803         520.176  
G23  18923786.982      -29886.928        1955.235  
G26  17362332.223       17061.937       -1123.284  
G27  19488578.432      -54300.893        3558.926  
G31  18790237.597       29827.946       -1960.203  
> 2019  1 10  9 50 33.4430826  0  6                     
G 9  20676607.431      -47667.860        3097.973  
G16  17082440.372       -8051.796         521.151  
G23  18923740.884      -30131.422        1957.254  
G26  17362359.299       17202.156       -1123.118  
G27  19488493.602      -54745.727        3559.630  
G31  18790284.871       30072.708       -1957.377  
> 2019  1 10  9 50 33.5680833  0  6                     
G 9  20676533.213      -48055.155        3100.391  
G16  17082428.111       -8116.775         519.188  
G23  18923694.411      -30375.913        1955.031  
G26  17362385.586       17342.385       -1121.192  
G27  19488408.787      -55190.564        3558.055  
G31  18790330.466       30317.472       -1956.433  
> 2019  1 10  9 50 33.6930838  0  6                     
G 9  20676460.467      -48442.436        3097.292  
G16  17082415.963       -8181.748         519.080  
G23  18923647.571      -30620.398        1954.744  
G26  17362412.826       17482.619       -1118.268  
G27  19488324.209      -55635.393        3559.885  
G31  18790377.279       30562.242       -1958.375  
> 2019  1 10  9 50 33.8180845  0  6                     
G 9  20676387.272      -48829.721        3098.470  
G16  17082403.118       -8246.717         521.126  
G23  18923600.406      -30864.873        1955.528  
G26  17362439.339       17622.859       -1123.968  
G27  19488239.703      -56080.218        3560.233  
G31  18790423.653       30807.017       -1958.399  
> 2019  1 10  9 50 33.9430852  0  6                     
G 9  20676313.286      -49216.999        3096.574  
G16  17082390.214       -8311.675         519.833  
G23  18923553.853      -31109.336        1956.546  
G26  17362466.387       17763.101       -1122.456  
G27  19488155.188      -56525.044        3560.220  
G31  18790469.453       31051.796       -1959.568  
> 2019  1 10  9 50 34.0680857  0  6                     
G 9  20676240.046      -49604.268        3101.730  
G16  17082378.638       -8376.627         521.315  
G23  18923507.614      -31353.791        1954.349  
G26  17362493.004       17903.350       -1121.893  
G27  19488069.792      -56969.856        3556.581  
G31  18790515.873       31296.580       -1957.882  
> 2019  1 10  9 50 34.1930864  0  6                     
G 9  20676166.121      -49991.528        3099.294  
G16  17082366.134       -8441.575         518.011  
G23  18923461.265      -31598.242        1955.799  
G26  17362520.235       18043.605       -1123.095  
G27  19487985.085      -57414.664        3559.094  
G31  18790562.349       31541.360       -1959.503  
> 2019  1 10  9 50 34.3180869  0  6                     
G 9  20676092.412      -50378.796        3098.005  
G16  17082354.139       -8506.515         516.931  
G23  18923414.761      -31842.684        1956.622  
G26  17362546.584       18183.861       -1120.861  
G27  19487901.156      -57859.472        3556.033  
G31  18790608.587       31786.150       -1956.760  
> 2019  1 10  9 50 34.4430876  0  6                     
G 9  20676018.799      -50766.053        3095.353  
G16  17082341.851       -8571.439         518.497  
G23  18923368.853      -32087.120        1956.233  
G26  17362572.911       18324.132       -1120.234  
G27  19487816.157      -58304.272        3559.295  
G31  18790655.936       32030.943       -1956.708  
> 2019  1 10  9 50 34.5680883  0  6                     
G 9  20675945.053      -51153.306        3096.954  
G16  17082328.730       -8636.355         519.421  
G23  18923321.431      -32331.546        1957.301  
G26  17362600.141       18464.406       -1120.800  
G27  19487732.411      -58749.076        3559.591  
G31  18790702.910       32275.748       -1957.553  
> 2019  1 10  9 50 34.6930888  0  6                     
G 9  20675871.017      -51540.553        3100.512  
G16  17082316.714       -8701.264         520.011  
G23  18923275.426      -32575.956        1954.132  
G26  17362626.978       18604.680       -1126.503  
G27  19487647.384      -59193.870        3560.323  
G31  18790750.863       32520.541       -1958.754  
> 2019  1 10  9 50 34.8180895  0  6                     
G 9  20675797.774      -51927.793        3099.615  
G16  17082304.907       -8766.166         517.088  
G23  18923228.374      -32820.365        1956.297  
G26  17362653.388       18744.969       -1119.968  
G27  19487562.478      -59638.655        3556.469  
G31  18790796.948       32765.347       -1958.074  
> 2019  1 10  9 50 34.9430902  0  6                     
G 9  20675723.808      -52315.029        3098.020  
G16  17082292.587       -8831.064         522.539  
G23  18923181.942      -33064.773        1955.707  
G26  17362680.170       18885.255       -1120.932  
G27  19487477.649      -60083.441        3558.131  
G31  18790842.544       33010.157       -1959.640  
> 2019  1 10  9 50 35.0680907  0  6                     
G 9  20675650.449      -52702.264        3098.430  
G16  17082280.076       -8895.956         520.151  
G23  18923135.344      -33309.164        1955.903  
G26  17362706.882       19025.548       -1124.934  
G27  19487393.415      -60528.224        3560.125  
G31  18790889.402       33254.962       -1956.585  
> 2019  1 10  9 50 35.1930914  0  6                     
G 9  20675575.891      -53089.491        3096.094  
G16  17082267.444       -8960.835         519.807  
G23  18923088.612      -33553.546        1952.983  
G26  17362733.030       19165.849       -1124.713  
G27  19487308.174      -60973.002        3558.648  
G31  18790935.815       33499.783       -1959.255  
> 2019  1 10  9 50 35.3180921  0  6                     
G 9  20675502.725      -53476.712        3099.923  
G16  17082254.661       -9025.709         518.671  
G23  18923041.558      -33797.928        1956.048  
G26  17362759.759       19306.152       -1121.935  
G27  19487224.121      -61417.773        3558.972  
G31  18790982.000       33744.609       -1962.970  
> 2019  1 10  9 50 35.4430926  0  6                     
G 9  20675429.365      -53863.929        3097.808  
G16  17082242.810       -9090.577         521.625  
G23  18922995.049      -34042.297        1955.640  
G26  17362786.421       19446.468       -1122.119  
G27  19487138.485      -61862.542        3556.340  
G31  18791029.006       33989.429       -1956.368  
> 2019  1 10  9 50 35.5680933  0  6                     
G 9  20675355.437      -54251.148        3096.324  
G16  17082230.687       -9155.437         517.029  
G23  18922949.650      -34286.657        1956.112  
G26  17362813.006       19586.783       -1122.079  
G27  19487054.628      -62307.302        3559.385  
G31  18791075.252       34234.258       -1957.543  
> 2019  1 10  9 50 35.6930940  0  6                     
G 9  20675282.587      -54638.353        3094.449  
G16  17082218.233       -9220.277         517.806  
G23  18922903.388      -34531.009        1957.041  
G26  17362839.842       19727.115       -1122.936  
G27  19486970.031      -62752.058        3558.348  
G31  18791121.611       34479.087       -1961.320  
> 2019  1 10  9 50 35.8180945  0  6                     
G 9  20675208.638      -55025.559        3098.628  
G16  17082205.443       -9285.119         515.757  
G23  18922856.750      -34775.363        1956.177  
G26  17362866.368       19867.432       -1122.478  
G27  19486885.277      -63196.808        3559.383  
G31  18791168.374       34723.929       -1959.631  
> 2019  1 10  9 50 35.9430952  0  6                     
G 9  20675134.775      -55412.754        3095.347  
G16  17082192.807       -9349.956         518.236  
G23  18922810.385      -35019.696        1955.449  
G26  17362892.845       20007.775       -1121.639  
G27  19486801.397      -63641.562        3559.437  
G31  18791215.616       34968.764       -1959.372  
> 2019  1 10  9 50 36.0680959  0  6                     
G 9  20675060.865      -55799.950        3098.395  
G16  17082180.915       -9414.777         517.671  
G23  18922763.515      -35264.019        1952.454  
G26  17362919.920       20148.103       -1124.691  
G27  19486715.956      -64086.303        3559.373  
G31  18791261.287       35213.613       -1959.247  
> 2019  1 10  9 50 36.1930964  0  6                     
G 9  20674986.763      -56187.139        3098.863  
G16  17082168.692       -9479.599         520.716  
G23  18922716.850      -35508.345        1956.945  
G26  17362946.654       20288.457       -1122.543  
G27  19486631.754      -64531.046        3561.207  
G31  18791308.064       35458.458       -1960.101  
> 2019  1 10  9 50 36.3180971  0  6                     
G 9  20674913.125      -56574.317        3096.139  
G16  17082156.027       -9544.405         517.285  
G23  18922670.718      -35752.660        1956.433  
G26  17362973.114       20428.799       -1120.871  
G27  19486546.872      -64975.781        3556.792  
G31  18791354.579       35703.309       -1959.702  
> 2019  1 10  9 50 36.4430978  0  6                     
G 9  20674839.613      -56961.499        3097.054  
G16  17082143.525       -9609.206         519.849  
G23  18922623.930      -35996.965        1954.173  
G26  17362999.915       20569.166       -1121.888  
G27  19486461.863      -65420.511        3556.676  
G31  18791401.246       35948.164       -1959.777  
> 2019  1 10  9 50 36.5680983  0  6                     
G 9  20674766.187      -57348.667        3099.092  
G16  17082130.431       -9674.002         517.538  
G23  18922577.163      -36241.258        1954.669  
G26  17363027.415       20709.526       -1124.095  
G27  19486376.899      -65865.238        3559.981  
G31  18791448.529       36193.023       -1957.880  
> 2019  1 10  9 50 36.6930990  0  6                     
G 9  20674692.278      -57735.846        3098.161  
G16  17082118.237       -9738.786         516.516  
G23  18922531.402      -36485.547        1950.719  
G26  17363054.322       20849.897       -1122.525  
G27  19486292.509      -66309.963        3556.680  
G31  18791494.842       36437.889       -1959.893  
> 2019  1 10  9 50 36.8180997  0  6                     
G 9  20674618.014      -58123.007        3097.941  
G16  17082106.142       -9803.563         519.103  
G23  18922484.856      -36729.832        1954.120  
G26  17363080.828       20990.264       -1124.212  
G27  19486208.310      -66754.678        3559.979  
G31  18791541.381       36682.758       -1959.757  
> 2019  1 10  9 50 36.9431002  0  6                     
G 9  20674544.282      -58510.167        3097.573  
G16  17082094.519       -9868.339         514.575  
G23  18922437.768      -36974.110        1953.242  
G26  17363107.363       21130.647       -1121.913  
G27  19486123.097      -67199.392        3555.118  
G31  18791588.528       36927.626       -1959.514  
> 2019  1 10  9 50 37.0681009  0  6                     
G 9  20674470.807      -58897.321        3098.940  
G16  17082081.967       -9933.099         518.957  
G23  18922391.460      -37218.377        1954.368  
G26  17363134.198       21271.033       -1122.842  
G27  19486039.295      -67644.094        3559.259  
G31  18791634.881       37172.504       -1958.335  
> 2019  1 10  9 50 37.1931016  0  6                     
G 9  20674397.316      -59284.468        3098.334  
G16  17082069.201       -9997.855         516.939  
G23  18922344.974      -37462.626        1953.990  
G26  17363160.730       21411.420       -1126.254  
G27  19485955.219      -68088.806        3556.951  
G31  18791681.139       37417.380       -1962.055  
> 2019  1 10  9 50 37.3181021  0  6                     
G 9  20674323.711      -59671.617        3096.287  
G16  17082057.164      -10062.598         518.101  
G23  18922298.478      -37706.877        1957.187  
G26  17363186.867       21551.816       -1125.724  
G27  19485869.935      -68533.501        3557.005  
G31  18791727.477       37662.262       -1960.487  
> 2019  1 10  9 50 37.4431028  0  6                     
G 9  20674250.663      -60058.751        3095.972  
G16  17082045.127      -10127.335         515.208  
G23  18922251.755      -37951.121        1956.536  
G26  17363213.662       21692.217       -1125.333  
G27  19485784.839      -68978.196        3557.362  
G31  18791774.439       37907.148       -1954.971  
> 2019  1 10  9 50 37.5681036  0  6                     
G 9  20674176.675      -60445.885        3098.151  
G16  17082032.502      -10192.069         515.045  
G23  18922205.532      -38195.359        1953.553  
G26  17363241.027       21832.631       -1124.904  
G27  19485700.167      -69422.890        3557.487  
G31  18791821.046       38152.038       -1960.734  
> 2019  1 10  9 50 37.6931040  0  6                     
G 9  20674102.408      -60833.017        3096.788  
G16  17082020.603      -10256.793         519.819  
G23  18922159.061      -38439.581        1953.884  
G26  17363267.939       21973.038       -1124.527  
G27  19485616.331      -69867.572        3559.570  
G31  18791867.429       38396.932       -1958.071  
> 2019  1 10  9 50 37.8181047  0  6                     
G 9  20674029.306      -61220.140        3098.592  
G16  17082007.403      -10321.506         519.606  
G23  18922112.886      -38683.798        1955.254  
G26  17363294.286       22113.460       -1122.196  
G27  19485532.011      -70312.250        3556.960  
G31  18791913.815       38641.831       -1960.814  
> 2019  1 10  9 50 37.9431055  0  6                     
G 9  20673956.077      -61607.267        3094.948  
G16  17081995.354      -10386.217         517.562  
G23  18922065.957      -38928.009        1953.826  
G26  17363320.108       22253.882       -1125.120  
G27  19485447.701      -70756.928        3558.792  
G31  18791961.014       38886.737       -1956.507  
> 2019  1 10  9 50 38.0681059  0  6                     
G 9  20673881.862      -61994.377        3096.234  
G16  17081983.695      -10450.915         513.545  
G23  18922019.911      -39172.209        1953.080  
G26  17363347.504       22394.310       -1124.187  
G27  19485362.244      -71201.603        3560.909  
G31  18792008.082       39131.641       -1958.827  
> 2019  1 10  9 50 38.1931067  0  6                     
G 9  20673808.218      -62381.487        3099.099  
G16  17081971.312      -10515.611         519.236  
G23  18921972.814      -39416.402        1952.787  
G26  17363374.449       22534.754       -1121.793  
G27  19485277.735      -71646.270        3556.058  
G31  18792054.839       39376.545       -1960.720  
> 2019  1 10  9 50 38.3181074  0  6                     
G 9  20673734.299      -62768.591        3095.308  
G16  17081959.789      -10580.288         519.644  
G23  18921926.638      -39660.588        1954.598  
G26  17363401.413       22675.187       -1122.617  
G27  19485192.893      -72090.935        3555.778  
G31  18792100.966       39621.465       -1958.550  
> 2019  1 10  9 50 38.4431078  0  6                     
G 9  20673660.953      -63155.695        3096.518  
G16  17081946.621      -10644.969         516.894  
G23  18921880.019      -39904.763        1955.209  
G26  17363427.960       22815.635       -1123.852  
G27  19485108.425      -72535.593        3554.827  
G31  18792147.341       39866.379       -1960.524  
> 2019  1 10  9 50 38.5681086  0  6                     
G 9  20673587.561      -63542.787        3099.515  
G16  17081933.683      -10709.631         520.885  
G23  18921833.628      -40148.939        1955.202  
G26  17363454.628       22956.089       -1123.097  
G27  19485023.889      -72980.250        3557.354  
G31  18792194.275       40111.300       -1961.755  
> 2019  1 10  9 50 38.6931093  0  6                     
G 9  20673513.785      -63929.881        3094.464  
G16  17081921.985      -10774.295         519.261  
G23  18921787.408      -40393.096        1954.719  
G26  17363481.566       23096.543       -1121.359  
G27  19484938.715      -73424.897        3558.412  
G31  18792240.174       40356.225       -1958.812  
> 2019  1 10  9 50 38.8181098  0  6                     
G 9  20673441.014      -64316.964        3097.324  
G16  17081909.797      -10838.944         513.954  
G23  18921740.996      -40637.251        1954.450  
G26  17363507.954       23237.009       -1123.320  
G27  19484854.300      -73869.547        3560.189  
G31  18792287.006       40601.159       -1963.848  
> 2019  1 10  9 50 38.9431105  0  6                     
G 9  20673366.293      -64704.044        3098.877  
G16  17081897.368      -10903.590         517.302  
G23  18921695.216      -40881.394        1950.430  
G26  17363534.913       23377.479       -1124.976  
G27  19484769.303      -74314.190        3555.306  
G31  18792333.882       40846.087       -1954.792  
> 2019  1 10  9 50 39.0681112  0  6                     
G 9  20673292.789      -65091.122        3094.951  
G16  17081885.243      -10968.226         517.537  
G23  18921649.097      -41125.533        1949.479  
G26  17363561.525       23517.953       -1125.774  
G27  19484684.736      -74758.822        3557.721  
G31  18792380.865       41091.025       -1958.018  
> 2019  1 10  9 50 39.1931117  0  6                     
G 9  20673219.818      -65478.195        3097.676  
G16  17081872.375      -11032.855         517.647  
G23  18921602.599      -41369.664        1953.649  
G26  17363588.237       23658.433       -1124.736  
G27  19484600.295      -75203.456        3555.563  
G31  18792427.966       41335.969       -1962.633  
> 2019  1 10  9 50 39.3181124  0  6                     
G 9  20673146.228      -65865.260        3099.864  
G16  17081860.930      -11097.477         518.153  
G23  18921555.435      -41613.782        1952.330  
G26  17363615.263       23798.921       -1122.074  
G27  19484515.977      -75648.087        3555.393  
G31  18792474.573       41580.913       -1959.702  
> 2019  1 10  9 50 39.4431129  0  6                     
G 9  20673071.776      -66252.320        3096.333  
G16  17081848.252      -11162.088         515.969  
G23  18921508.911      -41857.897        1952.155  
G26  17363642.010       23939.411       -1122.821  
G27  19484431.097      -76092.704        3558.803  
G31  18792520.475       41825.858       -1959.894  
> 2019  1 10  9 50 39.5681136  0  6                     
G 9  20672998.159      -66639.373        3096.712  
G16  17081835.459      -11226.696         517.166  
G23  18921462.576      -42102.010        1951.817  
G26  17363668.552       24079.906       -1124.595  
G27  19484346.790      -76537.324        3561.532  
G31  18792566.660       42070.814       -1959.095  
> 2019  1 10  9 50 39.6931143  0  6                     
G 9  20672924.234      -67026.428        3100.608  
G16  17081823.175      -11291.299         516.491  
G23  18921416.084      -42346.104        1950.398  
G26  17363695.289       24220.411       -1119.657  
G27  19484262.178      -76981.940        3552.617  
G31  18792614.017       42315.771       -1959.998  
> 2019  1 10  9 50 39.8181148  0  6                     
G 9  20672850.895      -67413.478        3093.892  
G16  17081809.958      -11355.881         521.542  
G23  18921368.511      -42590.190        1950.720  
G26  17363722.379       24360.925       -1123.797  
G27  19484178.648      -77426.548        3559.182  
G31  18792660.518       42560.729       -1962.411  
> 2019  1 10  9 50 39.9431155  0  6                     
G 9  20672776.753      -67800.518        3096.094  
G16  17081798.656      -11420.464         515.538  
G23  18921322.019      -42834.271        1956.381  
G26  17363748.551       24501.437       -1122.986  
G27  19484093.166      -77871.149        3558.641  
G31  18792706.473       42805.696       -1958.976  
> 2019  1 10  9 50 40.0681162  0  6                     
G 9  20672703.239      -68187.557        3094.899  
G16  17081787.040      -11485.028         516.535  
G23  18921276.092      -43078.350        1950.724  
G26  17363775.015       24641.952       -1126.146  
G27  19484007.749      -78315.758        3556.948  
G31  18792753.573       43050.666       -1959.304  
> 2019  1 10  9 50 40.1931167  0  6                     
G 9  20672629.583      -68574.583        3096.015  
G16  17081773.688      -11549.598         515.062  
G23  18921229.168      -43322.416        1953.233  
G26  17363802.014       24782.486       -1122.113  
G27  19483923.889      -78760.362        3558.132  
G31  18792800.747       43295.638       -1959.111  
> 2019  1 10  9 50 40.3181174  0  6                     
G 9  20672555.409      -68961.606        3096.288  
G16  17081761.692      -11614.167         513.182  
G23  18921183.019      -43566.474        1953.038  
G26  17363829.016       24923.013       -1125.308  
G27  19483839.091      -79204.938        3559.194  
G31  18792847.204       43540.611       -1961.922  
> 2019  1 10  9 50 40.4431181  0  6                     
G 9  20672481.856      -69348.641        3096.898  
G16  17081749.188      -11678.702         516.371  
G23  18921136.979      -43810.516        1953.754  
G26  17363855.228       25063.549       -1124.740  
G27  19483754.863      -79649.535        3557.845  
G31  18792893.421       43785.594       -1961.030  
> 2019  1 10  9 50 40.5681186  0  6                     
G 9  20672408.121      -69735.647        3096.104  
G16  17081737.733      -11743.255         515.102  
G23  18921090.769      -44054.565        1954.172  
G26  17363882.492       25204.091       -1125.126  
G27  19483669.279      -80094.111        3554.053  
G31  18792940.027       44030.575       -1958.937  
> 2019  1 10  9 50 40.6931193  0  6                     
G 9  20672334.927      -70122.666        3094.147  
G16  17081725.389      -11807.784         517.872  
G23  18921044.446      -44298.597        1953.956  
G26  17363908.981       25344.638       -1123.753  
G27  19483584.608      -80538.690        3556.328  
G31  18792986.576       44275.564       -1958.999  
> 2019  1 10  9 50 40.8181200  0  6                     
G 9  20672261.197      -70509.676        3099.191  
G16  17081713.049      -11872.315         517.443  
G23  18920997.678      -44542.625        1950.702  
G26  17363936.032       25485.193       -1124.358  
G27  19483500.441      -80983.267        3556.309  
G31  18793033.286       44520.557       -1961.342  
> 2019  1 10  9 50 40.9431205  0  6                     
G 9  20672187.733      -70896.679        3095.627  
G16  17081700.384      -11936.833         517.799  
G23  18920951.043      -44786.637        1955.136  
G26  17363963.116       25625.752       -1126.866  
G27  19483416.550      -81427.832        3557.565  
G31  18793079.736       44765.548       -1959.538  
> 2019  1 10  9 50 41.0681212  0  6                     
G 9  20672114.048      -71283.679        3096.545  
G16  17081687.784      -12001.341         517.737  
G23  18920904.328      -45030.648        1950.568  
G26  17363989.348       25766.321       -1125.652  
G27  19483332.019      -81872.397        3556.335  
G31  18793126.100       45010.548       -1960.157  
> 2019  1 10  9 50 41.1931219  0  6                     
G 9  20672040.376      -71670.667        3096.487  
G16  17081675.253      -12065.846         511.442  
G23  18920857.759      -45274.649        1954.263  
G26  17364016.042       25906.887       -1128.684  
G27  19483247.430      -82316.961        3555.974  
G31  18793172.737       45255.556       -1959.214  
> 2019  1 10  9 50 41.3181224  0  6                     
G 9  20671966.588      -72057.659        3093.719  
G16  17081662.672      -12130.343         515.435  
G23  18920811.878      -45518.647        1951.461  
G26  17364042.570       26047.465       -1121.179  
G27  19483162.560      -82761.511        3554.462  
G31  18793219.279       45500.560       -1956.464  
> 2019  1 10  9 50 41.4431231  0  6                     
G 9  20671893.152      -72444.638        3094.800  
G16  17081650.309      -12194.833         516.420  
G23  18920765.388      -45762.631        1951.459  
G26  17364069.383       26188.045       -1126.317  
G27  19483077.725      -83206.064        3557.239  
G31  18793265.926       45745.567       -1962.063  
> 2019  1 10  9 50 41.5681238  0  6                     
G 9  20671818.972      -72831.617        3092.279  
G16  17081639.474      -12259.308         517.932  
G23  18920719.223      -46006.611        1951.552  
G26  17364096.344       26328.630       -1128.591  
G27  19482993.682      -83650.607        3556.802  
G31  18793312.682       45990.580       -1959.852  
> 2019  1 10  9 50 41.6931243  0  6                     
G 9  20671745.992      -73218.592        3096.667  
G16  17081626.997      -12323.781         511.366  
G23  18920672.467      -46250.581        1952.902  
G26  17364123.506       26469.228       -1123.958  
G27  19482908.257      -84095.153        3555.143  
G31  18793359.151       46235.605       -1960.973  
> 2019  1 10  9 50 41.8181250  0  6                     
G 9  20671672.060      -73605.560        3096.393  
G16  17081614.491      -12388.240         519.551  
G23  18920626.320      -46494.536        1952.199  
G26  17364150.266       26609.820       -1121.709  
G27  19482824.044      -84539.693        3555.622  
G31  18793406.385       46480.625       -1960.701  
> 2019  1 10  9 50 41.9431257  0  6                     
G 9  20671598.083      -73992.528        3093.624  
G16  17081602.551      -12452.698         513.864  
G23  18920579.766      -46738.492        1952.281  
G26  17364176.834       26750.428       -1123.479  
G27  19482739.042      -84984.223        3557.823  
G31  18793453.311       46725.656       -1959.166  
> 2019  1 10  9 50 42.0681262  0  6                     
G 9  20671524.879      -74379.484        3096.109  
G16  17081591.495      -12517.148         517.170  
G23  18920533.916      -46982.443        1952.611  
G26  17364204.565       26891.044       -1128.045  
G27  19482654.289      -85428.756        3554.687  
G31  18793499.467       46970.686       -1958.592  
> 2019  1 10  9 50 42.1931269  0  6                     
G 9  20671451.833      -74766.433        3094.520  
G16  17081578.144      -12581.582         517.930  
G23  18920487.202      -47226.379        1951.711  
G26  17364230.190       27031.654       -1127.271  
G27  19482570.336      -85873.277        3557.622  
G31  18793546.377       47215.716       -1960.829  
> 2019  1 10  9 50 42.3181276  0  6                     
G 9  20671377.970      -75153.384        3096.515  
G16  17081565.810      -12646.017         512.638  
G23  18920440.881      -47470.307        1950.261  
G26  17364256.583       27172.275       -1126.361  
G27  19482485.607      -86317.799        3555.405  
G31  18793593.143       47460.754       -1958.821  
> 2019  1 10  9 50 42.4431281  0  6                     
G 9  20671304.305      -75540.327        3095.870  
G16  17081553.418      -12710.440         516.798  
G23  18920394.170      -47714.228        1950.816  
G26  17364283.558       27312.896       -1124.075  
G27  19482401.439      -86762.312        3557.014  
G31  18793639.441       47705.801       -1961.455  
> 2019  1 10  9 50 42.5681288  0  6                     
G 9  20671230.305      -75927.266        3092.208  
G16  17081540.731      -12774.858         517.154  
G23  18920347.845      -47958.139        1951.008  
G26  17364309.873       27453.534       -1125.598  
G27  19482316.784      -87206.819        3556.239  
G31  18793685.890       47950.842       -1960.521  
> 2019  1 10  9 50 42.6931295  0  6                     
G 9  20671157.026      -76314.208        3091.710  
G16  17081528.810      -12839.270         516.829  
G23  18920300.856      -48202.046        1949.465  
G26  17364336.525       27594.168       -1124.854  
G27  19482232.013      -87651.326        3555.558  
G31  18793732.730       48195.893       -1960.831  
> 2019  1 10  9 50 42.8181300  0  6                     
G 9  20671083.361      -76701.128        3098.314  
G16  17081517.115      -12903.672         511.988  
G23  18920254.955      -48445.944        1950.782  
G26  17364363.259       27734.816       -1126.057  
G27  19482146.878      -88095.826        3555.442  
G31  18793779.380       48440.944       -1961.126  
> 2019  1 10  9 50 42.9431307  0  6                     
G 9  20671010.486      -77088.055        3094.316  
G16  17081504.430      -12968.061         514.241  
G23  18920208.548      -48689.836        1951.682  
G26  17364389.901       27875.471       -1125.602  
G27  19482062.536      -88540.329        3554.245  
G31  18793825.463       48686.001       -1962.353  
> 2019  1 10  9 50 43.0681314  0  6                     
G 9  20670936.381      -77474.975        3094.074  
G16  17081492.028      -13032.444         513.241  
G23  18920162.386      -48933.715        1951.507  
G26  17364416.844       28016.123       -1121.170  
G27  19481978.025      -88984.824        3555.234  
G31  18793872.808       48931.065       -1962.347  
> 2019  1 10  9 50 43.1931319  0  6                     
G 9  20670862.891      -77861.890        3095.186  
G16  17081479.841      -13096.822         516.144  
G23  18920115.823      -49177.591        1953.263  
G26  17364444.121       28156.780       -1126.204  
G27  19481893.017      -89429.308        3554.978  
G31  18793919.075       49176.131       -1958.956  
> 2019  1 10  9 50 43.3181326  0  6                     
G 9  20670788.665      -78248.803        3095.760  
G16  17081467.391      -13161.189         513.544  
G23  18920069.436      -49421.458        1947.055  
G26  17364471.198       28297.444       -1127.063  
G27  19481808.893      -89873.794        3557.101  
G31  18793966.448       49421.200       -1959.412  
> 2019  1 10  9 50 43.4431334  0  6                     
G 9  20670715.346      -78635.706        3094.846  
G16  17081454.940      -13225.548         518.656  
G23  18920022.912      -49665.313        1953.148  
G26  17364497.069       28438.122       -1127.014  
G27  19481724.773      -90318.273        3556.064  
G31  18794012.616       49666.272       -1960.196  
> 2019  1 10  9 50 43.5681338  0  6                     
G 9  20670641.519      -79022.605        3093.866  
G16  17081442.570      -13289.901         515.523  
G23  18919976.822      -49909.160        1953.839  
G26  17364523.643       28578.792       -1127.126  
G27  19481639.982      -90762.744        3555.250  
G31  18794059.315       49911.351       -1957.845  
> 2019  1 10  9 50 43.6931345  0  6                     
G 9  20670568.103      -79409.502        3093.271  
G16  17081430.091      -13354.254         515.518  
G23  18919929.567      -50153.004        1952.606  
G26  17364550.829       28719.475       -1125.654  
G27  19481555.117      -91207.216        3554.831  
G31  18794105.728       50156.435       -1960.629  
> 2019  1 10  9 50 43.8181353  0  6                     
G 9  20670494.336      -79796.383        3092.980  
G16  17081417.431      -13418.591         512.979  
G23  18919883.380      -50396.843        1950.293  
G26  17364577.462       28860.167       -1126.201  
G27  19481471.033      -91651.680        3556.189  
G31  18794152.455       50401.514       -1961.232  
> 2019  1 10  9 50 43.9431357  0  6                     
G 9  20670420.260      -80183.277        3093.469  
G16  17081406.547      -13482.914         515.622  
G23  18919836.812      -50640.667        1951.363  
G26  17364604.780       29000.865       -1124.275  
G27  19481385.294      -92096.140        3555.042  
G31  18794199.649       50646.606       -1958.396  
> 2019  1 10  9 50 44.0681365  0  6                     
G 9  20670346.755      -80570.161        3094.741  
G16  17081394.947      -13547.241         517.046  
G23  18919790.355      -50884.482        1950.670  
G26  17364631.789       29141.563       -1126.753  
G27  19481299.788      -92540.596        3555.130  
G31  18794245.739       50891.700       -1959.886  
> 2019  1 10  9 50 44.1931372  0  6                     
G 9  20670274.069      -80957.031        3095.418  
G16  17081383.791      -13611.552         514.533  
G23  18919744.829      -51128.294        1951.487  
G26  17364658.771       29282.267       -1124.388  
G27  19481214.474      -92985.050        3554.685  
G31  18794292.386       51136.796       -1958.688  
> 2019  1 10  9 50 44.3181376  0  6                     
G 9  20670200.308      -81343.898        3095.467  
G16  17081370.256      -13675.861         514.109  
G23  18919698.652      -51372.097        1948.449  
G26  17364685.543       29422.978       -1125.863  
G27  19481130.684      -93429.496        3555.494  
G31  18794338.414       51381.890       -1959.574  
> 2019  1 10  9 50 44.4431384  0  6                     
G 9  20670126.073      -81730.767        3094.621  
G16  17081358.277      -13740.164         515.142  
G23  18919651.826      -51615.886        1949.972  
G26  17364712.085       29563.693       -1126.668  
G27  19481046.584      -93873.935        3556.116  
G31  18794385.504       51627.001       -1961.097  
> 2019  1 10  9 50 44.5681391  0  6                     
G 9  20670052.054      -82117.629        3095.121  
G16  17081345.418      -13804.454         513.409  
G23  18919605.768      -51859.674        1949.786  
G26  17364739.742       29704.419       -1125.661  
G27  19480961.621      -94318.376        3554.746  
G31  18794432.304       51872.105       -1960.291  
> 2019  1 10  9 50 44.6931396  0  6                     
G 9  20669977.521      -82504.489        3092.668  
G16  17081332.783      -13868.736         514.966  
G23  18919558.941      -52103.456        1950.740  
G26  17364766.719       29845.146       -1126.802  
G27  19480877.695      -94762.815        3551.677  
G31  18794478.706       52117.224       -1961.078  
> 2019  1 10  9 50 44.8181403  0  6                     
G 9  20669904.294      -82891.339        3092.330  
G16  17081320.900      -13933.005         515.587  
G23  18919511.978      -52347.225        1949.789  
G26  17364792.364       29985.878       -1126.698  
G27  19480793.325      -95207.240        3559.150  
G31  18794525.680       52362.336       -1961.994  
> 2019  1 10  9 50 44.9431407  0  6                     
G 9  20669831.591      -83278.180        3096.223  
G16  17081308.691      -13997.272         514.306  
G23  18919466.076      -52590.983        1951.358  
G26  17364818.970       30126.619       -1126.323  
G27  19480709.472      -95651.664        3556.601  
G31  18794572.508       52607.453       -1961.199  
> 2019  1 10  9 50 45.0681415  0  6                     
G 9  20669757.769      -83665.024        3096.713  
G16  17081296.484      -14061.538         510.383  
G23  18919420.105      -52834.737        1952.392  
G26  17364845.891       30267.366       -1124.721  
G27  19480624.760      -96096.087        3554.067  
G31  18794618.893       52852.576       -1962.113  
> 2019  1 10  9 50 45.1931422  0  6                     
G 9  20669684.545      -84051.860        3093.515  
G16  17081284.184      -14125.785         512.256  
G23  18919374.165      -53078.482        1951.131  
G26  17364872.707       30408.116       -1124.429  
G27  19480540.152      -96540.502        3556.433  
G31  18794665.480       53097.703       -1960.963  
> 2019  1 10  9 50 45.3181427  0  6                     
G 9  20669611.085      -84438.689        3095.128  
G16  17081271.471      -14190.032         512.030  
G23  18919327.286      -53322.222        1949.145  
G26  17364899.821       30548.869       -1124.846  
G27  19480455.520      -96984.915        3557.979  
G31  18794711.924       53342.836       -1963.245  
> 2019  1 10  9 50 45.4431434  0  6                     
G 9  20669537.385      -84825.518        3094.410  
G16  17081259.316      -14254.267         512.823  
G23  18919281.268      -53565.952        1949.725  
G26  17364926.205       30689.630       -1127.857  
G27  19480371.369      -97429.321        3556.014  
G31  18794758.842       53587.971       -1962.225  
> 2019  1 10  9 50 45.5681441  0  6                     
G 9  20669463.739      -85212.341        3097.081  
G16  17081246.378      -14318.493         513.885  
G23  18919235.022      -53809.671        1952.079  
G26  17364953.319       30830.400       -1127.479  
G27  19480287.986      -97873.722        3556.875  
G31  18794805.371       53833.113       -1961.139  
> 2019  1 10  9 50 45.6931446  0  6                     
G 9  20669390.121      -85599.155        3094.346  
G16  17081235.169      -14382.708         511.040  
G23  18919188.279      -54053.385        1952.052  
G26  17364980.195       30971.168       -1131.668  
G27  19480202.605      -98318.127        3554.966  
G31  18794852.012       54078.253       -1956.100  
> 2019  1 10  9 50 45.8181453  0  6                     
G 9  20669316.914      -85985.973        3093.698  
G16  17081222.939      -14446.925         514.146  
G23  18919141.611      -54297.093        1950.832  
G26  17365006.550       31111.951       -1128.148  
G27  19480117.337      -98762.517        3556.255  
G31  18794898.971       54323.406       -1961.244  
> 2019  1 10  9 50 45.9431460  0  6                     
G 9  20669243.226      -86372.770        3093.014  
G16  17081209.771      -14511.129         513.511  
G23  18919095.483      -54540.789        1952.003  
G26  17365033.072       31252.736       -1126.198  
G27  19480033.251      -99206.903        3554.307  
G31  18794944.849       54568.549       -1962.385  
> 2019  1 10  9 50 46.0681465  0  6                     
G 9  20669169.644      -86759.572        3095.932  
G16  17081198.953      -14575.326         515.160  
G23  18919048.240      -54784.485        1947.246  
G26  17365060.010       31393.530       -1121.329  
G27  19479947.642      -99651.286        3556.625  
G31  18794991.675       54813.700       -1964.572  
> 2019  1 10  9 50 46.1931472  0  6                     
G 9  20669096.035      -87146.369        3094.364  
G16  17081186.257      -14639.519         514.460  
G23  18919002.143      -55028.163        1952.945  
G26  17365086.323       31534.319       -1127.782  
G27  19479863.931     -100095.666        3556.796  
G31  18795037.953       55058.858       -1963.623  
> 2019  1 10  9 50 46.3181479  0  6                     
G 9  20669022.029      -87533.166        3093.923  
G16  17081173.901      -14703.698         510.448  
G23  18918955.502      -55271.838        1952.266  
G26  17365113.284       31675.119       -1129.507  
G27  19479779.515     -100540.041        3556.632  
G31  18795085.321       55304.029       -1961.908  
> 2019  1 10  9 50 46.4431484  0  6                     
G 9  20668947.974      -87919.952        3093.609  
G16  17081161.693      -14767.866         515.420  
G23  18918909.667      -55515.500        1947.942  
G26  17365140.013       31815.923       -1128.458  
G27  19479695.188     -100984.416        3555.822  
G31  18795132.562       55549.193       -1959.957  
> 2019  1 10  9 50 46.5681491  0  6                     
G 9  20668874.046      -88306.735        3096.421  
G16  17081150.685      -14832.035         510.747  
G23  18918863.270      -55759.160        1947.654  
G26  17365167.324       31956.734       -1129.399  
G27  19479609.380     -101428.780        3554.302  
G31  18795178.882       55794.366       -1960.311  
> 2019  1 10  9 50 46.6931498  0  6                     
G 9  20668801.003      -88693.510        3098.218  
G16  17081137.111      -14896.190         510.961  
G23  18918817.443      -56002.808        1947.062  
G26  17365193.587       32097.554       -1126.422  
G27  19479525.588     -101873.142        3555.091  
G31  18795225.340       56039.536       -1963.314  
> 2019  1 10  9 50 46.8181503  0  6                     
G 9  20668727.405      -89080.287        3096.009  
G16  17081125.281      -14960.335         510.529  
G23  18918771.215      -56246.454        1949.379  
G26  17365220.306       32238.379       -1128.001  
G27  19479441.043     -102317.500        3551.963  
G31  18795271.688       56284.714       -1960.339  
> 2019  1 10  9 50 46.9431510  0  6                     
G 9  20668653.743      -89467.055        3093.670  
G16  17081113.149      -15024.479         512.844  
G23  18918724.373      -56490.082        1950.309  
G26  17365247.075       32379.212       -1128.847  
G27  19479356.567     -102761.851        3555.570  
G31  18795317.983       56529.896       -1963.485  
> 2019  1 10  9 50 47.0681517  0  6                     
G 9  20668580.505      -89853.817        3095.639  
G16  17081100.965      -15088.614         512.132  
G23  18918677.072      -56733.713        1949.504  
G26  17365274.240       32520.042       -1122.931  
G27  19479272.243     -103206.203        3555.033  
G31  18795365.247       56775.086       -1966.388  
> 2019  1 10  9 50 47.1931522  0  6                     
G 9  20668507.317      -90240.578        3094.793  
G16  17081089.097      -15152.737         510.505  
G23  18918630.422      -56977.335        1946.078  
G26  17365300.930       32660.884       -1125.813  
G27  19479187.019     -103650.546        3555.954  
G31  18795411.926       57020.278       -1961.991  
> 2019  1 10  9 50 47.3181529  0  6                     
G 9  20668433.834      -90627.326        3094.033  
G16  17081076.622      -15216.853         516.882  
G23  18918584.810      -57220.942        1949.264  
G26  17365328.186       32801.733       -1126.678  
G27  19479102.126     -104094.882        3556.462  
G31  18795458.616       57265.469       -1963.519  
> 2019  1 10  9 50 47.4431536  0  6                     
G 9  20668360.133      -91014.077        3093.658  
G16  17081064.153      -15280.967         512.029  
G23  18918538.116      -57464.539        1948.162  
G26  17365354.983       32942.584       -1125.621  
G27  19479017.835     -104539.221        3553.635  
G31  18795504.950       57510.665       -1958.838  
> 2019  1 10  9 50 47.5681541  0  6                     
G 9  20668286.093      -91400.821        3095.843  
G16  17081052.156      -15345.067         512.929  
G23  18918492.400      -57708.132        1948.386  
G26  17365381.936       33083.446       -1129.095  
G27  19478934.220     -104983.549        3556.031  
G31  18795551.710       57755.865       -1963.371  
> 2019  1 10  9 50 47.6931548  0  6                     
G 9  20668212.164      -91787.559        3094.341  
G16  17081039.414      -15409.158         513.876  
G23  18918446.313      -57951.715        1946.703  
G26  17365408.786       33224.305       -1125.995  
G27  19478850.161     -105427.878        3556.012  
G31  18795597.846       58001.071       -1960.002  
> 2019  1 10  9 50 47.8181555  0  6                     
G 9  20668138.890      -92174.284        3097.870  
G16  17081027.376      -15473.247         512.732  
G23  18918400.164      -58195.298        1945.758  
G26  17365435.300       33365.171       -1124.386  
G27  19478764.318     -105872.197        3554.421  
G31  18795644.054       58246.277       -1963.253  
> 2019  1 10  9 50 47.9431560  0  6                     
G 9  20668064.774      -92561.021        3093.126  
G16  17081015.279      -15537.327         512.488  
G23  18918354.359      -58438.866        1948.440  
G26  17365462.380       33506.047       -1124.018  
G27  19478679.558     -106316.515        3554.726  
G31  18795691.025       58491.493       -1962.110  
> 2019  1 10  9 50 48.0681567  0  6                     
G 9  20667991.617      -92947.740        3095.818  
G16  17081004.039      -15601.397         509.703  
G23  18918307.110      -58682.429        1948.814  
G26  17365489.434       33646.930       -1127.387  
G27  19478595.315     -106760.829        3553.222  
G31  18795738.294       58736.711       -1961.012  
> 2019  1 10  9 50 48.1931574  0  6                     
G 9  20667918.229      -93334.462        3094.803  
G16  17080991.601      -15665.457         512.068  
G23  18918260.487      -58925.985        1946.867  
G26  17365516.117       33787.807       -1128.284  
G27  19478510.477     -107205.134        3554.789  
G31  18795785.125       58981.929       -1959.206  
> 2019  1 10  9 50 48.3181579  0  6                     
G 9  20667844.897      -93721.175        3093.374  
G16  17080979.251      -15729.517         512.476  
G23  18918214.591      -59169.522        1950.374  
G26  17365542.722       33928.698       -1127.480  
G27  19478425.843     -107649.438        3556.043  
G31  18795832.053       59227.152       -1963.353  
> 2019  1 10  9 50 48.4431586  0  6                     
G 9  20667770.918      -94107.884        3092.423  
G16  17080967.389      -15793.561         511.428  
G23  18918168.848      -59413.067        1949.226  
G26  17365569.484       34069.600       -1127.786  
G27  19478341.761     -108093.736        3553.333  
G31  18795878.907       59472.379       -1960.606  
> 2019  1 10  9 50 48.5681593  0  6                     
G 9  20667697.738      -94494.590        3094.065  
G16  17080954.918      -15857.600         512.415  
G23  18918121.740      -59656.590        1950.020  
G26  17365595.794       34210.491       -1128.514  
G27  19478257.309     -108538.031        3551.656  
G31  18795925.053       59717.615       -1957.391  
> 2019  1 10  9 50 48.6931598  0  6                     
G 9  20667624.147      -94881.285        3095.353  
G16  17080942.845      -15921.631         512.893  
G23  18918075.657      -59900.120        1948.086  
G26  17365622.475       34351.412       -1127.046  
G27  19478172.519     -108982.319        3554.388  
G31  18795971.905       59962.847       -1965.722  
> 2019  1 10  9 50 48.8181605  0  6                     
G 9  20667550.132      -95267.982        3094.410  
G16  17080931.172      -15985.650         513.181  
G23  18918029.787      -60143.635        1947.565  
G26  17365649.592       34492.322       -1127.557  
G27  19478087.563     -109426.607        3555.094  
G31  18796018.555       60208.091       -1962.483  
> 2019  1 10  9 50 48.9431612  0  6                     
G 9  20667476.864      -95654.675        3093.627  
G16  17080917.998      -16049.670         511.220  
G23  18917983.250      -60387.136        1949.427  
G26  17365676.866       34633.245       -1128.038  
G27  19478003.201     -109870.886        3556.805  
G31  18796065.435       60453.340       -1962.683  
> 2019  1 10  9 50 49.0681617  0  6                     
G 9  20667402.739      -96041.353        3094.574  
G16  17080905.965      -16113.678         512.569  
G23  18917936.621      -60630.636        1947.289  
G26  17365703.019       34774.166       -1122.271  
G27  19477918.605     -110315.159        3554.029  
G31  18796111.873       60698.582       -1962.560  
> 2019  1 10  9 50 49.1931624  0  6                     
G 9  20667329.648      -96428.030        3093.231  
G16  17080893.340      -16177.679         510.961  
G23  18917889.357      -60874.128        1946.940  
G26  17365730.634       34915.096       -1128.733  
G27  19477833.907     -110759.433        3554.069  
G31  18796158.627       60943.837       -1959.927  
> 2019  1 10  9 50 49.3181632  0  6                     
G 9  20667256.057      -96814.715        3090.009  
G16  17080881.250      -16241.666         511.431  
G23  18917842.841      -61117.607        1945.087  
G26  17365757.284       35056.035       -1128.554  
G27  19477748.964     -111203.702        3556.045  
G31  18796204.663       61189.099       -1960.956  
> 2019  1 10  9 50 49.4431636  0  6                     
G 9  20667182.426      -97201.383        3091.467  
G16  17080869.467      -16305.652         512.208  
G23  18917797.030      -61361.076        1949.120  
G26  17365783.973       35196.971       -1129.775  
G27  19477665.083     -111647.962        3552.580  
G31  18796250.767       61434.356       -1962.761  
> 2019  1 10  9 50 49.5681643  0  6                     
G 9  20667108.561      -97588.050        3091.718  
G16  17080857.866      -16369.631         512.864  
G23  18917750.980      -61604.546        1947.718  
G26  17365810.515       35337.919       -1129.279  
G27  19477580.530     -112092.215        3551.374  
G31  18796298.225       61679.619       -1960.982  
> 2019  1 10  9 50 49.6931651  0  6                     
G 9  20667034.906      -97974.707        3095.300  
G16  17080844.779      -16433.600         512.357  
G23  18917704.874      -61848.001        1948.621  
G26  17365837.373       35478.875       -1130.689  
G27  19477495.787     -112536.473        3554.764  
G31  18796344.784       61924.883       -1960.436  
> 2019  1 10  9 50 49.8181655  0  6                     
G 9  20666961.045      -98361.363        3093.572  
G16  17080833.149      -16497.556         513.763  
G23  18917658.972      -62091.450        1947.648  
G26  17365863.672       35619.832       -1127.724  
G27  19477411.384     -112980.728        3555.870  
G31  18796391.922       62170.159       -1966.968  
> 2019  1 10  9 50 49.9431663  0  6                     
G 9  20666887.303      -98748.010        3093.475  
G16  17080820.369      -16561.509         512.444  
G23  18917612.674      -62334.895        1949.214  
G26  17365891.177       35760.794       -1127.331  
G27  19477326.820     -113424.967        3553.207  
G31  18796439.112       62415.429       -1959.189  
> 2019  1 10  9 50 50.0681667  0  6                     
G 9  20666814.033      -99134.653        3090.550  
G16  17080808.255      -16625.465         510.129  
G23  18917565.970      -62578.328        1946.108  
G26  17365917.561       35901.769       -1125.141  
G27  19477242.315     -113869.206        3553.015  
G31  18796485.519       62660.706       -1959.384  
> 2019  1 10  9 50 50.1931674  0  6                     
G 9  20666740.655      -99521.295        3094.339  
G16  17080796.631      -16689.391         509.163  
G23  18917520.124      -62821.756        1948.660  
G26  17365944.564       36042.742       -1128.408  
G27  19477157.404     -114313.447        3554.513  
G31  18796531.666       62905.989       -1961.805  
> 2019  1 10  9 50 50.3181682  0  6                     
G 9  20666666.715      -99907.932        3090.672  
G16  17080784.931      -16753.324         511.741  
G23  18917472.852      -63065.170        1942.075  
G26  17365971.398       36183.720       -1125.788  
G27  19477073.470     -114757.671        3553.723  
G31  18796578.899       63151.276       -1964.596  
> 2019  1 10  9 50 50.4431686  0  6                     
G 9  20666592.938     -100294.562        3095.527  
G16  17080772.014      -16817.245         506.089  
G23  18917426.639      -63308.577        1944.868  
G26  17365998.126       36324.705       -1125.771  
G27  19476988.638     -115201.905        3552.746  
G31  18796625.670       63396.570       -1960.904  
> 2019  1 10  9 50 50.5681694  0  6                     
G 9  20666519.797     -100681.183        3094.646  
G16  17080759.577      -16881.152         509.774  
G23  18917380.793      -63551.981        1948.860  
G26  17366025.377       36465.700       -1126.302  
G27  19476904.652     -115646.125        3552.850  
G31  18796672.357       63641.862       -1960.859  
> 2019  1 10  9 50 50.6931701  0  6                     
G 9  20666446.953     -101067.802        3095.300  
G16  17080747.393      -16945.060         510.659  
G23  18917334.451      -63795.378        1946.401  
G26  17366052.516       36606.699       -1129.325  
G27  19476819.789     -116090.340        3553.079  
G31  18796718.962       63887.159       -1961.286  
> 2019  1 10  9 50 50.8181705  0  6                     
G 9  20666373.604     -101454.422        3089.846  
G16  17080735.380      -17008.953         512.833  
G23  18917287.965      -64038.761        1945.966  
G26  17366079.389       36747.701       -1126.275  
G27  19476735.800     -116534.556        3553.251  
G31  18796765.559       64132.466       -1960.815  
> 2019  1 10  9 50 50.9431713  0  6                     
G 9  20666299.447     -101841.030        3092.244  
G16  17080722.530      -17072.847         509.064  
G23  18917241.592      -64282.138        1946.203  
G26  17366105.637       36888.707       -1128.131  
G27  19476651.174     -116978.764        3555.449  
G31  18796811.742       64377.769       -1960.044  
> 2019  1 10  9 50 51.0681720  0  6                     
G 9  20666225.863     -102227.639        3089.191  
G16  17080711.109      -17136.732         508.174  
G23  18917194.917      -64525.509        1946.820  
G26  17366131.888       37029.720       -1128.794  
G27  19476566.941     -117422.964        3555.500  
G31  18796858.076       64623.075       -1960.331  
> 2019  1 10  9 50 51.1931725  0  6                     
G 9  20666152.469     -102614.243        3091.923  
G16  17080699.157      -17200.598         509.308  
G23  18917148.492      -64768.872        1945.461  
G26  17366158.307       37170.746       -1129.891  
G27  19476481.553     -117867.169        3555.175  
G31  18796904.729       64868.394       -1958.976  
> 2019  1 10  9 50 51.3181732  0  6                     
G 9  20666078.786     -103000.835        3094.043  
G16  17080687.238      -17264.473         512.377  
G23  18917102.185      -65012.222        1944.793  
G26  17366185.649       37311.768       -1129.182  
G27  19476397.268     -118311.360        3551.588  
G31  18796951.220       65113.714       -1963.217  
> 2019  1 10  9 50 51.4431739  0  6                     
G 9  20666004.961     -103387.426        3093.887  
G16  17080674.954      -17328.332         509.514  
G23  18917056.096      -65255.569        1945.503  
G26  17366212.681       37452.802       -1128.483  
G27  19476312.664     -118755.546        3553.693  
G31  18796998.262       65359.029       -1964.033  
> 2019  1 10  9 50 51.5681744  0  6                     
G 9  20665931.225     -103774.012        3092.649  
G16  17080661.718      -17392.181         509.734  
G23  18917009.910      -65498.913        1944.529  
G26  17366239.125       37593.836       -1128.302  
G27  19476228.363     -119199.732        3554.866  
G31  18797044.907       65604.360       -1963.738  
> 2019  1 10  9 50 51.6931751  0  6                     
G 9  20665858.054     -104160.594        3092.470  
G16  17080650.151      -17456.021         510.844  
G23  18916963.757      -65742.238        1947.061  
G26  17366266.385       37734.884       -1126.323  
G27  19476144.173     -119643.915        3554.206  
G31  18797091.652       65849.688       -1960.052  
> 2019  1 10  9 50 51.8181758  0  6                     
G 9  20665784.151     -104547.172        3089.752  
G16  17080637.769      -17519.857         513.185  
G23  18916917.733      -65985.552        1944.405  
G26  17366293.825       37875.927       -1129.214  
G27  19476059.300     -120088.100        3553.093  
G31  18797138.109       66095.018       -1962.341  
> 2019  1 10  9 50 51.9431763  0  6                     
G 9  20665710.779     -104933.743        3094.736  
G16  17080625.928      -17583.682         510.488  
G23  18916871.413      -66228.871        1950.958  
G26  17366320.636       38016.988       -1131.915  
G27  19475975.096     -120532.268        3553.000  
G31  18797185.133       66340.361       -1963.893  
> 2019  1 10  9 50 52.0681770  0  6                     
G 9  20665637.027     -105320.310        3092.997  
G16  17080613.839      -17647.503         510.887  
G23  18916825.525      -66472.179        1945.755  
G26  17366347.388       38158.044       -1127.508  
G27  19475890.874     -120976.434        3551.514  
G31  18797231.943       66585.698       -1963.708  
> 2019  1 10  9 50 52.1931777  0  6                     
G 9  20665563.615     -105706.876        3090.390  
G16  17080601.433      -17711.314         510.774  
G23  18916779.086      -66715.473        1948.394  
G26  17366374.117       38299.105       -1129.701  
G27  19475806.120     -121420.594        3554.507  
G31  18797279.061       66831.049       -1961.163  
> 2019  1 10  9 50 52.3181782  0  6                     
G 9  20665490.328     -106093.431        3093.592  
G16  17080589.966      -17775.120         508.630  
G23  18916731.950      -66958.762        1948.256  
G26  17366401.009       38440.177       -1128.473  
G27  19475721.312     -121864.757        3549.883  
G31  18797325.692       67076.399       -1960.783  
> 2019  1 10  9 50 52.4431789  0  6                     
G 9  20665416.867     -106479.979        3093.883  
G16  17080577.607      -17838.912         508.863  
G23  18916685.968      -67202.042        1944.802  
G26  17366428.034       38581.256       -1126.444  
G27  19475636.444     -122308.912        3555.120  
G31  18797372.592       67321.750       -1964.127  
> 2019  1 10  9 50 52.5681796  0  6                     
G 9  20665342.553     -106866.524        3093.956  
G16  17080564.824      -17902.702         511.251  
G23  18916638.797      -67445.319        1944.908  
G26  17366454.741       38722.339       -1128.292  
G27  19475552.030     -122753.060        3551.613  
G31  18797419.492       67567.100       -1960.273  
> 2019  1 10  9 50 52.6931801  0  6                     
G 9  20665269.541     -107253.068        3092.184  
G16  17080552.926      -17966.475         511.338  
G23  18916592.841      -67688.583        1946.248  
G26  17366481.993       38863.424       -1129.323  
G27  19475467.428     -123197.209        3554.946  
G31  18797465.934       67812.468       -1964.090  
> 2019  1 10  9 50 52.8181808  0  6                     
G 9  20665196.333     -107639.607        3091.338  
G16  17080540.443      -18030.254         511.062  
G23  18916547.125      -67931.840        1944.486  
G26  17366507.849       39004.515       -1126.068  
G27  19475382.957     -123641.345        3551.218  
G31  18797512.223       68057.829       -1963.801  
> 2019  1 10  9 50 52.9431815  0  6                     
G 9  20665122.361     -108026.137        3094.899  
G16  17080529.155      -18094.015         512.001  
G23  18916500.345      -68175.090        1945.833  
G26  17366534.345       39145.619       -1131.216  
G27  19475298.063     -124085.481        3552.551  
G31  18797558.887       68303.195       -1963.497  
> 2019  1 10  9 50 53.0681820  0  6                     
G 9  20665049.178     -108412.667        3092.577  
G16  17080517.493      -18157.771         508.703  
G23  18916453.875      -68418.333        1947.178  
G26  17366561.600       39286.725       -1127.689  
G27  19475213.694     -124529.619        3551.075  
G31  18797605.432       68548.570       -1961.853  
> 2019  1 10  9 50 53.1931827  0  6                     
G 9  20664975.763     -108799.185        3093.046  
G16  17080504.855      -18221.521         509.444  
G23  18916407.925      -68661.567        1947.786  
G26  17366588.955       39427.828       -1129.354  
G27  19475129.133     -124973.741        3553.949  
G31  18797652.740       68793.945       -1962.262  
> 2019  1 10  9 50 53.3181834  0  6                     
G 9  20664902.139     -109185.707        3092.223  
G16  17080493.089      -18285.264         509.845  
G23  18916361.336      -68904.789        1946.263  
G26  17366615.675       39568.950       -1124.930  
G27  19475044.606     -125417.858        3554.143  
G31  18797699.312       69039.326       -1964.983  
> 2019  1 10  9 50 53.4431839  0  6                     
G 9  20664827.988     -109572.221        3092.024  
G16  17080480.124      -18348.996         508.716  
G23  18916314.987      -69148.011        1945.867  
G26  17366642.669       39710.065       -1128.927  
G27  19474960.072     -125861.979        3552.859  
G31  18797745.988       69284.710       -1965.511  
> 2019  1 10  9 50 53.5681846  0  6                     
G 9  20664754.868     -109958.725        3093.164  
G16  17080468.266      -18412.720         508.869  
G23  18916268.357      -69391.220        1946.200  
G26  17366669.786       39851.195       -1126.773  
G27  19474876.120     -126306.095        3554.419  
G31  18797792.254       69530.096       -1962.648  
> 2019  1 10  9 50 53.6931853  0  6                     
G 9  20664681.268     -110345.232        3091.721  
G16  17080456.264      -18476.433         508.014  
G23  18916222.801      -69634.418        1945.707  
G26  17366696.323       39992.324       -1128.489  
G27  19474791.367     -126750.205        3556.809  
G31  18797838.577       69775.493       -1964.546  
> 2019  1 10  9 50 53.8181858  0  6                     
G 9  20664607.709     -110731.724        3091.574  
G16  17080443.842      -18540.142         510.246  
G23  18916176.263      -69877.614        1947.851  
G26  17366723.157       40133.461       -1126.964  
G27  19474706.835     -127194.308        3553.176  
G31  18797885.676       70020.887       -1963.130  
> 2019  1 10  9 50 53.9431865  0  6                     
G 9  20664533.806     -111118.218        3093.838  
G16  17080432.051      -18603.848         507.268  
G23  18916130.155      -70120.797        1943.867  
G26  17366750.293       40274.605       -1125.863  
G27  19474622.300     -127638.409        3553.026  
G31  18797932.328       70266.285       -1965.142  
> 2019  1 10  9 50 54.0681872  0  6                     
G 9  20664460.302     -111504.709        3089.917  
G16  17080420.083      -18667.538         511.786  
G23  18916083.400      -70363.974        1946.325  
G26  17366777.122       40415.754       -1125.771  
G27  19474538.216     -128082.510        3550.256  
G31  18797978.895       70511.693       -1961.371  
> 2019  1 10  9 50 54.1931877  0  6                     
G 9  20664387.043     -111891.194        3092.919  
G16  17080408.100      -18731.223         507.159  
G23  18916037.510      -70607.144        1945.550  
G26  17366803.840       40556.909       -1131.184  
G27  19474453.943     -128526.594        3553.967  
G31  18798026.097       70757.095       -1965.147  
> 2019  1 10  9 50 54.3181884  0  6                     
G 9  20664313.320     -112277.669        3092.308  
G16  17080396.033      -18794.900         510.274  
G23  18915991.278      -70850.305        1944.027  
G26  17366830.575       40698.074       -1130.455  
G27  19474369.318     -128970.681        3552.738  
G31  18798072.741       71002.504       -1960.241  
> 2019  1 10  9 50 54.4431891  0  6                     
G 9  20664239.586     -112664.145        3091.937  
G16  17080383.649      -18858.571         509.819  
G23  18915945.067      -71093.459        1949.749  
G26  17366857.533       40839.243       -1128.746  
G27  19474284.259     -129414.762        3551.919  
G31  18798119.407       71247.920       -1965.435  
> 2019  1 10  9 50 54.5681896  0  6                     
G 9  20664165.632     -113050.616        3093.152  
G16  17080371.464      -18922.236         507.857  
G23  18915899.180      -71336.596        1942.737  
G26  17366884.800       40980.413       -1127.912  
G27  19474200.160     -129858.843        3550.318  
G31  18798165.892       71493.343       -1962.226  
> 2019  1 10  9 50 54.6931903  0  6                     
G 9  20664092.859     -113437.077        3091.560  
G16  17080359.788      -18985.891         509.439  
G23  18915853.652      -71579.741        1946.271  
G26  17366911.448       41121.591       -1127.247  
G27  19474115.240     -130302.914        3550.786  
G31  18798212.661       71738.762       -1967.500  
> 2019  1 10  9 50 54.8181911  0  6                     
G 9  20664019.630     -113823.534        3092.385  
G16  17080347.657      -19049.533         508.151  
G23  18915807.256      -71822.871        1944.253  
G26  17366938.666       41262.776       -1128.378  
G27  19474030.957     -130746.981        3551.812  
G31  18798259.235       71984.195       -1960.215  
> 2019  1 10  9 50 54.9431915  0  6                     
G 9  20663946.092     -114209.988        3092.875  
G16  17080336.177      -19113.170         509.763  
G23  18915761.118      -72065.993        1944.556  
G26  17366964.663       41403.963       -1128.313  
G27  19473946.081     -131191.047        3555.307  
G31  18798306.333       72229.621       -1964.278  
> 2019  1 10  9 50 55.0681922  0  6                     
G 9  20663872.390     -114596.438        3092.594  
G16  17080323.226      -19176.801         509.962  
G23  18915714.099      -72309.108        1947.639  
G26  17366991.835       41545.156       -1130.380  
G27  19473861.654     -131635.109        3553.613  
G31  18798352.855       72475.054       -1962.932  
> 2019  1 10  9 50 55.1931927  0  6                     
G 9  20663798.709     -114982.883        3091.158  
G16  17080310.448      -19240.425         507.806  
G23  18915667.960      -72552.205        1945.351  
G26  17367018.547       41686.358       -1128.116  
G27  19473776.543     -132079.159        3552.051  
G31  18798399.536       72720.490       -1962.754  
> 2019  1 10  9 50 55.3181934  0  6                     
G 9  20663724.863     -115369.318        3090.660  
G16  17080298.161      -19304.036         506.518  
G23  18915621.044      -72795.309        1944.804  
G26  17367045.379       41827.561       -1126.221  
G27  19473692.096     -132523.213        3550.972  
G31  18798446.305       72965.935       -1965.067  
> 2019  1 10  9 50 55.4431942  0  6                     
G 9  20663651.371     -115755.753        3092.807  
G16  17080286.308      -19367.647         508.140  
G23  18915574.465      -73038.393        1941.307  
G26  17367072.288       41968.772       -1131.244  
G27  19473608.164     -132967.257        3552.589  
G31  18798493.199       73211.379       -1963.985  
> 2019  1 10  9 50 55.5681946  0  6                     
G 9  20663577.397     -116142.184        3087.871  
G16  17080274.348      -19431.244         509.340  
G23  18915528.030      -73281.479        1948.025  
G26  17367099.865       42109.990       -1129.489  
G27  19473523.550     -133411.297        3555.216  
G31  18798539.762       73456.829       -1964.190  
> 2019  1 10  9 50 55.6931953  0  6                     
G 9  20663503.814     -116528.609        3088.555  
G16  17080261.537      -19494.831         510.862  
G23  18915482.799      -73524.555        1943.411  
G26  17367126.454       42251.210       -1128.004  
G27  19473439.549     -133855.335        3551.998  
G31  18798586.345       73702.285       -1962.079  
> 2019  1 10  9 50 55.8181961  0  6                     
G 9  20663431.196     -116915.031        3088.972  
G16  17080250.263      -19558.418         508.861  
G23  18915436.932      -73767.613        1945.107  
G26  17367152.866       42392.436       -1127.350  
G27  19473354.676     -134299.366        3552.699  
G31  18798633.005       73947.746       -1965.873  
> 2019  1 10  9 50 55.9431965  0  6                     
G 9  20663357.166     -117301.438        3093.002  
G16  17080238.277      -19621.994         507.958  
G23  18915390.108      -74010.673        1946.641  
G26  17367179.790       42533.673       -1130.893  
G27  19473270.632     -134743.395        3550.707  
G31  18798679.509       74193.206       -1965.647  
> 2019  1 10  9 50 56.0681973  0  6                     
G 9  20663283.356     -117687.848        3091.460  
G16  17080225.874      -19685.563         508.735  
G23  18915344.271      -74253.724        1944.357  
G26  17367206.978       42674.918       -1131.419  
G27  19473186.327     -135187.415        3551.539  
G31  18798726.630       74438.666       -1961.917  
> 2019  1 10  9 50 56.1931980  0  6                     
G 9  20663210.351     -118074.258        3091.166  
G16  17080214.083      -19749.117         505.034  
G23  18915297.577      -74496.762        1945.296  
G26  17367233.542       42816.154       -1131.073  
G27  19473101.927     -135631.438        3551.324  
G31  18798773.220       74684.139       -1962.797  
> 2019  1 10  9 50 56.3181984  0  6                     
G 9  20663137.875     -118460.657        3089.852  
G16  17080201.602      -19812.673         506.400  
G23  18915251.426      -74739.796        1945.079  
G26  17367260.907       42957.409       -1128.863  
G27  19473017.390     -136075.450        3550.671  
G31  18798819.651       74929.615       -1963.028  
> 2019  1 10  9 50 56.4431992  0  6                     
G 9  20663064.135     -118847.050        3092.946  
G16  17080189.400      -19876.214         510.319  
G23  18915205.091      -74982.823        1942.392  
G26  17367287.373       43098.664       -1132.359  
G27  19472932.641     -136519.460        3550.327  
G31  18798866.548       75175.093       -1961.978  
> 2019  1 10  9 50 56.5681999  0  6                     
G 9  20662990.056     -119233.439        3089.519  
G16  17080177.673      -19939.753         509.923  
G23  18915158.316      -75225.841        1943.568  
G26  17367314.225       43239.928       -1132.977  
G27  19472848.573     -136963.462        3550.912  
G31  18798913.552       75420.570       -1961.538  
> 2019  1 10  9 50 56.6932003  0  6                     
G 9  20662916.045     -119619.827        3089.182  
G16  17080165.522      -20003.285         506.803  
G23  18915112.416      -75468.850        1944.646  
G26  17367341.319       43381.195       -1131.803  
G27  19472763.334     -137407.463        3549.951  
G31  18798960.188       75666.059       -1962.579  
> 2019  1 10  9 50 56.8182011  0  6                     
G 9  20662842.856     -120006.205        3091.338  
G16  17080153.842      -20066.801         509.260  
G23  18915066.698      -75711.846        1942.151  
G26  17367368.898       43522.465       -1128.420  
G27  19472679.049     -137851.457        3551.078  
G31  18799006.933       75911.551       -1965.116  
> 2019  1 10  9 50 56.9432018  0  6                     
G 9  20662769.414     -120392.575        3092.441  
G16  17080141.769      -20130.311         508.307  
G23  18915020.452      -75954.840        1946.416  
G26  17367395.242       43663.745       -1128.508  
G27  19472594.098     -138295.449        3550.031  
G31  18799054.414       76157.043       -1962.862  
> 2019  1 10  9 50 57.0682023  0  6                     
G 9  20662694.985     -120778.947        3093.039  
G16  17080129.059      -20193.816         508.835  
G23  18914974.424      -76197.825        1946.003  
G26  17367421.887       43805.026       -1128.100  
G27  19472509.598     -138739.440        3551.327  
G31  18799100.912       76402.533       -1962.239  
> 2019  1 10  9 50 57.1932030  0  6                     
G 9  20662621.354     -121165.315        3091.232  
G16  17080117.574      -20257.312         509.773  
G23  18914927.852      -76440.801        1943.879  
G26  17367448.268       43946.316       -1132.029  
G27  19472425.733     -139183.420        3550.719  
G31  18799146.879       76648.033       -1964.986  
> 2019  1 10  9 50 57.3182037  0  6                     
G 9  20662548.163     -121551.678        3089.454  
G16  17080105.155      -20320.805         506.735  
G23  18914881.887      -76683.767        1945.200  
G26  17367475.331       44087.610       -1129.094  
G27  19472341.236     -139627.401        3554.819  
G31  18799193.649       76893.538       -1965.832  
> 2019  1 10  9 50 57.4432042  0  6                     
G 9  20662474.662     -121938.034        3090.396  
G16  17080092.969      -20384.287         508.847  
G23  18914835.503      -76926.736        1942.507  
G26  17367502.432       44228.918       -1132.259  
G27  19472257.157     -140071.368        3551.910  
G31  18799239.966       77139.051       -1964.037  
> 2019  1 10  9 50 57.5682049  0  6                     
G 9  20662401.306     -122324.376        3088.205  
G16  17080080.880      -20447.762         505.390  
G23  18914789.062      -77169.681        1944.153  
G26  17367528.697       44370.216       -1128.300  
G27  19472172.355     -140515.336        3550.980  
G31  18799286.594       77384.552       -1963.326  
> 2019  1 10  9 50 57.6932056  0  6                     
G 9  20662328.139     -122710.725        3092.336  
G16  17080069.078      -20511.223         508.065  
G23  18914743.275      -77412.630        1942.664  
G26  17367555.991       44511.531       -1131.028  
G27  19472087.498     -140959.306        3551.532  
G31  18799333.243       77630.073       -1965.650  
> 2019  1 10  9 50 57.8182061  0  6                     
G 9  20662254.341     -123097.065        3091.513  
G16  17080056.828      -20574.683         505.492  
G23  18914696.173      -77655.563        1944.903  
G26  17367583.401       44652.849       -1130.336  
G27  19472002.789     -141403.267        3549.997  
G31  18799379.960       77875.592       -1963.648  
> 2019  1 10  9 50 57.9432068  0  6                     
G 9  20662180.444     -123483.400        3088.049  
G16  17080045.342      -20638.130         507.708  
G23  18914649.791      -77898.496        1945.174  
G26  17367609.960       44794.172       -1127.209  
G27  19471918.477     -141847.217        3552.035  
G31  18799426.809       78121.121       -1965.017  
> 2019  1 10  9 50 58.0682075  0  6                     
G 9  20662107.001     -123869.731        3089.697  
G16  17080033.122      -20701.578         507.573  
G23  18914603.319      -78141.417        1941.665  
G26  17367637.217       44935.504       -1128.815  
G27  19471834.395     -142291.171        3551.007  
G31  18799473.734       78366.646       -1964.031  
> 2019  1 10  9 50 58.1932080  0  6                     
G 9  20662033.803     -124256.065        3089.502  
G16  17080020.424      -20765.009         506.907  
G23  18914557.360      -78384.323        1944.061  
G26  17367664.115       45076.838       -1132.092  
G27  19471750.523     -142735.119        3550.929  
G31  18799520.725       78612.174       -1962.226  
> 2019  1 10  9 50 58.3182087  0  6                     
G 9  20661959.940     -124642.381        3091.475  
G16  17080008.873      -20828.433         505.805  
G23  18914511.803      -78627.236        1944.453  
G26  17367690.440       45218.172       -1133.232  
G27  19471665.629     -143179.057        3552.954  
G31  18799567.591       78857.716       -1963.161  
> 2019  1 10  9 50 58.4432094  0  6                     
G 9  20661886.438     -125028.696        3091.688  
G16  17079996.728      -20891.856         504.900  
G23  18914465.294      -78870.129        1942.824  
G26  17367717.571       45359.524       -1127.160  
G27  19471580.676     -143622.990        3554.058  
G31  18799614.049       79103.251       -1967.416  
> 2019  1 10  9 50 58.5682099  0  6                     
G 9  20661813.442     -125415.008        3090.771  
G16  17079985.114      -20955.259         504.372  
G23  18914418.978      -79113.019        1945.543  
G26  17367744.330       45500.876       -1129.903  
G27  19471496.520     -144066.932        3549.978  
G31  18799660.154       79348.794       -1966.022  
> 2019  1 10  9 50 58.6932106  0  6                     
G 9  20661739.578     -125801.311        3091.627  
G16  17079973.691      -21018.664         506.492  
G23  18914373.124      -79355.898        1940.858  
G26  17367770.837       45642.227       -1132.716  
G27  19471412.221     -144510.852        3549.612  
G31  18799706.774       79594.335       -1964.205  
> 2019  1 10  9 50 58.8182113  0  6                     
G 9  20661666.675     -126187.613        3091.245  
G16  17079959.927      -21082.063         505.302  
G23  18914326.271      -79598.773        1945.879  
G26  17367797.801       45783.596       -1133.978  
G27  19471328.510     -144954.776        3552.616  
G31  18799753.939       79839.894       -1965.129  
> 2019  1 10  9 50 58.9432118  0  6                     
G 9  20661592.566     -126573.918        3090.115  
G16  17079948.078      -21145.443         506.876  
G23  18914280.261      -79841.637        1940.622  
G26  17367825.148       45924.955       -1130.288  
G27  19471242.936     -145398.699        3546.940  
G31  18799801.209       80085.455       -1963.449  
> 2019  1 10  9 50 59.0682125  0  6                     
G 9  20661518.856     -126960.208        3090.083  
G16  17079936.175      -21208.829         504.955  
G23  18914234.372      -80084.497        1943.513  
G26  17367852.099       46066.333       -1128.020  
G27  19471158.303     -145842.610        3552.080  
G31  18799848.736       80331.011       -1966.520  
> 2019  1 10  9 50 59.1932132  0  6                     
G 9  20661445.416     -127346.484        3092.100  
G16  17079923.599      -21272.199         505.931  
G23  18914188.628      -80327.340        1943.078  
G26  17367879.058       46207.714       -1133.543  
G27  19471073.624     -146286.522        3551.575  
G31  18799894.644       80576.571       -1963.837  
> 2019  1 10  9 50 59.3182137  0  6                     
G 9  20661372.413     -127732.769        3086.005  
G16  17079911.866      -21335.564         508.111  
G23  18914142.120      -80570.181        1944.822  
G26  17367905.965       46349.100       -1133.434  
G27  19470989.019     -146730.426        3551.227  
G31  18799941.058       80822.137       -1963.771  
> 2019  1 10  9 50 59.4432144  0  6                     
G 9  20661299.125     -128119.045        3092.613  
G16  17079899.454      -21398.914         506.921  
G23  18914095.862      -80813.011        1944.479  
G26  17367933.104       46490.492       -1131.095  
G27  19470905.112     -147174.324        3549.475  
G31  18799987.956       81067.704       -1963.989  
> 2019  1 10  9 50 59.5682151  0  6                     
G 9  20661225.422     -128505.324        3088.904  
G16  17079887.696      -21462.265         505.285  
G23  18914049.213      -81055.838        1941.635  
G26  17367959.790       46631.886       -1128.696  
G27  19470820.743     -147618.221        3551.499  
G31  18800034.088       81313.279       -1961.628  
> 2019  1 10  9 50 59.6932156  0  6                     
G 9  20661151.258     -128891.588        3090.124  
G16  17079875.374      -21525.599         507.093  
G23  18914003.499      -81298.656        1943.494  
G26  17367986.951       46773.288       -1130.864  
G27  19470735.476     -148062.116        3552.091  
G31  18800081.212       81558.861       -1967.555  
> 2019  1 10  9 50 59.8182163  0  6                     
G 9  20661077.689     -129277.849        3089.182  
G16  17079863.528      -21588.935         508.958  
G23  18913956.825      -81541.464        1943.293  
G26  17368013.718       46914.699       -1134.775  
G27  19470651.518     -148506.001        3552.902  
G31  18800128.774       81804.438       -1961.631  
> 2019  1 10  9 50 59.9432170  0  6                     
G 9  20661004.837     -129664.107        3091.692  
G16  17079851.632      -21652.255         503.932  
G23  18913910.613      -81784.266        1940.551  
G26  17368040.461       47056.109       -1131.409  
G27  19470566.525     -148949.884        3551.741  
G31  18800174.710       82050.031       -1962.895  
> 2019  1 10  9 51  0.0682175  0  6                     
G 9  20660931.424     -130050.356        3089.281  
G16  17079839.647      -21715.577         508.207  
G23  18913864.390      -82027.059        1944.409  
G26  17368067.299       47197.527       -1129.016  
G27  19470482.033     -149393.762        3548.049  
G31  18800221.421       82295.615       -1966.424  
> 2019  1 10  9 51  0.1932182  0  6                     
G 9  20660857.722     -130436.606        3088.736  
G16  17079827.566      -21778.880         506.889  
G23  18913818.022      -82269.839        1941.345  
G26  17368094.095       47338.946       -1131.424  
G27  19470397.918     -149837.636        3551.817  
G31  18800267.959       82541.209       -1963.838  
> 2019  1 10  9 51  0.3182187  0  6                     
G 9  20660784.233     -130822.849        3088.152  
G16  17079815.246      -21842.185         506.965  
G23  18913771.920      -82512.620        1942.862  
G26  17368121.792       47480.379       -1133.348  
G27  19470314.422     -150281.505        3552.777  
G31  18800314.600       82786.806       -1967.544  
> 2019  1 10  9 51  0.4432194  0  6                     
G 9  20660711.048     -131209.086        3088.279  
G16  17079802.423      -21905.473         504.133  
G23  18913725.637      -82755.394        1941.881  
G26  17368148.590       47621.822       -1128.155  
G27  19470229.836     -150725.374        3552.848  
G31  18800361.628       83032.408       -1964.398  
> 2019  1 10  9 51  0.5682201  0  6                     
G 9  20660637.812     -131595.316        3087.691  
G16  17079791.362      -21968.759         508.583  
G23  18913679.927      -82998.147        1942.343  
G26  17368174.817       47763.255       -1128.736  
G27  19470144.662     -151169.228        3549.903  
G31  18800408.122       83278.013       -1963.564  
> 2019  1 10  9 51  0.6932206  0  6                     
G 9  20660564.408     -131981.544        3091.008  
G16  17079779.442      -22032.035         508.509  
G23  18913633.998      -83240.905        1942.048  
G26  17368201.514       47904.709       -1131.383  
G27  19470060.596     -151613.085        3553.020  
G31  18800454.952       83523.628       -1964.332  
> 2019  1 10  9 51  0.8182213  0  6                     
G 9  20660490.627     -132367.770        3092.505  
G16  17079766.902      -22095.304         507.238  
G23  18913587.451      -83483.643        1942.273  
G26  17368228.671       48046.156       -1131.606  
G27  19469975.682     -152056.936        3550.009  
G31  18800501.889       83769.238       -1966.642  
> 2019  1 10  9 51  0.9432220  0  6                     
G 9  20660417.286     -132753.980        3091.375  
G16  17079754.884      -22158.567         506.302  
G23  18913541.586      -83726.385        1946.929  
G26  17368255.556       48187.618       -1135.991  
G27  19469890.988     -152500.784        3552.561  
G31  18800548.171       84014.849       -1965.524  
> 2019  1 10  9 51  1.0682225  0  6                     
G 9  20660343.362     -133140.200        3090.383  
G16  17079742.716      -22221.819         506.837  
G23  18913495.167      -83969.104        1942.997  
G26  17368283.175       48329.073       -1133.481  
G27  19469806.574     -152944.630        3549.650  
G31  18800594.983       84260.480       -1962.372  
> 2019  1 10  9 51  1.1932232  0  6                     
G 9  20660270.094     -133526.408        3090.861  
G16  17079731.440      -22285.069         504.347  
G23  18913448.622      -84211.835        1943.157  
G26  17368309.432       48470.543       -1130.952  
G27  19469722.197     -153388.461        3550.538  
G31  18800641.225       84506.104       -1964.654  
> 2019  1 10  9 51  1.3182240  0  6                     
G 9  20660196.556     -133912.614        3092.407  
G16  17079720.071      -22348.303         503.922  
G23  18913402.200      -84454.545        1938.911  
G26  17368335.769       48612.028       -1130.978  
G27  19469638.214     -153832.295        3555.363  
G31  18800688.895       84751.732       -1966.160  
> 2019  1 10  9 51  1.4432244  0  6                     
G 9  20660122.703     -134298.804        3090.157  
G16  17079707.326      -22411.531         505.320  
G23  18913356.369      -84697.249        1943.061  
G26  17368362.983       48753.501       -1132.546  
G27  19469553.739     -154276.125        3550.973  
G31  18800735.399       84997.363       -1961.898  
> 2019  1 10  9 51  1.5682251  0  6                     
G 9  20660049.263     -134685.003        3087.112  
G16  17079695.082      -22474.753         508.106  
G23  18913310.939      -84939.941        1940.933  
G26  17368389.819       48894.990       -1134.500  
G27  19469469.250     -154719.947        3548.865  
G31  18800782.535       85242.998       -1965.357  
> 2019  1 10  9 51  1.6932259  0  6                     
G 9  20659975.487     -135071.186        3092.062  
G16  17079683.021      -22537.971         505.788  
G23  18913264.464      -85182.633        1939.878  
G26  17368417.105       49036.477       -1135.672  
G27  19469384.573     -155163.769        3547.584  
G31  18800828.483       85488.636       -1967.487  
> 2019  1 10  9 51  1.8182263  0  6                     
G 9  20659902.036     -135457.372        3091.420  
G16  17079670.614      -22601.172         507.600  
G23  18913217.868      -85425.309        1941.812  
G26  17368444.361       49177.975       -1131.111  
G27  19469300.211     -155607.583        3552.530  
G31  18800876.211       85734.283       -1968.738  
> 2019  1 10  9 51  1.9432271  0  6                     
G 9  20659828.221     -135843.548        3090.097  
G16  17079659.390      -22664.378         506.992  
G23  18913171.827      -85667.984        1940.817  
G26  17368471.668       49319.479       -1131.035  
G27  19469215.733     -156051.389        3551.003  
G31  18800922.570       85979.933       -1967.401  
> 2019  1 10  9 51  2.0682278  0  6                     
G 9  20659754.883     -136229.728        3089.184  
G16  17079647.356      -22727.562         504.840  
G23  18913126.026      -85910.646        1941.437  
G26  17368498.157       49460.990       -1131.653  
G27  19469131.071     -156495.196        3550.541  
G31  18800969.243       86225.584       -1965.120  
> 2019  1 10  9 51  2.1932282  0  6                     
G 9  20659681.780     -136615.892        3088.500  
G16  17079635.233      -22790.748         503.458  
G23  18913078.771      -86153.306        1940.534  
G26  17368525.065       49602.505       -1129.840  
G27  19469046.596     -156938.994        3549.898  
G31  18801016.048       86471.238       -1964.637  
> 2019  1 10  9 51  2.3182290  0  6                     
G 9  20659608.577     -137002.053        3087.011  
G16  17079622.595      -22853.920         504.755  
G23  18913032.163      -86395.955        1941.190  
G26  17368551.544       49744.028       -1133.192  
G27  19468961.752     -157382.794        3550.118  
G31  18801062.425       86716.902       -1966.578  
> 2019  1 10  9 51  2.4432297  0  6                     
G 9  20659534.605     -137388.215        3086.893  
G16  17079611.303      -22917.087         509.569  
G23  18912986.507      -86638.588        1942.267  
G26  17368578.582       49885.548       -1133.427  
G27  19468877.299     -157826.580        3549.518  
G31  18801109.362       86962.558       -1964.908  
> 2019  1 10  9 51  2.5682302  0  6                     
G 9  20659461.624     -137774.367        3088.348  
G16  17079599.678      -22980.247         503.232  
G23  18912940.934      -86881.221        1938.997  
G26  17368606.073       50027.081       -1128.134  
G27  19468793.603     -158270.369        3550.469  
G31  18801155.635       87208.229       -1965.323  
> 2019  1 10  9 51  2.6932309  0  6                     
G 9  20659388.224     -138160.516        3091.806  
G16  17079587.976      -23043.402         503.339  
G23  18912894.904      -87123.842        1939.703  
G26  17368633.406       50168.614       -1132.006  
G27  19468709.326     -158714.158        3546.739  
G31  18801202.951       87453.904       -1966.330  
> 2019  1 10  9 51  2.8182316  0  6                     
G 9  20659314.493     -138546.661        3087.639  
G16  17079575.244      -23106.539         506.975  
G23  18912848.874      -87366.462        1942.784  
G26  17368660.526       50310.155       -1134.388  
G27  19468624.493     -159157.935        3549.825  
G31  18801249.893       87699.580       -1967.174  
> 2019  1 10  9 51  2.9432321  0  6                     
G 9  20659241.180     -138932.799        3090.523  
G16  17079562.821      -23169.680         504.341  
G23  18912802.718      -87609.068        1938.690  
G26  17368687.061       50451.702       -1131.347  
G27  19468540.364     -159601.704        3548.428  
G31  18801295.739       87945.256       -1961.409  
> 2019  1 10  9 51  3.0682328  0  6                     
G 9  20659167.336     -139318.934        3085.442  
G16  17079551.078      -23232.809         505.596  
G23  18912756.968      -87851.673        1942.646  
G26  17368714.083       50593.258       -1130.756  
G27  19468455.234     -160045.478        3550.349  
G31  18801343.679       88190.941       -1964.445  
> 2019  1 10  9 51  3.1932335  0  6                     
G 9  20659094.312     -139705.071        3091.277  
G16  17079538.943      -23295.922         503.231  
G23  18912710.571      -88094.264        1942.793  
G26  17368741.132       50734.817       -1131.005  
G27  19468370.437     -160489.242        3549.693  
G31  18801390.410       88436.626       -1965.104  
> 2019  1 10  9 51  3.3182340  0  6                     
G 9  20659019.831     -140091.182        3089.749  
G16  17079527.035      -23359.036         505.180  
G23  18912664.255      -88336.847        1939.024  
G26  17368767.554       50876.378       -1131.355  
G27  19468286.568     -160933.003        3550.624  
G31  18801436.994       88682.313       -1965.878  
> 2019  1 10  9 51  3.4432347  0  6                     
G 9  20658947.076     -140477.306        3089.480  
G16  17079515.031      -23422.142         503.974  
G23  18912618.390      -88579.421        1939.315  
G26  17368794.836       51017.948       -1133.363  
G27  19468201.680     -161376.758        3550.351  
G31  18801483.539       88928.009       -1965.266  
> 2019  1 10  9 51  3.5682354  0  6                     
G 9  20658873.534     -140863.424        3087.473  
G16  17079503.219      -23485.240         505.449  
G23  18912572.364      -88821.987        1941.063  
G26  17368820.989       51159.522       -1134.248  
G27  19468117.901     -161820.510        3549.046  
G31  18801530.209       89173.715       -1963.415  
> 2019  1 10  9 51  3.6932359  0  6                     
G 9  20658799.615     -141249.533        3088.231  
G16  17079490.800      -23548.326         506.051  
G23  18912526.115      -89064.548        1942.510  
G26  17368848.107       51301.108       -1132.249  
G27  19468034.242     -162264.254        3547.126  
G31  18801577.038       89419.412       -1963.160  
> 2019  1 10  9 51  3.8182366  0  6                     
G 9  20658726.254     -141635.638        3092.051  
G16  17079478.879      -23611.405         502.456  
G23  18912479.528      -89307.101        1940.041  
G26  17368874.594       51442.697       -1133.093  
G27  19467949.076     -162707.998        3548.686  
G31  18801623.702       89665.121       -1966.722  
> 2019  1 10  9 51  3.9432373  0  6                     
G 9  20658653.306     -142021.735        3089.440  
G16  17079467.098      -23674.481         505.094  
G23  18912433.375      -89549.646        1942.719  
G26  17368901.657       51584.287       -1131.517  
G27  19467865.001     -163151.734        3547.368  
G31  18801670.462       89910.827       -1966.181  
> 2019  1 10  9 51  4.0682378  0  6                     
G 9  20658579.295     -142407.825        3090.027  
G16  17079455.012      -23737.546         504.045  
G23  18912387.045      -89792.180        1940.025  
G26  17368928.458       51725.885       -1130.347  
G27  19467780.146     -163595.466        3548.109  
G31  18801717.996       90156.543       -1965.027  
> 2019  1 10  9 51  4.1932385  0  6                     
G 9  20658506.257     -142793.915        3090.422  
G16  17079442.380      -23800.603         502.806  
G23  18912340.579      -90034.716        1941.446  
G26  17368955.456       51867.495       -1131.573  
G27  19467696.359     -164039.194        3550.621  
G31  18801764.145       90402.259       -1968.591  
> 2019  1 10  9 51  4.3182392  0  6                     
G 9  20658432.885     -143180.001        3087.554  
G16  17079430.510      -23863.651         506.241  
G23  18912294.594      -90277.228        1939.218  
G26  17368982.969       52009.097       -1129.951  
G27  19467611.626     -164482.918        3553.000  
G31  18801810.689       90647.982       -1968.144  
> 2019  1 10  9 51  4.4432397  0  6                     
G 9  20658359.658     -143566.078        3087.659  
G16  17079419.507      -23926.687         506.065  
G23  18912248.458      -90519.736        1937.806  
G26  17369010.016       52150.709       -1130.366  
G27  19467526.985     -164926.645        3551.999  
G31  18801858.089       90893.704       -1967.670  
> 2019  1 10  9 51  4.5682404  0  6                     
G 9  20658285.665     -143952.155        3086.701  
G16  17079407.124      -23989.728         504.203  
G23  18912202.358      -90762.251        1937.123  
G26  17369037.358       52292.339       -1134.091  
G27  19467441.836     -165370.354        3550.202  
G31  18801905.100       91139.442       -1965.729  
> 2019  1 10  9 51  4.6932411  0  6                     
G 9  20658211.991     -144338.232        3090.056  
G16  17079395.051      -24052.747         502.039  
G23  18912156.071      -91004.748        1939.300  
G26  17369064.548       52433.964       -1131.702  
G27  19467358.123     -165814.062        3548.860  
G31  18801951.313       91385.171       -1964.822  
> 2019  1 10  9 51  4.8182416  0  6                     
G 9  20658139.431     -144724.296        3088.845  
G16  17079382.278      -24115.762         506.298  
G23  18912109.993      -91247.229        1940.657  
G26  17369091.223       52575.587       -1132.981  
G27  19467273.602     -166257.771        3549.213  
G31  18801997.614       91630.911       -1967.426  
> 2019  1 10  9 51  4.9432423  0  6                     
G 9  20658064.896     -145110.349        3086.159  
G16  17079370.775      -24178.782         504.776  
G23  18912063.993      -91489.703        1941.647  
G26  17369118.133       52717.226       -1134.250  
G27  19467188.595     -166701.463        3548.994  
G31  18802044.352       91876.652       -1965.790  
> 2019  1 10  9 51  5.0682430  0  6                     
G 9  20657991.643     -145496.411        3085.910  
G16  17079359.438      -24241.776         505.225  
G23  18912017.538      -91732.178        1942.096  
G26  17369144.647       52858.869       -1136.800  
G27  19467104.811     -167145.165        3549.892  
G31  18802091.139       92122.399       -1963.779  
> 2019  1 10  9 51  5.1932435  0  6                     
G 9  20657918.361     -145882.462        3089.272  
G16  17079347.228      -24304.767         503.349  
G23  18911971.123      -91974.644        1939.466  
G26  17369172.148       53000.525       -1136.784  
G27  19467019.651     -167588.863        3547.327  
G31  18802138.517       92368.146       -1966.349  
> 2019  1 10  9 51  5.3182442  0  6                     
G 9  20657844.464     -146268.505        3087.352  
G16  17079335.519      -24367.760         499.568  
G23  18911925.187      -92217.100        1937.874  
G26  17369198.711       53142.176       -1131.120  
G27  19466935.372     -168032.549        3551.165  
G31  18802185.738       92613.902       -1966.490  
> 2019  1 10  9 51  5.4432447  0  6                     
G 9  20657771.628     -146654.544        3087.716  
G16  17079322.924      -24430.740         499.272  
G23  18911879.058      -92459.544        1939.108  
G26  17369225.249       53283.835       -1133.643  
G27  19466850.570     -168476.231        3547.612  
G31  18802232.205       92859.655       -1962.329  
> 2019  1 10  9 51  5.5682454  0  6                     
G 9  20657697.792     -147040.579        3089.928  
G16  17079311.156      -24493.708         505.633  
G23  18911833.426      -92701.987        1939.881  
G26  17369252.495       53425.499       -1131.716  
G27  19466766.745     -168919.912        3547.518  
G31  18802278.600       93105.415       -1969.316  
> 2019  1 10  9 51  5.6932461  0  6                     
G 9  20657624.557     -147426.615        3085.771  
G16  17079299.420      -24556.676         501.546  
G23  18911787.299      -92944.421        1941.921  
G26  17369279.554       53567.169       -1132.763  
G27  19466682.934     -169363.579        3549.803  
G31  18802325.278       93351.181       -1966.250  
> 2019  1 10  9 51  5.8182466  0  6                     
G 9  20657550.983     -147812.638        3090.046  
G16  17079287.667      -24619.624         502.453  
G23  18911741.343      -93186.835        1939.524  
G26  17369306.125       53708.843       -1130.428  
G27  19466598.164     -169807.250        3547.779  
G31  18802372.438       93596.943       -1967.172  
> 2019  1 10  9 51  5.9432473  0  6                     
G 9  20657477.743     -148198.660        3089.094  
G16  17079275.028      -24682.565         503.717  
G23  18911695.039      -93429.254        1937.230  
G26  17369333.306       53850.528       -1135.871  
G27  19466514.117     -170250.924        3549.170  
G31  18802418.795       93842.717       -1966.368  
> 2019  1 10  9 51  6.0682480  0  6                     
G 9  20657403.447     -148584.680        3085.779  
G16  17079263.149      -24745.507         505.969  
G23  18911648.187      -93671.659        1940.923  
G26  17369361.059       53992.218       -1133.720  
G27  19466429.433     -170694.577        3549.249  
G31  18802465.180       94088.497       -1964.970  
> 2019  1 10  9 51  6.1932485  0  6                     
G 9  20657330.534     -148970.686        3087.500  
G16  17079252.689      -24808.447         502.178  
G23  18911602.577      -93914.058        1942.156  
G26  17369387.190       54133.912       -1134.471  
G27  19466343.931     -171138.229        3547.640  
G31  18802512.560       94334.278       -1968.996  
> 2019  1 10  9 51  6.3182492  0  6                     
G 9  20657257.804     -149356.687        3091.050  
G16  17079239.449      -24871.365         502.398  
G23  18911556.320      -94156.452        1934.550  
G26  17369414.235       54275.609       -1135.270  
G27  19466260.685     -171581.888        3550.691  
G31  18802559.990       94580.062       -1965.402  
> 2019  1 10  9 51  6.4432499  0  6                     
G 9  20657184.730     -149742.687        3084.738  
G16  17079227.418      -24934.282         503.041  
G23  18911510.070      -94398.836        1940.524  
G26  17369440.993       54417.309       -1133.388  
G27  19466176.032     -172025.526        3549.503  
G31  18802606.250       94825.844       -1966.024  
> 2019  1 10  9 51  6.5682504  0  6                     
G 9  20657111.014     -150128.686        3090.203  
G16  17079215.345      -24997.195         504.392  
G23  18911464.314      -94641.211        1939.450  
G26  17369467.834       54559.022       -1135.130  
G27  19466091.309     -172469.171        3549.052  
G31  18802652.582       95071.648       -1965.151  
> 2019  1 10  9 51  6.6932511  0  6                     
G 9  20657037.080     -150514.673        3086.894  
G16  17079202.886      -25060.091         502.863  
G23  18911418.450      -94883.582        1934.403  
G26  17369495.224       54700.741       -1128.890  
G27  19466007.386     -172912.814        3548.253  
G31  18802699.406       95317.438       -1965.143  
> 2019  1 10  9 51  6.8182518  0  6                     
G 9  20656963.869     -150900.667        3088.139  
G16  17079191.455      -25122.985         502.629  
G23  18911371.454      -95125.939        1942.229  
G26  17369521.652       54842.464       -1135.765  
G27  19465922.029     -173356.443        3546.044  
G31  18802745.995       95563.240       -1967.661  
> 2019  1 10  9 51  6.9432523  0  6                     
G 9  20656890.914     -151286.644        3087.498  
G16  17079179.112      -25185.871         504.820  
G23  18911325.849      -95368.286        1937.932  
G26  17369549.034       54984.188       -1133.839  
G27  19465838.068     -173800.070        3551.924  
G31  18802793.046       95809.041       -1966.373  
> 2019  1 10  9 51  7.0682530  0  6                     
G 9  20656816.531     -151672.624        3086.767  
G16  17079166.991      -25248.742         503.994  
G23  18911280.102      -95610.634        1936.444  
G26  17369576.189       55125.925       -1136.153  
G27  19465753.720     -174243.697        3548.500  
G31  18802840.026       96054.846       -1966.965  
> 2019  1 10  9 51  7.1932538  0  6                     
G 9  20656743.250     -152058.595        3085.200  
G16  17079155.655      -25311.616         502.731  
G23  18911234.285      -95852.969        1940.370  
G26  17369603.360       55267.663       -1132.494  
G27  19465668.867     -174687.316        3546.673  
G31  18802887.013       96300.659       -1964.345  
> 2019  1 10  9 51  7.3182542  0  6                     
G 9  20656669.718     -152444.560        3087.953  
G16  17079143.277      -25374.469         501.390  
G23  18911187.896      -96095.294        1939.557  
G26  17369629.695       55409.399       -1133.596  
G27  19465585.066     -175130.931        3546.488  
G31  18802933.497       96546.472       -1964.854  
> 2019  1 10  9 51  7.4432549  0  6                     
G 9  20656596.812     -152830.520        3087.000  
G16  17079132.413      -25437.328         503.166  
G23  18911141.802      -96337.614        1937.783  
G26  17369656.739       55551.156       -1132.866  
G27  19465499.568     -175574.541        3550.140  
G31  18802980.652       96792.295       -1966.867  
> 2019  1 10  9 51  7.5682557  0  6                     
G 9  20656523.637     -153216.476        3090.288  
G16  17079120.232      -25500.163         503.587  
G23  18911096.000      -96579.930        1938.801  
G26  17369684.472       55692.912       -1135.458  
G27  19465415.276     -176018.150        3549.334  
G31  18803027.032       97038.115       -1967.148  
> 2019  1 10  9 51  7.6932561  0  6                     
G 9  20656449.502     -153602.427        3085.519  
G16  17079108.476      -25563.003         505.523  
G23  18911048.745      -96822.228        1936.287  
G26  17369712.008       55834.667       -1135.162  
G27  19465331.214     -176461.751        3549.516  
G31  18803074.565       97283.947       -1967.998  
> 2019  1 10  9 51  7.8182569  0  6                     
G 9  20656375.638     -153988.375        3085.492  
G16  17079096.190      -25625.838         501.731  
G23  18911002.678      -97064.526        1939.759  
G26  17369738.558       55976.438       -1136.074  
G27  19465246.918     -176905.344        3547.522  
G31  18803120.796       97529.773       -1963.758  
> 2019  1 10  9 51  7.9432576  0  6                     
G 9  20656302.628     -154374.315        3088.008  
G16  17079084.334      -25688.661         499.415  
G23  18910956.680      -97306.812        1938.807  
G26  17369764.848       56118.204       -1133.527  
G27  19465162.255     -177348.931        3546.505  
G31  18803167.162       97775.610       -1965.530  
> 2019  1 10  9 51  8.0682580  0  6                     
G 9  20656229.607     -154760.251        3087.932  
G16  17079072.286      -25751.468         500.045  
G23  18910910.092      -97549.087        1939.422  
G26  17369791.802       56259.980       -1132.505  
G27  19465078.304     -177792.525        3550.330  
G31  18803214.532       98021.440       -1967.264  
> 2019  1 10  9 51  8.1932588  0  6                     
G 9  20656156.445     -155146.185        3084.752  
G16  17079060.077      -25814.275         501.634  
G23  18910863.934      -97791.355        1939.239  
G26  17369819.631       56401.767       -1136.933  
G27  19464994.306     -178236.115        3547.535  
G31  18803260.658       98267.287       -1968.097  
> 2019  1 10  9 51  8.3182595  0  6                     
G 9  20656082.193     -155532.112        3081.545  
G16  17079047.784      -25877.074         503.566  
G23  18910817.871      -98033.618        1938.279  
G26  17369846.562       56543.555       -1133.987  
G27  19464909.961     -178679.686        3549.536  
G31  18803307.863       98513.137       -1967.688  
> 2019  1 10  9 51  8.4432600  0  6                     
G 9  20656008.766     -155918.037        3085.789  
G16  17079035.584      -25939.862         502.111  
G23  18910772.884      -98275.878        1936.901  
G26  17369873.664       56685.352       -1134.272  
G27  19464825.361     -179123.260        3548.616  
G31  18803354.705       98758.988       -1968.787  
> 2019  1 10  9 51  8.5682607  0  6                     
G 9  20655935.428     -156303.954        3087.741  
G16  17079024.446      -26002.646         503.718  
G23  18910726.215      -98518.124        1938.395  
G26  17369900.554       56827.153       -1135.231  
G27  19464740.664     -179566.824        3549.067  
G31  18803400.851       99004.845       -1965.803  
> 2019  1 10  9 51  8.6932614  0  6                     
G 9  20655861.815     -156689.865        3086.625  
G16  17079012.135      -26065.418         503.254  
G23  18910680.283      -98760.361        1937.926  
G26  17369926.750       56968.954       -1133.705  
G27  19464656.328     -180010.392        3552.383  
G31  18803447.978       99250.695       -1966.854  
> 2019  1 10  9 51  8.8182619  0  6                     
G 9  20655788.490     -157075.766        3084.264  
G16  17079000.147      -26128.186         501.392  
G23  18910633.878      -99002.593        1934.781  
G26  17369953.156       57110.770       -1129.153  
G27  19464572.248     -180453.956        3546.008  
G31  18803494.749       99496.558       -1966.395  
> 2019  1 10  9 51  8.9432626  0  6                     
G 9  20655714.962     -157461.671        3090.048  
G16  17078988.677      -26190.943         499.766  
G23  18910588.012      -99244.820        1933.058  
G26  17369980.977       57252.583       -1134.552  
G27  19464487.614     -180897.513        3548.468  
G31  18803541.378       99742.427       -1970.388  
> 2019  1 10  9 51  9.0682633  0  6                     
G 9  20655641.842     -157847.565        3084.092  
G16  17078976.680      -26253.695         502.467  
G23  18910542.052      -99487.033        1936.343  
G26  17370008.131       57394.399       -1131.562  
G27  19464403.631     -181341.065        3549.856  
G31  18803588.246       99988.298       -1969.663  
> 2019  1 10  9 51  9.1932638  0  6                     
G 9  20655569.002     -158233.464        3088.186  
G16  17078964.549      -26316.439         503.628  
G23  18910495.984      -99729.237        1936.968  
G26  17370035.113       57536.233       -1135.539  
G27  19464318.583     -181784.610        3548.279  
G31  18803635.586      100234.165       -1967.025  
> 2019  1 10  9 51  9.3182645  0  6                     
G 9  20655495.754     -158619.349        3086.140  
G16  17078952.643      -26379.176         503.000  
G23  18910449.514      -99971.439        1934.303  
G26  17370061.520       57678.065       -1132.287  
G27  19464234.240     -182228.146        3547.022  
G31  18803681.509      100480.039       -1966.172  
> 2019  1 10  9 51  9.4432652  0  6                     
G 9  20655421.460     -159005.240        3082.875  
G16  17078940.313      -26441.902         501.656  
G23  18910403.735     -100213.635        1938.245  
G26  17370088.323       57819.908       -1134.107  
G27  19464149.773     -182671.689        3548.967  
G31  18803728.418      100725.928       -1965.709  
> 2019  1 10  9 51  9.5682657  0  6                     
G 9  20655347.982     -159391.105        3087.892  
G16  17078928.687      -26504.618         501.052  
G23  18910358.239     -100455.814        1937.811  
G26  17370115.696       57961.751       -1135.638  
G27  19464065.917     -183115.220        3548.921  
G31  18803775.254      100971.808       -1963.835  
> 2019  1 10  9 51  9.6932664  0  6                     
G 9  20655275.219     -159776.985        3084.815  
G16  17078916.408      -26567.333         502.084  
G23  18910312.297     -100697.983        1939.329  
G26  17370142.746       58103.603       -1135.204  
G27  19463981.625     -183558.749        3548.235  
G31  18803821.773      101217.697       -1967.276  
> 2019  1 10  9 51  9.8182671  0  6                     
G 9  20655201.326     -160162.853        3085.097  
G16  17078904.668      -26630.038         500.922  
G23  18910266.140     -100940.147        1935.869  
G26  17370169.967       58245.456       -1135.921  
G27  19463897.089     -184002.271        3549.484  
G31  18803868.613      101463.591       -1964.739  
> 2019  1 10  9 51  9.9432676  0  6                     
G 9  20655127.997     -160548.710        3089.324  
G16  17078892.255      -26692.728         501.778  
G23  18910220.081     -101182.310        1935.850  
G26  17370197.062       58387.321       -1136.733  
G27  19463812.674     -184445.790        3548.794  
G31  18803915.289      101709.487       -1966.043  
> 2019  1 10  9 51 10.0682683  0  6                     
G 9  20655054.671     -160934.573        3083.195  
G16  17078880.771      -26755.417         503.301  
G23  18910173.878     -101424.461        1936.376  
G26  17370224.221       58529.184       -1136.644  
G27  19463727.830     -184889.309        3547.472  
G31  18803962.347      101955.392       -1965.725  
> 2019  1 10  9 51 10.1932690  0  6                     
G 9  20654980.881     -161320.429        3086.339  
G16  17078868.862      -26818.098         502.726  
G23  18910127.386     -101666.598        1939.152  
G26  17370251.149       58671.057       -1135.740  
G27  19463643.806     -185332.818        3548.259  
G31  18804009.106      102201.296       -1967.012  
> 2019  1 10  9 51 10.3182695  0  6                     
G 9  20654907.431     -161706.274        3087.655  
G16  17078856.798      -26880.776         501.546  
G23  18910081.356     -101908.731        1933.270  
G26  17370277.571       58812.937       -1133.417  
G27  19463559.230     -185776.319        3546.744  
G31  18804056.646      102447.203       -1966.089  
> 2019  1 10  9 51 10.4432702  0  6                     
G 9  20654834.127     -162092.120        3086.395  
G16  17078844.467      -26943.434         501.653  
G23  18910035.354     -102150.859        1935.607  
G26  17370304.054       58954.823       -1133.309  
G27  19463474.688     -186219.824        3547.786  
G31  18804103.020      102693.114       -1967.435  
> 2019  1 10  9 51 10.5682709  0  6                     
G 9  20654761.402     -162477.956        3086.812  
G16  17078832.857      -27006.095         500.570  
G23  18909989.011     -102392.980        1938.343  
G26  17370331.041       59096.709       -1134.899  
G27  19463389.805     -186663.313        3548.464  
G31  18804149.993      102939.029       -1966.000  
> 2019  1 10  9 51 10.6932714  0  6                     
G 9  20654687.155     -162863.789        3087.502  
G16  17078821.062      -27068.740         502.020  
G23  18909943.522     -102635.089        1937.538  
G26  17370359.087       59238.602       -1135.108  
G27  19463305.905     -187106.814        3547.405  
G31  18804196.772      103184.949       -1970.522  
> 2019  1 10  9 51 10.8182721  0  6                     
G 9  20654613.503     -163249.616        3086.424  
G16  17078809.277      -27131.379         504.516  
G23  18909896.969     -102877.192        1934.443  
G26  17370385.493       59380.504       -1134.391  
G27  19463221.462     -187550.306        3548.442  
G31  18804244.164      103430.876       -1968.251  
> 2019  1 10  9 51 10.9432726  0  6                     
G 9  20654540.397     -163635.437        3087.288  
G16  17078797.144      -27194.014         500.605  
G23  18909849.896     -103119.283        1934.962  
G26  17370412.808       59522.409       -1135.685  
G27  19463137.653     -187993.787        3548.463  
G31  18804290.461      103676.802       -1967.975  
> 2019  1 10  9 51 11.0682733  0  6                     
G 9  20654466.759     -164021.253        3087.877  
G16  17078785.494      -27256.635         500.013  
G23  18909804.350     -103361.377        1937.468  
G26  17370439.842       59664.323       -1131.959  
G27  19463053.363     -188437.267        3546.041  
G31  18804336.868      103922.734       -1968.852  
> 2019  1 10  9 51 11.1932740  0  6                     
G 9  20654393.481     -164407.074        3086.616  
G16  17078772.845      -27319.257         499.369  
G23  18909758.206     -103603.448        1936.074  
G26  17370467.345       59806.237       -1132.262  
G27  19462969.008     -188880.735        3545.999  
G31  18804383.721      104168.671       -1969.680  
> 2019  1 10  9 51 11.3182745  0  6                     
G 9  20654320.835     -164792.883        3088.548  
G16  17078761.798      -27381.864         499.726  
G23  18909712.048     -103845.514        1934.227  
G26  17370494.164       59948.166       -1133.443  
G27  19462883.740     -189324.205        3547.602  
G31  18804429.956      104414.609       -1967.609  
> 2019  1 10  9 51 11.4432752  0  6                     
G 9  20654247.359     -165178.689        3086.390  
G16  17078749.279      -27444.466         500.084  
G23  18909666.398     -104087.582        1938.569  
G26  17370520.956       60090.092       -1134.573  
G27  19462799.847     -189767.665        3551.303  
G31  18804477.093      104660.550       -1968.526  
> 2019  1 10  9 51 11.5682759  0  6                     
G 9  20654173.923     -165564.486        3089.654  
G16  17078737.021      -27507.061         500.275  
G23  18909621.234     -104329.636        1934.052  
G26  17370547.885       60232.026       -1134.379  
G27  19462715.432     -190211.134        3548.909  
G31  18804523.703      104906.500       -1966.343  
> 2019  1 10  9 51 11.6932764  0  6                     
G 9  20654099.135     -165950.269        3088.727  
G16  17078725.290      -27569.646         501.344  
G23  18909575.367     -104571.690        1934.077  
G26  17370574.499       60373.968       -1134.743  
G27  19462631.176     -190654.591        3546.455  
G31  18804572.271      105152.450       -1970.233  
> 2019  1 10  9 51 11.8182771  0  6                     
G 9  20654026.104     -166336.066        3084.102  
G16  17078715.070      -27632.222         498.826  
G23  18909529.273     -104813.723        1935.746  
G26  17370601.692       60515.913       -1134.520  
G27  19462545.521     -191098.035        3547.184  
G31  18804618.244      105398.405       -1968.262  
> 2019  1 10  9 51 11.9432778  0  6                     
G 9  20653953.191     -166721.852        3083.368  
G16  17078702.777      -27694.792         501.819  
G23  18909483.494     -105055.753        1937.490  
G26  17370629.495       60657.864       -1133.006  
G27  19462461.410     -191541.484        3545.778  
G31  18804664.824      105644.368       -1967.440  
> 2019  1 10  9 51 12.0682783  0  6                     
G 9  20653879.338     -167107.631        3085.420  
G16  17078690.359      -27757.357         498.955  
G23  18909437.244     -105297.771        1937.630  
G26  17370655.835       60799.814       -1135.843  
G27  19462377.825     -191984.923        3547.864  
G31  18804711.957      105890.328       -1966.825  
> 2019  1 10  9 51 12.1932790  0  6                     
G 9  20653805.274     -167493.397        3085.568  
G16  17078678.189      -27819.913         499.892  
G23  18909391.324     -105539.785        1933.871  
G26  17370682.355       60941.783       -1134.808  
G27  19462293.341     -192428.359        3551.081  
G31  18804758.397      106136.296       -1966.812  
> 2019  1 10  9 51 12.3182797  0  6                     
G 9  20653731.625     -167879.170        3083.268  
G16  17078666.484      -27882.460         499.318  
G23  18909344.557     -105781.792        1939.411  
G26  17370709.437       61083.745       -1136.592  
G27  19462209.147     -192871.793        3547.283  
G31  18804805.190      106382.267       -1969.746  
> 2019  1 10  9 51 12.4432802  0  6                     
G 9  20653658.514     -168264.936        3085.444  
G16  17078654.049      -27944.993         501.780  
G23  18909298.306     -106023.789        1937.542  
G26  17370736.591       61225.717       -1136.284  
G27  19462125.210     -193315.218        3550.029  
G31  18804851.721      106628.239       -1967.198  
> 2019  1 10  9 51 12.5682809  0  6                     
G 9  20653585.481     -168650.691        3084.799  
G16  17078642.108      -28007.531         499.919  
G23  18909251.869     -106265.780        1937.036  
G26  17370763.485       61367.697       -1138.216  
G27  19462040.534     -193758.644        3548.733  
G31  18804899.199      106874.220       -1967.963  
> 2019  1 10  9 51 12.6932817  0  6                     
G 9  20653512.309     -169036.448        3087.172  
G16  17078629.762      -28070.051         499.522  
G23  18909205.236     -106507.765        1934.309  
G26  17370790.718       61509.683       -1136.353  
G27  19461955.800     -194202.065        3546.660  
G31  18804946.060      107120.195       -1968.316  
> 2019  1 10  9 51 12.8182821  0  6                     
G 9  20653439.187     -169422.198        3084.633  
G16  17078618.535      -28132.565         503.060  
G23  18909159.551     -106749.733        1935.260  
G26  17370818.129       61651.672       -1139.172  
G27  19461871.123     -194645.482        3546.976  
G31  18804992.483      107366.188       -1968.178  
> 2019  1 10  9 51 12.9432828  0  6                     
G 9  20653365.427     -169807.944        3084.260  
G16  17078607.019      -28195.074         499.237  
G23  18909113.607     -106991.706        1935.446  
G26  17370844.983       61793.679       -1133.436  
G27  19461786.953     -195088.883        3549.227  
G31  18805039.593      107612.173       -1967.755  
> 2019  1 10  9 51 13.0682836  0  6                     
G 9  20653292.361     -170193.682        3084.011  
G16  17078595.399      -28257.573         498.641  
G23  18909067.901     -107233.654        1932.633  
G26  17370871.845       61935.667       -1136.644  
G27  19461702.500     -195532.296        3546.202  
G31  18805086.254      107858.170       -1966.202  
> 2019  1 10  9 51 13.1932840  0  6                     
G 9  20653219.738     -170579.416        3086.587  
G16  17078583.411      -28320.066         497.762  
G23  18909021.803     -107475.607        1931.713  
G26  17370898.913       62077.676       -1133.476  
G27  19461618.434     -195975.701        3548.553  
G31  18805132.816      108104.171       -1964.590  
> 2019  1 10  9 51 13.3182847  0  6                     
G 9  20653145.462     -170965.146        3085.782  
G16  17078571.345      -28382.552         501.131  
G23  18908976.163     -107717.544        1932.885  
G26  17370926.067       62219.692       -1136.225  
G27  19461533.634     -196419.092        3547.426  
G31  18805180.402      108350.165       -1967.543  
> 2019  1 10  9 51 13.4432855  0  6                     
G 9  20653072.426     -171350.868        3084.738  
G16  17078559.450      -28445.029         500.246  
G23  18908930.200     -107959.480        1937.307  
G26  17370952.618       62361.715       -1134.965  
G27  19461449.370     -196862.483        3546.642  
G31  18805227.078      108596.175       -1969.068  
> 2019  1 10  9 51 13.5682859  0  6                     
G 9  20652998.966     -171736.586        3088.008  
G16  17078547.566      -28507.491         499.181  
G23  18908884.275     -108201.405        1934.630  
G26  17370979.604       62503.735       -1135.691  
G27  19461365.412     -197305.874        3546.998  
G31  18805273.703      108842.179       -1965.489  
> 2019  1 10  9 51 13.6932867  0  6                     
G 9  20652925.434     -172122.301        3084.351  
G16  17078535.696      -28569.948         501.027  
G23  18908838.007     -108443.326        1934.930  
G26  17371006.994       62645.764       -1136.646  
G27  19461280.752     -197749.258        3545.571  
G31  18805320.286      109088.192       -1971.528  
> 2019  1 10  9 51 13.8182874  0  6                     
G 9  20652851.355     -172508.009        3087.245  
G16  17078523.858      -28632.403         500.083  
G23  18908792.207     -108685.242        1932.759  
G26  17371033.709       62787.797       -1134.767  
G27  19461195.917     -198192.639        3548.598  
G31  18805366.545      109334.211       -1970.052  
> 2019  1 10  9 51 13.9432878  0  6                     
G 9  20652777.854     -172893.714        3085.776  
G16  17078512.019      -28694.850         497.444  
G23  18908746.162     -108927.132        1936.247  
G26  17371061.018       62929.838       -1139.023  
G27  19461111.291     -198636.006        3545.502  
G31  18805413.626      109580.233       -1966.915  
> 2019  1 10  9 51 14.0682886  0  6                     
G 9  20652704.508     -173279.416        3088.563  
G16  17078499.433      -28757.288         499.749  
G23  18908699.083     -109169.033        1934.495  
G26  17371088.218       63071.893       -1136.797  
G27  19461027.230     -199079.379        3546.816  
G31  18805459.860      109826.257       -1968.040  
> 2019  1 10  9 51 14.1932893  0  6                     
G 9  20652631.695     -173665.113        3087.285  
G16  17078487.568      -28819.715         499.254  
G23  18908653.735     -109410.913        1936.390  
G26  17371115.803       63213.935       -1136.526  
G27  19460942.661     -199522.739        3545.211  
G31  18805506.593      110072.286       -1967.917  
> 2019  1 10  9 51 14.3182898  0  6                     
G 9  20652558.053     -174050.799        3083.722  
G16  17078475.832      -28882.139         497.882  
G23  18908607.560     -109652.792        1936.712  
G26  17371142.110       63355.996       -1136.754  
G27  19460859.080     -199966.103        3546.011  
G31  18805554.090      110318.325       -1970.537  
> 2019  1 10  9 51 14.4432905  0  6                     
G 9  20652485.194     -174436.482        3082.976  
G16  17078464.275      -28944.549         498.291  
G23  18908560.897     -109894.660        1936.673  
G26  17371169.381       63498.061       -1136.989  
G27  19460774.504     -200409.455        3546.384  
G31  18805600.273      110564.358       -1966.616  
> 2019  1 10  9 51 14.5682912  0  6                     
G 9  20652411.287     -174822.165        3084.476  
G16  17078452.299      -29006.957         496.272  
G23  18908515.458     -110136.522        1935.089  
G26  17371196.491       63640.126       -1136.190  
G27  19460690.257     -200852.803        3548.542  
G31  18805647.123      110810.391       -1969.706  
> 2019  1 10  9 51 14.6932917  0  6                     
G 9  20652337.789     -175207.840        3085.573  
G16  17078440.240      -29069.352         501.496  
G23  18908469.773     -110378.377        1935.391  
G26  17371223.994       63782.201       -1138.461  
G27  19460606.137     -201296.154        3544.882  
G31  18805694.531      111056.440       -1969.192  
> 2019  1 10  9 51 14.8182924  0  6                     
G 9  20652264.168     -175593.516        3083.912  
G16  17078428.112      -29131.742         501.379  
G23  18908424.263     -110620.221        1935.981  
G26  17371250.566       63924.284       -1139.357  
G27  19460522.281     -201739.495        3545.825  
G31  18805741.422      111302.485       -1967.308  
> 2019  1 10  9 51 14.9432931  0  6                     
G 9  20652191.017     -175979.178        3084.238  
G16  17078415.847      -29194.123         496.069  
G23  18908378.986     -110862.052        1935.849  
G26  17371277.137       64066.365       -1136.704  
G27  19460437.617     -202182.831        3549.148  
G31  18805788.115      111548.535       -1969.630  
> 2019  1 10  9 51 15.0682936  0  6                     
G 9  20652117.935     -176364.838        3083.760  
G16  17078404.302      -29256.497         499.692  
G23  18908332.144     -111103.884        1936.203  
G26  17371304.664       64208.454       -1136.850  
G27  19460353.016     -202626.165        3549.468  
G31  18805834.809      111794.597       -1968.634  
> 2019  1 10  9 51 15.1932943  0  6                     
G 9  20652044.150     -176750.493        3087.817  
G16  17078392.649      -29318.865         496.250  
G23  18908285.543     -111345.706        1934.326  
G26  17371332.436       64350.551       -1136.870  
G27  19460268.100     -203069.495        3546.336  
G31  18805881.510      112040.658       -1967.786  
> 2019  1 10  9 51 15.3182950  0  6                     
G 9  20651970.696     -177136.147        3084.779  
G16  17078381.689      -29381.215         498.739  
G23  18908239.160     -111587.518        1934.324  
G26  17371359.395       64492.655       -1133.910  
G27  19460183.833     -203512.817        3545.342  
G31  18805928.009      112286.722       -1969.027  
> 2019  1 10  9 51 15.4432955  0  6                     
G 9  20651897.542     -177521.788        3083.999  
G16  17078369.505      -29443.571         496.318  
G23  18908192.925     -111829.325        1935.382  
G26  17371385.254       64634.765       -1137.454  
G27  19460099.545     -203956.135        3546.184  
G31  18805975.869      112532.792       -1968.691  
> 2019  1 10  9 51 15.5682962  0  6                     
G 9  20651824.560     -177907.433        3081.605  
G16  17078357.010      -29505.916         502.475  
G23  18908146.884     -112071.120        1939.946  
G26  17371411.675       64776.879       -1138.855  
G27  19460015.645     -204399.447        3545.160  
G31  18806022.175      112778.856       -1969.260  
> 2019  1 10  9 51 15.6932969  0  6                     
G 9  20651750.977     -178293.067        3084.241  
G16  17078345.548      -29568.248         498.790  
G23  18908100.772     -112312.908        1934.480  
G26  17371439.083       64918.996       -1135.887  
G27  19459931.400     -204842.759        3545.345  
G31  18806069.599      113024.931       -1967.291  
> 2019  1 10  9 51 15.8182974  0  6                     
G 9  20651677.506     -178678.701        3086.674  
G16  17078333.751      -29630.578         499.918  
G23  18908054.772     -112554.688        1935.478  
G26  17371466.746       65061.121       -1138.133  
G27  19459846.279     -205286.065        3544.309  
G31  18806116.302      113271.012       -1966.748  
> 2019  1 10  9 51 15.9432981  0  6                     
G 9  20651604.660     -179064.325        3082.330  
G16  17078321.763      -29692.891         497.595  
G23  18908009.201     -112796.461        1935.968  
G26  17371493.975       65203.251       -1136.245  
G27  19459762.297     -205729.363        3546.446  
G31  18806162.635      113517.095       -1967.813  
> 2019  1 10  9 51 16.0682986  0  6                     
G 9  20651530.841     -179449.943        3090.435  
G16  17078310.160      -29755.204         497.446  
G23  18907963.496     -113038.229        1930.212  
G26  17371520.864       65345.388       -1133.805  
G27  19459677.254     -206172.662        3547.801  
G31  18806209.355      113763.185       -1970.214  
> 2019  1 10  9 51 16.1932993  0  6                     
G 9  20651457.505     -179835.556        3082.729  
G16  17078298.315      -29817.508         498.885  
G23  18907917.372     -113279.984        1931.978  
G26  17371547.528       65487.528       -1138.706  
G27  19459593.345     -206615.953        3545.649  
G31  18806256.553      114009.273       -1972.977  
> 2019  1 10  9 51 16.3183000  0  6                     
G 9  20651384.443     -180221.167        3084.273  
G16  17078285.975      -29879.807         500.741  
G23  18907871.602     -113521.732        1933.155  
G26  17371574.979       65629.674       -1138.682  
G27  19459509.386     -207059.243        3546.966  
G31  18806303.488      114255.374       -1969.527  
> 2019  1 10  9 51 16.4433005  0  6                     
G 9  20651310.665     -180606.772        3084.282  
G16  17078274.919      -29942.094         496.938  
G23  18907825.893     -113763.474        1938.355  
G26  17371602.087       65771.824       -1137.625  
G27  19459424.437     -207502.524        3544.084  
G31  18806349.835      114501.468       -1966.799  
> 2019  1 10  9 51 16.5683012  0  6                     
G 9  20651237.611     -180992.373        3085.029  
G16  17078263.220      -30004.367         500.905  
G23  18907779.696     -114005.204        1931.474  
G26  17371629.689       65913.986       -1136.619  
G27  19459339.815     -207945.800        3549.897  
G31  18806396.786      114747.569       -1969.624  
> 2019  1 10  9 51 16.6933019  0  6                     
G 9  20651164.319     -181377.973        3088.803  
G16  17078250.802      -30066.642         500.294  
G23  18907732.789     -114246.932        1933.771  
G26  17371656.714       66056.147       -1140.145  
G27  19459256.469     -208389.082        3542.448  
G31  18806443.651      114993.677       -1968.315  
> 2019  1 10  9 51 16.8183024  0  6                     
G 9  20651091.254     -181763.563        3084.644  
G16  17078239.234      -30128.906         496.456  
G23  18907688.402     -114488.649        1932.963  
G26  17371682.977       66198.318       -1133.843  
G27  19459171.913     -208832.345        3546.744  
G31  18806490.655      115239.788       -1970.488  
> 2019  1 10  9 51 16.9433031  0  6                     
G 9  20651017.366     -182149.147        3083.965  
G16  17078227.224      -30191.163         499.046  
G23  18907642.679     -114730.353        1933.839  
G26  17371710.043       66340.491       -1140.076  
G27  19459087.066     -209275.604        3545.776  
G31  18806537.361      115485.900       -1971.185  
> 2019  1 10  9 51 17.0683038  0  6                     
G 9  20650943.499     -182534.737        3085.107  
G16  17078215.055      -30253.410         497.718  
G23  18907596.315     -114972.061        1936.168  
G26  17371736.728       66482.676       -1136.766  
G27  19459003.116     -209718.871        3544.200  
G31  18806584.766      115732.023       -1969.631  
> 2019  1 10  9 51 17.1933043  0  6                     
G 9  20650870.484     -182920.307        3088.086  
G16  17078203.227      -30315.649         498.435  
G23  18907549.584     -115213.746        1932.208  
G26  17371764.435       66624.862       -1137.529  
G27  19458919.081     -210162.122        3543.872  
G31  18806631.625      115978.140       -1969.052  
> 2019  1 10  9 51 17.3183050  0  6                     
G 9  20650796.377     -183305.881        3085.740  
G16  17078191.837      -30377.887         494.274  
G23  18907503.999     -115455.435        1932.914  
G26  17371791.415       66767.053       -1137.510  
G27  19458834.229     -210605.370        3546.233  
G31  18806678.536      116224.273       -1968.575  
> 2019  1 10  9 51 17.4433057  0  6                     
G 9  20650722.646     -183691.449        3081.452  
G16  17078180.183      -30440.106         495.357  
G23  18907457.931     -115697.111        1934.843  
G26  17371818.475       66909.249       -1136.305  
G27  19458749.898     -211048.621        3547.632  
G31  18806725.055      116470.402       -1970.450  
> 2019  1 10  9 51 17.5683062  0  6                     
G 9  20650649.376     -184077.006        3082.904  
G16  17078168.049      -30502.328         493.580  
G23  18907411.872     -115938.780        1933.231  
G26  17371845.112       67051.454       -1135.391  
G27  19458665.551     -211491.863        3545.687  
G31  18806772.018      116716.534       -1968.707  
> 2019  1 10  9 51 17.6933069  0  6                     
G 9  20650576.865     -184462.554        3082.254  
G16  17078156.232      -30564.533         498.216  
G23  18907365.323     -116180.434        1934.330  
G26  17371872.493       67193.662       -1135.728  
G27  19458580.889     -211935.096        3546.894  
G31  18806818.110      116962.669       -1972.945  
> 2019  1 10  9 51 17.8183076  0  6                     
G 9  20650502.933     -184848.113        3084.352  
G16  17078144.686      -30626.738         499.854  
G23  18907318.990     -116422.088        1932.637  
G26  17371899.793       67335.875       -1134.261  
G27  19458496.779     -212378.328        3544.076  
G31  18806865.973      117208.804       -1967.436  
> 2019  1 10  9 51 17.9433081  0  6                     
G 9  20650430.319     -185233.656        3082.304  
G16  17078132.358      -30688.930         495.953  
G23  18907272.935     -116663.734        1929.963  
G26  17371926.762       67478.095       -1136.104  
G27  19458412.384     -212821.564        3545.962  
G31  18806912.305      117454.951       -1971.265  
> 2019  1 10  9 51 18.0683088  0  6                     
G 9  20650356.743     -185619.199        3083.882  
G16  17078120.694      -30751.120         496.731  
G23  18907227.240     -116905.370        1934.146  
G26  17371953.687       67620.317       -1139.228  
G27  19458328.125     -213264.780        3545.908  
G31  18806959.304      117701.106       -1969.918  
> 2019  1 10  9 51 18.1933095  0  6                     
G 9  20650283.481     -186004.738        3085.447  
G16  17078108.698      -30813.295         499.501  
G23  18907181.504     -117146.994        1931.027  
G26  17371981.510       67762.548       -1136.887  
G27  19458243.655     -213707.995        3543.007  
G31  18807006.132      117947.253       -1967.211  
> 2019  1 10  9 51 18.3183100  0  6                     
G 9  20650210.149     -186390.265        3084.736  
G16  17078096.967      -30875.461         496.091  
G23  18907135.918     -117388.616        1933.104  
G26  17372008.269       67904.789       -1138.204  
G27  19458159.553     -214151.211        3545.025  
G31  18807052.840      118193.407       -1969.790  
> 2019  1 10  9 51 18.4433107  0  6                     
G 9  20650136.835     -186775.798        3082.133  
G16  17078085.560      -30937.628         498.401  
G23  18907089.766     -117630.226        1932.721  
G26  17372034.740       68047.029       -1139.453  
G27  19458075.699     -214594.423        3546.999  
G31  18807099.065      118439.577       -1970.779  
> 2019  1 10  9 51 18.5683115  0  6                     
G 9  20650063.562     -187161.319        3082.870  
G16  17078073.320      -30999.782         498.089  
G23  18907043.939     -117871.831        1933.658  
G26  17372062.816       68189.283       -1134.933  
G27  19457991.124     -215037.629        3546.290  
G31  18807146.358      118685.740       -1970.019  
> 2019  1 10  9 51 18.6933119  0  6                     
G 9  20649990.003     -187546.834        3084.309  
G16  17078062.086      -31061.927         495.782  
G23  18906997.818     -118113.431        1931.901  
G26  17372089.121       68331.529       -1135.453  
G27  19457905.983     -215480.827        3544.802  
G31  18807193.388      118931.905       -1968.187  
> 2019  1 10  9 51 18.8183126  0  6                     
G 9  20649916.322     -187932.345        3083.874  
G16  17078050.205      -31124.066         499.834  
G23  18906951.969     -118355.012        1936.473  
G26  17372116.152       68473.784       -1141.552  
G27  19457821.804     -215924.021        3545.449  
G31  18807239.824      119178.078       -1971.866  
> 2019  1 10  9 51 18.9433134  0  6                     
G 9  20649843.901     -188317.856        3081.511  
G16  17078037.984      -31186.192         498.616  
G23  18906905.989     -118596.595        1932.846  
G26  17372143.115       68616.051       -1139.964  
G27  19457737.585     -216367.213        3543.671  
G31  18807286.399      119424.255       -1969.102  
> 2019  1 10  9 51 19.0683138  0  6                     
G 9  20649770.385     -188703.349        3083.807  
G16  17078026.122      -31248.319         492.453  
G23  18906859.509     -118838.171        1931.191  
G26  17372170.218       68758.321       -1139.027  
G27  19457653.922     -216810.404        3549.567  
G31  18807333.162      119670.437       -1969.346  
> 2019  1 10  9 51 19.1933146  0  6                     
G 9  20649697.062     -189088.854        3082.561  
G16  17078014.328      -31310.432         500.411  
G23  18906813.299     -119079.730        1935.073  
G26  17372197.808       68900.597       -1139.438  
G27  19457569.780     -217253.586        3543.808  
G31  18807380.815      119916.620       -1968.641  
> 2019  1 10  9 51 19.3183153  0  6                     
G 9  20649623.414     -189474.350        3084.575  
G16  17078001.862      -31372.537         497.837  
G23  18906767.574     -119321.285        1931.872  
G26  17372225.194       69042.875       -1137.752  
G27  19457485.577     -217696.758        3545.034  
G31  18807427.855      120162.812       -1966.539  
> 2019  1 10  9 51 19.4433157  0  6                     
G 9  20649549.554     -189859.833        3084.549  
G16  17077989.817      -31434.640         495.010  
G23  18906722.003     -119562.831        1932.591  
G26  17372251.944       69185.165       -1139.788  
G27  19457400.362     -218139.939        3545.122  
G31  18807474.101      120409.004       -1968.547  
> 2019  1 10  9 51 19.5683165  0  6                     
G 9  20649475.732     -190245.315        3085.055  
G16  17077978.012      -31496.727         494.833  
G23  18906675.364     -119804.372        1932.056  
G26  17372279.149       69327.458       -1140.357  
G27  19457315.634     -218583.102        3548.840  
G31  18807521.262      120655.191       -1968.663  
> 2019  1 10  9 51 19.6933172  0  6                     
G 9  20649402.925     -190630.796        3087.263  
G16  17077966.009      -31558.812         496.485  
G23  18906629.958     -120045.902        1930.854  
G26  17372305.849       69469.753       -1137.713  
G27  19457231.725     -219026.268        3545.327  
G31  18807568.086      120901.393       -1969.686  
> 2019  1 10  9 51 19.8183177  0  6                     
G 9  20649329.484     -191016.260        3087.204  
G16  17077954.585      -31620.887         496.276  
G23  18906583.688     -120287.428        1933.456  
G26  17372333.023       69612.058       -1137.479  
G27  19457147.793     -219469.428        3543.637  
G31  18807614.274      121147.597       -1971.805  
> 2019  1 10  9 51 19.9433184  0  6                     
G 9  20649255.981     -191401.730        3084.244  
G16  17077942.783      -31682.958         496.579  
G23  18906538.267     -120528.942        1932.813  
G26  17372359.773       69754.372       -1134.542  
G27  19457063.365     -219912.579        3545.461  
G31  18807661.647      121393.806       -1970.288  
> 2019  1 10  9 51 20.0683191  0  6                     
G 9  20649182.788     -191787.194        3083.424  
G16  17077930.769      -31745.018         497.850  
G23  18906491.860     -120770.448        1933.283  
G26  17372386.860       69896.683       -1138.895  
G27  19456979.035     -220355.730        3544.865  
G31  18807708.647      121640.017       -1967.054  
> 2019  1 10  9 51 20.1933196  0  6                     
G 9  20649109.476     -192172.654        3086.375  
G16  17077919.138      -31807.072         495.580  
G23  18906445.272     -121011.946        1933.417  
G26  17372414.593       70038.998       -1140.110  
G27  19456894.188     -220798.872        3545.294  
G31  18807755.723      121886.231       -1970.206  
> 2019  1 10  9 51 20.3183203  0  6                     
G 9  20649036.576     -192558.105        3084.916  
G16  17077907.521      -31869.115         498.901  
G23  18906400.148     -121253.443        1928.017  
G26  17372441.099       70181.327       -1138.683  
G27  19456809.786     -221242.013        3544.502  
G31  18807802.850      122132.453       -1968.386  
> 2019  1 10  9 51 20.4433210  0  6                     
G 9  20648963.088     -192943.547        3085.940  
G16  17077895.719      -31931.151         493.901  
G23  18906355.145     -121494.924        1932.469  
G26  17372468.338       70323.665       -1139.622  
G27  19456725.180     -221685.151        3546.150  
G31  18807849.603      122378.672       -1968.948  
> 2019  1 10  9 51 20.5683215  0  6                     
G 9  20648889.969     -193328.990        3083.369  
G16  17077884.456      -31993.177         497.098  
G23  18906308.606     -121736.401        1933.100  
G26  17372495.149       70466.001       -1139.073  
G27  19456641.264     -222128.286        3541.404  
G31  18807895.825      122624.902       -1964.921  
> 2019  1 10  9 51 20.6933222  0  6                     
G 9  20648816.582     -193714.442        3083.676  
G16  17077872.490      -32055.197         496.352  
G23  18906263.057     -121977.862        1932.839  
G26  17372521.793       70608.339       -1139.530  
G27  19456557.078     -222571.415        3543.417  
G31  18807942.396      122871.135       -1971.310  
> 2019  1 10  9 51 20.8183229  0  6                     
G 9  20648743.504     -194099.863        3084.900  
G16  17077860.955      -32117.215         496.362  
G23  18906216.342     -122219.323        1932.681  
G26  17372549.241       70750.687       -1137.781  
G27  19456473.427     -223014.531        3543.642  
G31  18807989.443      123117.362       -1968.975  
> 2019  1 10  9 51 20.9433234  0  6                     
G 9  20648670.067     -194485.294        3085.256  
G16  17077849.048      -32179.220         497.828  
G23  18906170.258     -122460.776        1927.782  
G26  17372576.608       70893.042       -1138.010  
G27  19456389.462     -223457.651        3543.457  
G31  18808036.087      123363.606       -1968.045  
> 2019  1 10  9 51 21.0683241  0  6                     
G 9  20648596.230     -194870.716        3084.884  
G16  17077837.278      -32241.216         496.288  
G23  18906124.056     -122702.218        1931.746  
G26  17372603.679       71035.401       -1136.056  
G27  19456305.078     -223900.766        3541.521  
G31  18808082.853      123609.849       -1969.159  
> 2019  1 10  9 51 21.1933246  0  6                     
G 9  20648522.625     -195256.139        3084.194  
G16  17077824.936      -32303.199         498.710  
G23  18906078.296     -122943.654        1932.089  
G26  17372631.131       71177.767       -1140.582  
G27  19456220.786     -224343.879        3546.560  
G31  18808130.644      123856.096       -1972.195  
> 2019  1 10  9 51 21.3183253  0  6                     
G 9  20648449.325     -195641.548        3083.920  
G16  17077814.083      -32365.183         496.460  
G23  18906032.375     -123185.083        1932.187  
G26  17372658.468       71320.139       -1139.141  
G27  19456135.755     -224786.980        3542.695  
G31  18808177.113      124102.346       -1968.462  
> 2019  1 10  9 51 21.4433260  0  6                     
G 9  20648376.121     -196026.958        3083.424  
G16  17077801.843      -32427.158         496.115  
G23  18905986.778     -123426.498        1930.662  
G26  17372685.110       71462.516       -1138.945  
G27  19456051.772     -225230.080        3545.914  
G31  18808223.962      124348.599       -1969.332  
> 2019  1 10  9 51 21.5683265  0  6                     
G 9  20648302.689     -196412.353        3081.852  
G16  17077790.466      -32489.123         497.170  
G23  18905940.836     -123667.911        1932.812  
G26  17372712.566       71604.897       -1139.658  
G27  19455966.969     -225673.176        3543.650  
G31  18808270.539      124594.852       -1966.778  
> 2019  1 10  9 51 21.6933272  0  6                     
G 9  20648229.309     -196797.757        3081.695  
G16  17077778.150      -32551.083         494.753  
G23  18905894.538     -123909.314        1933.868  
G26  17372738.878       71747.283       -1140.780  
G27  19455883.073     -226116.267        3546.239  
G31  18808317.613      124841.121       -1970.325  
> 2019  1 10  9 51 21.8183279  0  6                     
G 9  20648155.863     -197183.147        3086.433  
G16  17077765.755      -32613.030         496.127  
G23  18905848.701     -124150.705        1929.139  
G26  17372765.893       71889.679       -1138.645  
G27  19455799.063     -226559.350        3544.692  
G31  18808364.790      125087.379       -1970.749  
> 2019  1 10  9 51 21.9433284  0  6                     
G 9  20648083.280     -197568.531        3082.425  
G16  17077753.885      -32674.975         496.716  
G23  18905802.620     -124392.097        1930.054  
G26  17372793.194       72032.077       -1139.003  
G27  19455714.719     -227002.433        3544.697  
G31  18808411.498      125333.652       -1968.166  
> 2019  1 10  9 51 22.0683291  0  6                     
G 9  20648010.262     -197953.924        3082.551  
G16  17077741.870      -32736.904         494.646  
G23  18905757.191     -124633.476        1930.872  
G26  17372820.278       72174.475       -1137.801  
G27  19455629.694     -227445.510        3543.982  
G31  18808457.956      125579.934       -1972.608  
> 2019  1 10  9 51 22.1933298  0  6                     
G 9  20647936.385     -198339.296        3082.218  
G16  17077730.116      -32798.838         495.110  
G23  18905711.047     -124874.847        1931.948  
G26  17372847.378       72316.892       -1140.029  
G27  19455545.564     -227888.580        3542.292  
G31  18808505.235      125826.202       -1972.590  
> 2019  1 10  9 51 22.3183303  0  6                     
G 9  20647862.470     -198724.670        3083.822  
G16  17077718.114      -32860.756         496.877  
G23  18905665.138     -125116.201        1932.071  
G26  17372873.972       72459.307       -1139.276  
G27  19455460.832     -228331.649        3541.726  
G31  18808552.058      126072.479       -1968.206  
> 2019  1 10  9 51 22.4433310  0  6                     
G 9  20647789.139     -199110.045        3081.550  
G16  17077706.600      -32922.665         497.711  
G23  18905619.286     -125357.562        1928.807  
G26  17372901.694       72601.724       -1140.149  
G27  19455376.409     -228774.716        3547.928  
G31  18808599.184      126318.774       -1972.368  
> 2019  1 10  9 51 22.5683317  0  6                     
G 9  20647716.295     -199495.402        3086.031  
G16  17077695.443      -32984.572         495.724  
G23  18905573.118     -125598.906        1931.392  
G26  17372928.353       72744.146       -1138.654  
G27  19455291.669     -229217.777        3542.784  
G31  18808645.759      126565.059       -1968.717  
> 2019  1 10  9 51 22.6933322  0  6                     
G 9  20647642.921     -199880.761        3083.079  
G16  17077684.118      -33046.464         493.041  
G23  18905527.110     -125840.247        1933.483  
G26  17372955.273       72886.585       -1139.600  
G27  19455207.452     -229660.826        3544.294  
G31  18808692.504      126811.350       -1972.779  
> 2019  1 10  9 51 22.8183329  0  6                     
G 9  20647569.715     -200266.113        3085.147  
G16  17077672.094      -33108.352         495.013  
G23  18905481.644     -126081.580        1928.300  
G26  17372982.506       73029.023       -1139.875  
G27  19455123.230     -230103.872        3546.510  
G31  18808739.579      127057.647       -1972.079  
> 2019  1 10  9 51 22.9433336  0  6                     
G 9  20647496.513     -200651.465        3083.834  
G16  17077659.762      -33170.232         494.678  
G23  18905435.607     -126322.898        1930.888  
G26  17373009.778       73171.461       -1140.239  
G27  19455039.033     -230546.924        3543.219  
G31  18808786.431      127303.948       -1968.468  
> 2019  1 10  9 51 23.0683341  0  6                     
G 9  20647423.141     -201036.804        3084.329  
G16  17077648.625      -33232.106         494.121  
G23  18905389.905     -126564.210        1931.312  
G26  17373037.508       73313.914       -1139.541  
G27  19454955.105     -230989.964        3545.514  
G31  18808833.005      127550.249       -1970.588  
> 2019  1 10  9 51 23.1933348  0  6                     
G 9  20647349.981     -201422.148        3084.106  
G16  17077636.967      -33293.962         493.911  
G23  18905344.308     -126805.522        1931.318  
G26  17373064.527       73456.369       -1139.232  
G27  19454871.216     -231432.999        3542.518  
G31  18808879.593      127796.562       -1966.865  
> 2019  1 10  9 51 23.3183355  0  6                     
G 9  20647276.586     -201807.480        3083.579  
G16  17077624.782      -33355.817         497.418  
G23  18905298.738     -127046.815        1928.569  
G26  17373091.737       73598.828       -1140.993  
G27  19454786.731     -231876.031        3543.634  
G31  18808926.735      128042.873       -1972.729  
> 2019  1 10  9 51 23.4433360  0  6                     
G 9  20647202.679     -202192.808        3083.744  
G16  17077613.078      -33417.667         495.974  
G23  18905252.197     -127288.105        1927.742  
G26  17373118.608       73741.293       -1141.628  
G27  19454702.386     -232319.060        3543.999  
G31  18808973.453      128289.186       -1973.532  
> 2019  1 10  9 51 23.5683367  0  6                     
G 9  20647129.543     -202578.136        3084.164  
G16  17077601.829      -33479.506         496.643  
G23  18905206.421     -127529.390        1929.271  
G26  17373146.012       73883.767       -1138.731  
G27  19454618.363     -232762.078        3542.536  
G31  18809021.186      128535.511       -1971.213  
> 2019  1 10  9 51 23.6933374  0  6                     
G 9  20647056.538     -202963.451        3085.525  
G16  17077589.888      -33541.346         496.524  
G23  18905160.008     -127770.664        1930.031  
G26  17373173.386       74026.242       -1140.941  
G27  19454534.233     -233205.090        3542.265  
G31  18809067.972      128781.837       -1971.760  
> 2019  1 10  9 51 23.8183379  0  6                     
G 9  20646983.278     -203348.768        3083.047  
G16  17077577.739      -33603.171         492.878  
G23  18905113.836     -128011.924        1930.652  
G26  17373200.675       74168.726       -1140.107  
G27  19454450.064     -233648.104        3544.587  
G31  18809115.031      129028.156       -1971.863  
> 2019  1 10  9 51 23.9433386  0  6                     
G 9  20646909.739     -203734.073        3083.948  
G16  17077564.968      -33664.981         492.098  
G23  18905067.948     -128253.187        1934.129  
G26  17373227.328       74311.217       -1138.855  
G27  19454366.258     -234091.118        3544.124  
G31  18809161.966      129274.495       -1970.431  
> 2019  1 10  9 51 24.0683393  0  6                     
G 9  20646836.166     -204119.377        3084.591  
G16  17077551.607      -33726.797         494.173  
G23  18905022.652     -128494.439        1928.484  
G26  17373254.322       74453.708       -1139.703  
G27  19454283.562     -234534.117        3542.713  
G31  18809208.595      129520.832       -1970.267  
> 2019  1 10  9 51 24.1933398  0  6                     
G 9  20646762.873     -204504.680        3081.619  
G16  17077540.311      -33788.601         493.436  
G23  18904976.084     -128735.674        1932.491  
G26  17373281.752       74596.210       -1140.907  
G27  19454198.553     -234977.115        3545.265  
G31  18809255.215      129767.166       -1970.853  
> 2019  1 10  9 51 24.3183405  0  6                     
G 9  20646689.956     -204889.972        3081.917  
G16  17077530.065      -33850.388         492.322  
G23  18904930.608     -128976.910        1931.531  
G26  17373308.527       74738.707       -1142.112  
G27  19454112.574     -235420.113        3544.454  
G31  18809301.990      130013.510       -1971.761  
> 2019  1 10  9 51 24.4433413  0  6                     
G 9  20646616.510     -205275.257        3080.641  
G16  17077518.358      -33912.171         491.553  
G23  18904884.122     -129218.131        1932.820  
G26  17373334.972       74881.225       -1139.788  
G27  19454028.273     -235863.108        3544.323  
G31  18809348.771      130259.856       -1969.397  
> 2019  1 10  9 51 24.5683417  0  6                     
G 9  20646543.491     -205660.538        3079.930  
G16  17077507.463      -33973.953         496.585  
G23  18904838.622     -129459.354        1927.063  
G26  17373361.981       75023.734       -1139.305  
G27  19453943.389     -236306.090        3541.690  
G31  18809395.766      130506.203       -1972.822  
> 2019  1 10  9 51 24.6933424  0  6                     
G 9  20646469.543     -206045.824        3080.142  
G16  17077495.563      -34035.719         496.535  
G23  18904793.362     -129700.567        1930.368  
G26  17373389.408       75166.263       -1137.196  
G27  19453859.173     -236749.076        3543.102  
G31  18809443.263      130752.566       -1971.736  
> 2019  1 10  9 51 24.8183432  0  6                     
G 9  20646396.924     -206431.097        3080.096  
G16  17077483.031      -34097.483         496.852  
G23  18904746.650     -129941.767        1932.643  
G26  17373417.421       75308.788       -1140.534  
G27  19453775.193     -237192.047        3544.206  
G31  18809488.828      130998.924       -1971.210  
> 2019  1 10  9 51 24.9433436  0  6                     
G 9  20646323.602     -206816.364        3080.630  
G16  17077471.512      -34159.234         493.477  
G23  18904700.547     -130182.958        1930.901  
G26  17373443.436       75451.318       -1136.723  
G27  19453690.734     -237635.020        3543.242  
G31  18809535.710      131245.281       -1972.584  
> 2019  1 10  9 51 25.0683444  0  6                     
G 9  20646249.418     -207201.626        3083.385  
G16  17077459.925      -34220.981         497.062  
G23  18904654.864     -130424.140        1927.915  
G26  17373470.673       75593.858       -1138.589  
G27  19453606.419     -238077.990        3541.776  
G31  18809582.812      131491.652       -1968.119  
> 2019  1 10  9 51 25.1933451  0  6                     
G 9  20646176.216     -207586.889        3079.364  
G16  17077448.285      -34282.718         494.654  
G23  18904609.245     -130665.325        1928.162  
G26  17373497.487       75736.398       -1141.236  
G27  19453521.969     -238520.954        3544.455  
G31  18809629.533      131738.022       -1969.570  
> 2019  1 10  9 51 25.3183455  0  6                     
G 9  20646103.305     -207972.139        3083.770  
G16  17077437.037      -34344.454         492.790  
G23  18904563.228     -130906.490        1928.923  
G26  17373524.556       75878.949       -1137.379  
G27  19453437.771     -238963.908        3543.672  
G31  18809676.970      131984.396       -1971.486  
> 2019  1 10  9 51 25.4433463  0  6                     
G 9  20646029.992     -208357.393        3085.386  
G16  17077425.422      -34406.173         493.164  
G23  18904517.299     -131147.650        1927.945  
G26  17373551.817       76021.508       -1142.301  
G27  19453353.666     -239406.862        3542.485  
G31  18809724.340      132230.773       -1970.090  
> 2019  1 10  9 51 25.5683470  0  6                     
G 9  20645956.705     -208742.636        3084.462  
G16  17077413.425      -34467.887         493.379  
G23  18904471.570     -131388.808        1930.146  
G26  17373579.422       76164.068       -1140.056  
G27  19453268.886     -239849.811        3544.576  
G31  18809770.554      132477.158       -1974.783  
> 2019  1 10  9 51 25.6933475  0  6                     
G 9  20645883.211     -209127.870        3079.072  
G16  17077401.913      -34529.597         497.163  
G23  18904425.538     -131629.947        1929.105  
G26  17373606.287       76306.631       -1140.321  
G27  19453184.798     -240292.752        3542.543  
G31  18809816.827      132723.542       -1972.530  
> 2019  1 10  9 51 25.8183482  0  6                     
G 9  20645809.672     -209513.118        3082.518  
G16  17077390.692      -34591.292         492.567  
G23  18904379.627     -131871.088        1930.203  
G26  17373634.264       76449.205       -1141.282  
G27  19453099.765     -240735.694        3544.773  
G31  18809864.156      132969.939       -1970.183  
> 2019  1 10  9 51 25.9433489  0  6                     
G 9  20645735.693     -209898.338        3083.844  
G16  17077378.510      -34652.987         496.048  
G23  18904333.738     -132112.217        1930.220  
G26  17373661.728       76591.782       -1142.514  
G27  19453015.875     -241178.629        3541.310  
G31  18809910.877      133216.325       -1972.076  
> 2019  1 10  9 51 26.0683494  0  6                     
G 9  20645662.980     -210283.561        3079.885  
G16  17077366.210      -34714.670         492.815  
G23  18904288.057     -132353.333        1928.392  
G26  17373688.038       76734.361       -1140.203  
G27  19452931.853     -241621.564        3546.274  
G31  18809958.380      133462.724       -1968.224  
> 2019  1 10  9 51 26.1933501  0  6                     
G 9  20645589.974     -210668.784        3082.209  
G16  17077354.641      -34776.340         494.334  
G23  18904242.175     -132594.452        1929.889  
G26  17373714.723       76876.958       -1136.777  
G27  19452848.212     -242064.486        3544.093  
G31  18810005.451      133709.126       -1972.345  
> 2019  1 10  9 51 26.3183506  0  6                     
G 9  20645516.887     -211053.997        3082.501  
G16  17077343.245      -34838.016         493.445  
G23  18904196.419     -132835.554        1928.797  
G26  17373741.866       77019.550       -1140.912  
G27  19452763.530     -242507.405        3544.480  
G31  18810052.605      133955.534       -1969.462  
> 2019  1 10  9 51 26.4433513  0  6                     
G 9  20645443.507     -211439.207        3081.962  
G16  17077332.345      -34899.670         493.793  
G23  18904151.173     -133076.648        1926.973  
G26  17373768.906       77162.149       -1142.453  
G27  19452678.549     -242950.327        3543.498  
G31  18810099.389      134201.943       -1970.116  
> 2019  1 10  9 51 26.5683520  0  6                     
G 9  20645369.910     -211824.410        3080.413  
G16  17077319.663      -34961.318         492.448  
G23  18904105.069     -133317.740        1928.484  
G26  17373796.093       77304.753       -1145.060  
G27  19452594.515     -243393.241        3546.435  
G31  18810145.838      134448.353       -1969.048  
> 2019  1 10  9 51 26.6933525  0  6                     
G 9  20645297.081     -212209.619        3082.178  
G16  17077307.500      -35022.963         494.551  
G23  18904058.774     -133558.817        1928.181  
G26  17373823.594       77447.363       -1139.827  
G27  19452510.157     -243836.145        3540.983  
G31  18810192.594      134694.775       -1972.639  
> 2019  1 10  9 51 26.8183532  0  6                     
G 9  20645223.889     -212594.805        3079.712  
G16  17077295.765      -35084.608         495.448  
G23  18904012.851     -133799.890        1926.859  
G26  17373851.224       77589.980       -1142.979  
G27  19452425.890     -244279.045        3543.368  
G31  18810239.024      134941.187       -1969.637  
> 2019  1 10  9 51 26.9433539  0  6                     
G 9  20645149.910     -212979.994        3079.136  
G16  17077283.594      -35146.232         493.064  
G23  18903966.981     -134040.958        1928.900  
G26  17373878.496       77732.598       -1142.429  
G27  19452342.372     -244721.948        3544.040  
G31  18810286.048      135187.619       -1970.394  
> 2019  1 10  9 51 27.0683544  0  6                     
G 9  20645076.310     -213365.182        3081.293  
G16  17077269.929      -35207.855         495.718  
G23  18903921.053     -134282.010        1930.495  
G26  17373905.234       77875.227       -1140.398  
G27  19452259.890     -245164.838        3541.365  
G31  18810333.263      135434.042       -1971.871  
> 2019  1 10  9 51 27.1933551  0  6                     
G 9  20645002.880     -213750.365        3080.551  
G16  17077259.149      -35269.470         491.908  
G23  18903875.553     -134523.066        1926.576  
G26  17373931.605       78017.862       -1140.772  
G27  19452174.605     -245607.728        3545.631  
G31  18810380.533      135680.483       -1973.536  
> 2019  1 10  9 51 27.3183558  0  6                     
G 9  20644929.898     -214135.531        3080.697  
G16  17077248.917      -35331.069         494.501  
G23  18903829.534     -134764.104        1926.688  
G26  17373959.547       78160.502       -1143.509  
G27  19452089.794     -246050.617        3547.924  
G31  18810426.894      135926.908       -1972.634  
> 2019  1 10  9 51 27.4433563  0  6                     
G 9  20644857.752     -214520.706        3081.631  
G16  17077236.602      -35392.670         491.324  
G23  18903784.032     -135005.136        1928.964  
G26  17373986.814       78303.147       -1141.418  
G27  19452005.232     -246493.502        3541.589  
G31  18810474.601      136173.353       -1970.058  
> 2019  1 10  9 51 27.5683570  0  6                     
G 9  20644783.982     -214905.866        3078.872  
G16  17077226.316      -35454.258         493.332  
G23  18903737.881     -135246.157        1932.829  
G26  17374013.640       78445.795       -1139.329  
G27  19451919.349     -246936.372        3542.258  
G31  18810520.982      136419.793       -1971.772  
> 2019  1 10  9 51 27.6933577  0  6                     
G 9  20644709.943     -215291.033        3080.795  
G16  17077215.645      -35515.835         498.659  
G23  18903691.655     -135487.182        1925.295  
G26  17374040.647       78588.452       -1139.716  
G27  19451834.375     -247379.245        3542.374  
G31  18810568.027      136666.253       -1972.311  
> 2019  1 10  9 51 27.8183582  0  6                     
G 9  20644636.785     -215676.190        3081.338  
G16  17077203.305      -35577.417         492.320  
G23  18903645.535     -135728.183        1930.362  
G26  17374068.138       78731.111       -1139.759  
G27  19451751.254     -247822.106        3541.735  
G31  18810614.957      136912.699       -1971.157  
> 2019  1 10  9 51 27.9433589  0  6                     
G 9  20644563.612     -216061.333        3079.559  
G16  17077191.295      -35638.979         492.780  
G23  18903599.657     -135969.181        1925.217  
G26  17374095.717       78873.778       -1142.421  
G27  19451667.305     -248264.974        3547.286  
G31  18810661.727      137159.155       -1969.726  
