     2.11           OBSERVATION DATA    M (MIXED)           RINEX VERSION / TYPE
teqc  2016Nov7      KASI/KOREA          20190709 10:32:36UTCPGM / RUN BY / DATE
Linux 2.4.20-8|Pentium IV|gcc|Linux|486/DX+                 COMMENT
  0.0000      (antenna height)                              COMMENT
 +36.39942714 (latitude)                                    COMMENT
+127.37448264 (longitude)                                   COMMENT
0116.859      (elevation)                                   COMMENT
BIT 2 OF LLI FLAGS DATA COLLECTED UNDER A/S CONDITION       COMMENT
23902M002 (COGO code)                                       COMMENT
DAEJ                                                        MARKER NAME
23902M002                                                   MARKER NUMBER
KASI GPS            KASI/KOREA                              OBSERVER / AGENCY
5412K48145          TRIMBLE NETR9       5.20                REC # / TYPE / VERS
4923363230          TRM59800.00     SCIS                    ANT # / TYPE
 -3120041.4934  4084614.5003  3764026.3127                  APPROX POSITION XYZ
        0.0000        0.0000        0.0000                  ANTENNA: DELTA H/E/N
     1     1                                                WAVELENGTH FACT L1/2
    10    L1    L2    L5    C1    P1    P2    C5    S1    S2# / TYPES OF OBSERV
          S5                                                # / TYPES OF OBSERV
    18                                                      LEAP SECONDS
 SNR is mapped to RINEX snr flag value [0-9]                COMMENT
  L1 & L2: min(max(int(snr_dBHz/6), 0), 9)                  COMMENT
  2019     7     9    10    15    0.0000000     GPS         TIME OF FIRST OBS
                                                            END OF HEADER
 19  7  9 10 15  0.0000000  0 21G06G29R24R08R02G30R22G13G07R01G15G02
                                R23G05E12E04E11E36E19E14E09
 119132721.745 6  92830798.59944  88962845.539 7  22670214.109
  22670222.977    22670223.211          39.000          28.000          46.500
 118609646.068 7  92423259.45444                  22570696.281
  22570702.945                          42.600          27.400
 110265841.276 6  85762283.757 5                  20620270.391    20620268.676
  20620272.406                          38.000          31.400
 108477226.080 6  84371204.763 7                  20257347.633    20257347.965
  20257351.602                          41.800          43.600
 126589493.057 5  98458501.967 5                  23722817.992    23722816.203
  23722822.367                          35.000          32.800
 123681944.387 6  96375536.98243  92359897.093 7  23535878.695
  23535887.445    23535887.586          37.200          22.500          46.000
 120452404.928 6  93685218.410 6                  22564793.563    22564791.375
  22564798.016                          38.900          39.200
 113177991.472 7  88190660.34045                  21537049.180
  21537055.340                          43.800          33.000
 127243765.632 6  99150923.46543                  24213659.125
  24213665.551                          37.300          19.000
 105662129.819 7  82181699.049 6                  19766277.977    19766276.715
  19766283.453                          42.300          39.900
 126602833.747 6  98651494.17143                  24091692.727
  24091700.383                          36.000          19.600
 108465673.505 7  84518747.43446                  20640323.781
  20640327.109                          45.200          41.100
 102390815.069 7  79637400.079 6                  19140875.078    19140874.934
  19140882.156                          45.600          40.100
 107745866.336 7  83957907.17646                  20503350.945
  20503356.629                          47.800          40.100
 121117787.311 6                  90445114.484 7  23047948.406
                  23047951.305          40.900                          43.600
 122896132.352 7                  91773132.355 8  23386345.398
                  23386349.586          46.000                          50.100
 113640350.483 7                  84861311.131 7  21625037.766
                  21625039.156          42.900                          45.700
 136784695.735 6                 102144438.606 7  26029261.711
                  26029267.750          38.700                          42.200
 139166897.005 5                 103923364.581 6  26482575.016
                  26482579.516          33.500                          36.300
 109579135.867 7                  81828591.782 8  20852216.719
                  20852221.539          46.000                          49.300
 121486888.105 7                  90720778.181 7  23118178.773
                  23118184.055          43.300                          46.700
 19  7  9 10 15  1.0000000  0 21G06G29R24R08R02G30R22G13G07R01G15G02
                                R23G05E12E04E11E36E19E14E09
 119135379.938 6  92832869.91844  88964830.524 7  22670719.320
  22670728.477    22670729.273          38.800          28.700          46.500
 118607927.952 7  92421920.65844                  22570369.594
  22570375.813                          42.400          28.200
 110262979.669 6  85760058.125 5                  20619734.773    20619734.094
  20619737.109                          38.000          31.300
 108479444.376 6  84372930.092 7                  20257762.156    20257761.785
  20257765.836                          41.600          43.800
 126586299.518 5  98456018.156 5                  23722219.594    23722217.547
  23722224.066                          34.400          33.200
 123680374.763 6  96374313.90943  92358724.965 7  23535579.805
  23535588.547    23535588.984          36.400          22.600          46.000
 120456538.866 6  93688433.669 6                  22565567.281    22565565.820
  22565572.363                          38.900          39.000
 113175177.966 7  88188467.99845                  21536513.602
  21536519.543                          44.100          32.800
 127243705.183 6  99150876.38343                  24213647.406
  24213654.402                          37.000          19.600
 105661475.747 7  82181190.331 6                  19766155.180    19766154.715
  19766161.270                          42.600          39.800
 126599103.911 5  98648587.79843                  24090983.430
  24090990.977                          35.800          19.600
 108465821.207 7  84518862.51946                  20640351.523
  20640355.129                          44.800          40.600
 102391620.901 7  79638026.826 6                  19141026.969    19141025.418
  19141033.008                          45.900          40.000
 107745620.267 7  83957715.42446                  20503303.969
  20503309.734                          47.900          40.000
 121120005.772 6                  90446771.127 7  23048370.617
                  23048373.480          40.800                          43.600
 122896568.552 7                  91773458.087 8  23386428.195
                  23386432.629          45.900                          50.000
 113639998.839 7                  84861048.522 7  21624970.859
                  21624972.262          43.000                          45.900
 136782176.374 6                 102142557.262 7  26028782.172
                  26028788.395          39.000                          42.300
 139169373.445 5                 103925213.840 6  26483045.938
                  26483050.789          33.600                          36.600
 109583660.606 7                  81831970.650 8  20853077.898
                  20853082.563          45.700                          49.500
 121484962.318 7                  90719340.099 7  23117812.000
                  23117817.574          43.000                          47.100
 19  7  9 10 15  2.0000000  0 21G06G29R24R08R02G30R22G13G07R01G15G02
                                R23G05E12E04E11E36E19E14E09
 119138038.429 6  92834941.46444  88966815.774 7  22671225.406
  22671234.742    22671235.137          39.000          27.400          46.700
 118606210.423 7  92420582.32844                  22570041.992
  22570049.223                          42.500          27.100
 110260118.703 6  85757832.929 5                  20619199.469    20619199.234
  20619201.895                          37.500          31.300
 108481662.991 6  84374655.692 7                  20258176.930    20258176.535
  20258180.055                          41.800          43.700
 126583106.369 5  98453534.547 5                  23721620.570    23721619.555
  23721625.602                          33.900          33.100
 123678805.569 6  96373091.15643  92357553.145 7  23535280.984
  23535290.309    23535290.414          37.000          21.700          46.300
 120460673.107 6  93691649.199 6                  22566341.625    22566340.398
  22566347.281                          39.400          38.800
 113172364.904 7  88186275.99945                  21535978.711
  21535984.086                          43.900          33.400
 127243645.222 6  99150829.65643                  24213636.930
  24213643.039                          36.500          20.600
 105660822.240 7  82180682.046 6                  19766033.141    19766032.535
  19766038.992                          42.400          39.900
 126595374.232 6  98645681.57343                  24090274.234
  24090281.281                          36.400          19.300
 108465969.356 7  84518977.96546                  20640379.617
  20640382.684                          45.100          40.800
 102392427.593 7  79638654.256 6                  19141176.914    19141176.324
  19141183.703                          46.000          39.900
 107745374.489 7  83957523.91446                  20503257.344
  20503263.211                          47.900          40.200
 121122224.549 6                  90448428.009 7  23048792.867
                  23048795.391          41.000                          43.600
 122897005.081 7                  91773784.071 8  23386511.227
                  23386515.676          45.600                          50.200
 113639647.576 7                  84860786.235 7  21624903.992
                  21624905.324          43.400                          46.000
 136779657.151 6                 102140676.045 7  26028302.609
                  26028308.902          38.600                          42.400
 139171849.901 5                 103927063.136 6  26483517.492
                  26483522.184          33.300                          36.900
 109588186.129 7                  81835350.097 8  20853938.797
                  20853943.828          45.700                          49.600
 121483036.805 7                  90717902.220 7  23117445.695
                  23117451.195          42.500                          46.700
 19  7  9 10 15  3.0000000  0 21G06G29R24R08R02G30R22G13G07R01G15G02
                                R23G05E12E04E11E36E19E14E09
 119140697.244 6  92837013.26944  88968801.241 7  22671731.711
  22671741.027    22671741.352          39.200          27.500          46.800
 118604493.516 7  92419244.48844                  22569716.102
  22569722.285                          42.400          27.200
 110257258.309 6  85755608.147 5                  20618663.828    20618663.805
  20618666.680                          37.300          31.300
 108483881.920 7  84376381.508 7                  20258592.164    20258590.691
  20258594.480                          42.100          43.600
 126579913.344 5  98451051.123 5                  23721020.984    23721021.355
  23721027.105                          33.200          32.500
 123677236.754 6  96371868.70743  92356381.638 7  23534982.813
  23534991.773    23534991.809          37.100          22.200          45.700
 120464807.651 6  93694864.942 6                  22567116.523    22567115.063
  22567121.363                          39.200          38.700
 113169552.282 7  88184084.34945                  21535443.102
  21535448.863                          44.100          33.000
 127243585.754 6  99150783.29543                  24213625.031
  24213631.445                          36.500          20.100
 105660169.233 7  82180174.165 6                  19765911.516    19765910.441
  19765917.031                          42.200          39.400
 126591644.679 6  98642775.42043                  24089563.969
  24089571.328                          36.100          19.300
 108466117.967 7  84519093.76746                  20640408.336
  20640411.438                          45.100          40.400
 102393235.161 7  79639282.362 6                  19141328.203    19141327.121
  19141334.930                          45.700          39.900
 107745129.024 8  83957332.64746                  20503210.430
  20503216.348                          48.000          39.800
 121124443.585 6                  90450085.083 7  23049215.031
                  23049217.992          41.100                          43.800
 122897441.915 7                  91774110.283 8  23386594.352
                  23386598.746          45.800                          50.200
 113639296.722 7                  84860524.223 7  21624837.297
                  21624838.695          43.100                          45.700
 136777138.094 6                 102138794.907 7  26027823.578
                  26027829.531          38.100                          42.000
 139174326.436 5                 103928912.500 6  26483988.453
                  26483993.387          33.300                          36.600
 109592712.418 7                  81838730.117 8  20854800.094
                  20854805.156          46.000                          49.800
 121481111.566 7                  90716464.536 7  23117079.391
                  23117084.703          43.000                          46.900
 19  7  9 10 15  4.0000000  0 21G06G29R24R08R02G30R22G13G07R01G15G02
                                R23G05E12E04E11E36E19E14E09
 119143356.349 6  92839085.30244  88970786.956 7  22672237.469
  22672246.781    22672247.352          39.300          28.100          46.600
 118602777.188 7  92417907.09044                  22569389.148
  22569395.438                          42.800          28.600
 110254398.506 6  85753383.852 5                  20618130.070    20618129.340
  20618132.152                          37.600          31.400
 108486101.148 7  84378107.584 7                  20259006.172    20259005.238
  20259008.883                          42.500          43.700
 126576720.662 5  98448567.897 5                  23720422.859    23720422.621
  23720428.820                          33.800          32.900
 123675668.346 6  96370646.56943  92355210.437 7  23534684.703
  23534693.555    23534693.461          37.100          22.900          45.900
 120468942.500 6  93698080.937 6                  22567891.430    22567889.477
  22567896.219                          38.900          38.800
 113166740.105 7  88181893.04045                  21534907.484
  21534913.910                          43.600          33.100
 127243526.861 6  99150737.40743                  24213613.195
  24213620.691                          36.500          19.900
 105659516.795 7  82179666.699 6                  19765789.563    19765788.301
  19765794.688                          42.500          39.900
 126587915.356 6  98639869.48443                  24088854.461
  24088861.477                          36.300          19.000
 108466267.012 7  84519209.90546                  20640436.477
  20640439.613                          45.300          40.500
 102394043.611 7  79639911.158 6                  19141479.289    19141478.488
  19141485.852                          45.900          40.000
 107744883.813 8  83957141.56946                  20503163.930
  20503169.645                          48.000          40.600
 121126662.910 6                  90451742.391 7  23049637.258
                  23049640.355          41.500                          43.900
 122897879.078 7                  91774436.732 8  23386677.680
                  23386681.930          46.100                          50.100
 113638946.286 7                  84860262.525 7  21624770.609
                  21624772.020          43.500                          45.800
 136774619.146 6                 102136913.913 6  26027344.016
                  26027350.246          38.500                          41.600
 139176803.039 5                 103930761.902 6  26484459.844
                  26484464.375          33.000                          36.300
 109597239.470 7                  81842110.703 8  20855661.492
                  20855666.539          45.700                          49.500
 121479186.585 7                  90715027.041 7  23116712.852
                  23116718.270          42.800                          46.800
 19  7  9 10 15  5.0000000  0 21G06G29R24R08R02G30R22G13G07R01G15G02
                                R23G05E12E04E11E36E19E14E09
 119146015.741 6  92841157.55444  88972772.870 7  22672743.711
  22672752.832    22672753.496          39.800          28.900          46.700
 118601061.473 7  92416570.15844                  22569062.891
  22569069.340                          42.900          27.600
 110251539.302 6  85751160.028 5                  20617594.273    20617594.859
  20617597.805                          37.300          31.700
 108488320.662 7  84379833.859 7                  20259419.914    20259419.754
  20259423.223                          42.400          44.000
 126573528.257 5  98446084.906 5                  23719826.258    23719824.516
  23719830.273                          34.300          32.600
 123674100.352 6  96369424.76943  92354039.524 7  23534385.805
  23534394.918    23534395.133          37.400          22.500          45.600
 120473077.607 6  93701297.126 6                  22568665.617    22568664.203
  22568670.535                          38.900          38.900
 113163928.336 7  88179702.05745                  21534372.594
  21534378.484                          43.500          33.200
 127243468.442 5  99150691.90343                  24213602.625
  24213609.516                          35.900          19.600
 105658864.813 7  82179159.625 6                  19765667.992    19765666.145
  19765672.898                          42.600          39.200
 126584186.138 6  98636963.58743                  24088144.547
  24088151.977                          36.300          19.300
 108466416.514 7  84519326.39846                  20640464.781
  20640468.016                          45.400          40.400
 102394852.914 7  79640540.612 6                  19141630.766    19141629.590
  19141637.184                          45.600          39.800
 107744638.882 7  83956950.71746                  20503117.414
  20503123.035                          47.500          40.100
 121128882.552 6                  90453399.879 7  23050059.648
                  23050062.766          41.500                          43.900
 122898316.523 7                  91774763.401 8  23386761.219
                  23386765.176          45.700                          50.300
 113638596.210 7                  84860001.122 7  21624703.969
                  21624705.340          42.800                          45.800
 136772100.350 6                 102135032.963 7  26026864.805
                  26026871.043          38.300                          42.000
 139179279.632 5                 103932611.316 6  26484931.156
                  26484935.551          33.800                          36.300
 109601767.262 7                  81845491.848 8  20856523.195
                  20856528.258          45.900                          49.600
 121477261.830 7                  90713589.740 7  23116346.570
                  23116352.160          43.000                          46.800
 19  7  9 10 15  6.0000000  0 21G06G29R24R08R02G30R22G13G07R01G15G02
                                R23G05E12E04E11E36E19E14E09
 119148675.484 6  92843230.07844  88974759.014 7  22673249.789
  22673258.770    22673259.824          39.700          28.300          46.800
 118599346.325 7  92415233.68244                  22568736.023
  22568743.086                          42.600          28.000
 110248680.723 6  85748936.704 5                  20617060.234    20617059.930
  20617063.336                          37.600          31.300
 108490540.458 6  84381560.392 7                  20259834.789    20259834.770
  20259837.832                          41.900          43.800
 126570335.981 5  98443602.062 5                  23719227.789    23719226.328
  23719231.883                          34.200          32.700
 123672532.767 6  96368203.25243  92352868.916 7  23534087.797
  23534096.387    23534096.973          37.700          23.000          45.700
 120477213.013 6  93704513.565 6                  22569440.844    22569438.844
  22569445.383                          39.000          38.400
 113161117.041 7  88177511.43845                  21533837.945
  21533843.594                          43.600          33.100
 127243410.558 5  99150646.78143                  24213591.828
  24213598.395                          35.200          19.900
 105658213.388 7  82178652.952 6                  19765544.461    19765544.371
  19765550.715                          42.000          39.400
 126580457.104 6  98634057.85443                  24087435.453
  24087442.469                          36.900          20.400
 108466566.455 7  84519443.23246                  20640493.797
  20640497.008                          45.100          40.400
 102395663.099 7  79641170.759 6                  19141781.578    19141780.988
  19141788.668                          45.800          39.900
 107744394.233 7  83956760.08146                  20503070.438
  20503076.246                          47.600          39.500
 121131102.460 6                  90455057.619 7  23050482.125
                  23050485.238          41.400                          43.900
 122898754.292 7                  91775090.296 8  23386844.422
                  23386848.570          46.100                          50.900
 113638246.530 7                  84859740.002 7  21624637.219
                  21624638.910          42.800                          46.000
 136769581.680 6                 102133152.140 7  26026385.273
                  26026391.605          38.100                          42.300
 139181756.336 5                 103934460.785 6  26485402.805
                  26485407.055          32.800                          36.200
 109606295.807 7                  81848873.563 8  20857384.875
                  20857390.020          46.400                          49.800
 121475337.356 7                  90712152.626 7  23115980.688
                  23115985.945          42.900                          47.000
 19  7  9 10 15  7.0000000  0 21G06G29R24R08R02G30R22G13G07R01G15G02
                                R23G05E12E04E11E36E19E14E09
 119151335.484 6  92845302.81644  88976745.399 7  22673755.766
  22673765.191    22673766.125          40.000          28.300          47.000
 118597631.763 7  92413897.65544                  22568410.094
  22568416.676                          42.400          27.700
 110245822.662 6  85746713.804 5                  20616526.938    20616525.645
  20616528.727                          37.300          31.600
 108492760.542 7  84383287.106 7                  20260249.055    20260248.824
  20260252.328                          42.200          43.900
 126567143.997 5  98441119.405 5                  23718628.945    23718628.801
  23718633.586                          34.400          31.700
 123670965.532 6  96366982.05243  92351698.601 7  23533788.719
  23533798.633    23533798.891          37.300          22.500          46.000
 120481348.708 6  93707730.202 6                  22570216.359    22570214.055
  22570219.727                          39.000          38.700
 113158306.142 7  88175321.12645                  21533303.063
  21533309.031                          43.600          32.700
 127243353.174 5  99150602.05443                  24213581.172
  24213587.613                          35.800          19.600
 105657562.445 7  82178146.652 6                  19765423.836    19765422.668
  19765429.250                          42.000          39.600
 126576728.238 6  98631152.22143                  24086725.711
  24086732.727                          37.000          20.900
 108466716.841 7  84519560.41746                  20640522.359
  20640525.676                          45.400          40.800
 102396474.150 7  79641801.558 6                  19141933.391    19141932.637
  19141940.133                          45.400          39.900
 107744149.857 7  83956569.66146                  20503024.344
  20503030.016                          47.900          40.300
 121133322.640 6                  90456715.553 7  23050904.664
                  23050907.648          40.900                          43.900
 122899192.352 7                  91775417.434 8  23386927.531
                  23386931.820          46.200                          51.000
 113637897.272 7                  84859479.165 7  21624570.992
                  21624572.320          42.900                          45.800
 136767063.129 6                 102131271.434 7  26025906.453
                  26025912.305          38.000                          42.000
 139184233.031 5                 103936310.271 6  26485873.820
                  26485878.367          34.100                          36.500
 109610825.138 7                  81852255.845 8  20858246.969
                  20858251.848          46.400                          49.600
 121473413.131 7                  90710715.710 7  23115614.484
                  23115619.730          43.000                          46.600
 19  7  9 10 15  8.0000000  0 21G06G29R24R08R02G30R22G13G07R01G15G02
                                R23G05E12E04E11E36E19E14E09
 119153995.821 6  92847375.79644  88978731.994 7  22674261.992
  22674271.313    22674272.461          39.900          28.000          47.100
 118595917.792 6  92412562.08644                  22568083.500
  22568090.313                          41.700          27.800
 110242965.203 6  85744491.309 5                  20615991.695    20615990.992
  20615994.637                          37.300          31.700
 108494980.909 7  84385014.051 7                  20260663.766    20260663.441
  20260666.938                          42.100          44.000
 126563952.241 5  98438636.970 5                  23718032.266    23718030.289
  23718035.992                          34.400          31.600
 123669398.764 6  96365761.19543  92350528.603 7  23533490.852
  23533499.844    23533500.523          37.500          22.800          45.900
 120485484.684 6  93710947.088 6                  22570991.016    22570988.547
  22570994.930                          39.300          38.900
 113155495.684 7  88173131.16445                  21532768.695
  21532774.129                          43.500          33.100
 127243296.350 5  99150557.79243                  24213569.539
  24213576.746                          35.500          19.300
 105656912.020 7  82177640.744 6                  19765301.742    19765300.973
  19765307.410                          42.000          40.100
 126572999.486 6  98628246.71943                  24086015.711
  24086023.305                          37.300          20.100
 108466867.670 7  84519677.94646                  20640550.891
  20640554.160                          45.300          40.600
 102397286.055 7  79642433.063 6                  19142085.305    19142084.504
  19142091.879                          45.500          39.700
 107743905.769 8  83956379.46646                  20502977.664
  20502983.371                          48.000          40.100
 121135543.116 6                  90458373.689 7  23051327.047
                  23051330.164          40.900                          44.200
 122899630.736 7                  91775744.790 8  23387010.805
                  23387015.293          46.100                          50.800
 113637548.369 7                  84859218.618 7  21624504.570
                  21624506.043          42.800                          45.900
 136764544.758 6                 102129390.803 7  26025427.594
                  26025433.117          38.100                          42.100
 139186709.782 5                 103938159.772 6  26486344.539
                  26486349.754          34.100                          36.100
 109615355.196 7                  81855638.686 8  20859108.930
                  20859113.918          46.700                          49.800
 121471489.173 7                  90709278.975 7  23115248.398
                  23115253.621          43.300                          46.800
 19  7  9 10 15  9.0000000  0 21G06G29R24R08R02G30R22G13G07R01G15G02
                                R23G05E12E04E11E36E19E14E09
 119156656.489 6  92849449.04344  88980718.887 7  22674767.602
  22674777.816    22674778.750          39.400          29.100          47.000
 118594204.485 6  92411227.04544                  22567757.719
  22567764.570                          41.900          28.300
 110240108.459 6  85742269.395 5                  20615457.047    20615457.047
  20615460.172                          37.600          31.100
 108497201.602 7  84386741.273 7                  20261078.922    20261078.246
  20261081.398                          42.200          43.900
 126560760.798 5  98436154.726 5                  23717435.359    23717431.574
  23717437.648                          34.000          32.400
 123667832.450 6  96364540.67543  92349358.943 7  23533192.867
  23533201.844    23533202.535          37.300          22.500          45.500
 120489621.025 6  93714164.219 6                  22571765.594    22571763.641
  22571769.832                          39.200          38.900
 113152685.719 7  88170941.58345                  21532233.406
  21532239.555                          43.300          33.600
 127243240.063 5  99150513.93043                  24213558.758
  24213566.117                          35.400          19.000
 105656262.140 7  82177135.318 6                  19765180.461    19765179.668
  19765185.805                          42.300          39.700
 126569270.957 6  98625341.36643                  24085306.625
  24085313.816                          37.600          20.100
 108467018.997 7  84519795.86246                  20640579.695
  20640582.840                          45.300          40.000
 102398098.933 7  79643065.290 6                  19142237.594    19142236.113
  19142243.766                          45.800          40.000
 107743662.007 8  83956189.51846                  20502931.563
  20502937.289                          48.000          40.300
 121137763.938 6                  90460032.081 7  23051749.906
                  23051752.883          40.600                          43.900
 122900069.462 7                  91776072.416 8  23387094.789
                  23387098.824          46.100                          50.700
 113637199.904 7                  84858958.405 7  21624438.273
                  21624439.719          42.600                          46.000
 136762026.559 6                 102127510.330 6  26024948.008
                  26024954.074          38.200                          41.700
 139189186.658 5                 103940009.367 5  26486815.703
                  26486820.926          34.000                          35.500
 109619886.087 7                  81859022.135 8  20859971.320
                  20859976.152          46.200                          49.900
 121469565.508 7                  90707842.483 7  23114882.141
                  23114887.430          43.000                          46.700
 19  7  9 10 15 10.0000000  0 21G06G29R24R08R02G30R22G13G07R01G15G02
                                R23G05E12E04E11E36E19E14E09
 119159317.457 6  92851522.52744  88982705.959 7  22675274.297
  22675284.406    22675285.047          38.800          28.300          47.200
 118592491.745 6  92409892.44544                  22567431.594
  22567438.742                          41.600          28.200
 110237252.220 6  85740047.865 5                  20614923.438    20614922.852
  20614925.656                          37.300          30.500
 108499422.606 6  84388468.708 7                  20261493.008    20261493.035
  20261496.566                          41.500          44.300
 126557569.540 5  98433672.619 5                  23716834.992    23716833.859
  23716839.383                          34.700          32.200
 123666266.473 6  96363320.45043  92348189.580 7  23532893.953
  23532903.703    23532904.664          37.100          22.600          45.400
 120493757.630 6  93717381.594 6                  22572540.320    22572538.508
  22572544.637                          39.200          38.700
 113149876.184 7  88168752.33245                  21531699.172
  21531704.578                          43.400          33.300
 127243184.321 5  99150470.49843                  24213548.203
  24213555.352                          35.500          19.900
 105655612.766 7  82176630.245 6                  19765058.805    19765058.012
  19765064.438                          42.200          39.900
 126565542.564 6  98622436.12043                  24084597.328
  24084604.000                          37.700          19.000
 108467170.750 7  84519914.11846                  20640608.742
  20640611.852                          45.000          40.000
 102398912.625 7  79643698.164 6                  19142390.438    19142388.652
  19142396.125                          46.000          40.100
 107743418.491 8  83955999.76646                  20502884.961
  20502890.480                          48.200          40.100
 121139984.987 6                  90461690.676 7  23052172.313
                  23052175.602          40.900                          44.200
 122900508.492 7                  91776400.261 8  23387178.117
                  23387182.363          46.100                          50.600
 113636851.826 7                  84858698.474 7  21624372.023
                  21624373.453          42.900                          46.200
 136759508.455 6                 102125629.923 6  26024468.813
                  26024474.672          38.100                          41.900
 139191663.531 5                 103941858.992 6  26487287.414
                  26487292.426          33.500                          36.300
 109624417.695 7                  81862406.129 8  20860833.594
                  20860838.496          46.400                          49.900
 121467642.078 7                  90706406.158 7  23114516.352
                  23114521.555          43.300                          46.600
 19  7  9 10 15 11.0000000  0 21G06G29R24R08R02G30R22G13G07R01G15G02
                                R23G05E12E04E11E36E19E14E09
 119161978.740 6  92853596.25444  88984693.269 7  22675780.500
  22675790.664    22675791.434          38.700          29.400          47.200
 118590779.584 6  92408558.28944                  22567106.070
  22567112.762                          41.900          28.500
 110234396.602 6  85737826.861 5                  20614389.789    20614388.566
  20614391.816                          37.600          31.000
 108501643.880 6  84390196.385 7                  20261908.813    20261907.902
  20261911.152                          41.400          43.900
 126554378.537 5  98431190.710 5                  23716237.867    23716235.586
  23716241.449                          34.400          32.500
 123664700.915 6  96362100.54043  92347020.495 7  23532596.984
  23532605.375    23532606.551          37.500          22.600          45.300
 120497894.500 6  93720599.173 6                  22573315.320    22573313.320
  22573319.328                          39.200          38.500
 113147067.052 7  88166563.39945                  21531164.234
  21531170.301                          43.400          32.600
 127243129.027 5  99150427.39543                  24213538.289
  24213544.840                          35.400          18.600
 105654963.896 6  82176125.549 6                  19764938.016    19764936.473
  19764943.172                          41.800          39.900
 126561814.314 6  98619531.00143                  24083887.625
  24083894.742                          37.700          20.600
 108467322.950 7  84520032.71346                  20640637.742
  20640640.785                          44.900          40.300
 102399727.187 7  79644331.698 6                  19142542.313    19142540.691
  19142548.379                          45.800          39.800
 107743175.260 8  83955810.24246                  20502838.992
  20502844.441                          48.200          40.400
 121142206.362 6                  90463349.476 7  23052595.016
                  23052598.309          41.000                          44.100
 122900947.803 7                  91776728.319 8  23387261.594
                  23387265.934          45.600                          50.300
 113636504.143 7                  84858438.837 7  21624305.953
                  21624307.176          42.800                          46.300
 136756990.497 6                 102123749.635 7  26023989.906
                  26023995.617          38.500                          42.400
 139194140.484 5                 103943708.673 6  26487758.586
                  26487763.566          33.600                          36.400
 109628950.055 7                  81865790.691 8  20861696.180
                  20861701.016          46.000                          49.600
 121465718.922 7                  90704970.030 7  23114150.461
                  23114155.527          43.600                          46.700
 19  7  9 10 15 12.0000000  0 21G06G29R24R08R02G30R22G13G07R01G15G02
                                R23G05E12E04E11E36E19E14E09
 119164640.295 6  92855670.19044  88986680.812 7  22676287.688
  22676297.270    22676297.875          38.600          28.700          46.900
 118589068.011 7  92407224.60344                  22566780.477
  22566786.688                          42.000          27.800
 110231541.576 6  85735606.268 5                  20613855.320    20613854.758
  20613858.098                          37.900          31.200
 108503865.495 6  84391924.287 7                  20262323.594    20262322.613
  20262325.957                          41.300          43.800
 126551187.822 5  98428709.030 5                  23715638.422    23715637.781
  23715643.234                          35.000          32.600
 123663135.791 6  96360880.98243  92345851.729 7  23532299.734
  23532308.297    23532308.777          37.500          22.500          45.000
 120502031.632 6  93723816.969 6                  22574090.234    22574088.094
  22574094.563                          39.300          38.700
 113144258.380 7  88164374.82545                  21530629.891
  21530636.117                          43.800          32.700
 127243074.269 5  99150384.71843                  24213528.156
  24213534.086                          35.900          19.300
 105654315.548 7  82175621.267 6                  19764816.469    19764815.113
  19764821.609                          42.300          39.700
 126558086.272 6  98616626.02643                  24083177.945
  24083185.098                          37.800          20.100
 108467475.595 7  84520151.65246                  20640666.398
  20640669.672                          44.700          40.100
 102400542.630 7  79644965.946 6                  19142693.914    19142693.301
  19142700.754                          46.000          39.800
 107742932.308 8  83955620.92846                  20502792.617
  20502798.348                          48.500          40.300
 121144428.004 6                  90465008.499 7  23053018.063
                  23053021.211          40.800                          44.500
 122901387.446 7                  91777056.628 8  23387345.383
                  23387349.672          45.700                          50.300
 113636156.845 7                  84858179.498 7  21624239.797
                  21624241.227          43.000                          46.000
 136754472.671 6                 102121869.445 7  26023510.438
                  26023516.563          38.200                          42.500
 139196617.493 5                 103945558.371 6  26488230.281
                  26488234.996          33.800                          36.500
 109633483.195 7                  81869175.828 8  20862558.844
                  20862563.715          46.300                          49.800
 121463796.021 7                  90703534.091 7  23113784.453
                  23113789.625          43.800                          46.300
 19  7  9 10 15 13.0000000  0 21G06G29R24R08R02G30R22G13G07R01G15G02
                                R23G05E12E04E11E36E19E14E09
 119167302.195 6  92857744.39944  88988668.581 7  22676794.133
  22676803.895    22676804.504          38.400          28.700          47.000
 118587357.049 7  92405891.39344                  22566454.773
  22566461.145                          42.600          29.300
 110228687.121 6  85733386.117 5                  20613321.313    20613321.195
  20613323.879                          37.500          30.800
 108506087.381 6  84393652.423 7                  20262739.078    20262737.512
  20262741.105                          41.600          43.600
 126547997.307 5  98426227.554 5                  23715040.344    23715039.633
  23715045.566                          34.600          32.700
 123661571.028 6  96359661.66243  92344683.263 7  23532001.391
  23532010.660    23532010.965          37.500          22.800          45.100
 120506169.114 6  93727035.000 6                  22574865.172    22574863.313
  22574869.785                          39.400          38.200
 113141450.144 7  88162186.59145                  21530095.406
  21530101.410                          43.800          32.400
 127243020.032 5  99150342.46343                  24213516.977
  24213524.207                          35.700          19.300
 105653667.718 7  82175117.434 6                  19764695.148    19764694.121
  19764700.707                          42.400          39.700
 126554358.383 6  98613721.17843                  24082468.766
  24082475.508                          37.200          20.400
 108467628.705 7  84520270.95946                  20640695.938
  20640699.098                          45.100          40.100
 102401358.954 7  79645600.859 6                  19142847.125    19142845.621
  19142853.301                          46.000          39.900
 107742689.666 8  83955431.85746                  20502746.516
  20502752.270                          48.600          39.900
 121146649.938 6                  90466667.736 7  23053440.609
                  23053444.008          40.800                          44.300
 122901827.422 7                  91777385.167 8  23387429.047
                  23387433.340          45.800                          50.500
 113635809.954 7                  84857920.470 7  21624173.898
                  21624175.172          42.800                          46.200
 136751954.995 6                 102119989.373 6  26023031.430
                  26023037.414          38.100                          41.900
 139199094.535 5                 103947408.137 6  26488701.609
                  26488706.395          34.500                          36.500
 109638017.098 7                  81872561.528 8  20863421.555
                  20863426.340          46.600                          49.700
 121461873.364 7                  90702098.348 7  23113418.266
                  23113423.793          43.800                          46.400
 19  7  9 10 15 14.0000000  0 21G06G29R24R08R02G30R22G13G07R01G15G02
                                R23G05E12E04E11E36E19E14E09
 119169964.418 6  92859818.84844  88990656.583 7  22677300.086
  22677310.430    22677311.023          38.200          28.300          46.500
 118585646.690 7  92404558.63144                  22566129.586
  22566135.770                          42.300          28.100
 110225833.289 6  85731166.47915                  20612787.828    20612787.195
  20612790.637                          37.400          30.500
 108508309.562 6  84395380.782 7                  20263152.844    20263152.168
  20263156.008                          41.400          43.900
 126544807.115 5  98423746.304 5                  23714445.352    23714442.039
  23714447.633                          34.600          32.700
 123660006.774 6  96358442.77043  92343515.133 7  23531704.258
  23531712.285    23531713.270          37.300          22.300          45.400
 120510306.921 6  93730253.263 6                  22575640.422    22575638.023
  22575644.680                          39.100          38.100
 113138642.374 7  88159998.71145                  21529561.117
  21529567.332                          43.800          33.300
 127242966.331 6  99150300.61743                  24213506.563
  24213513.402                          36.400          19.300
 105653020.438 7  82174613.993 6                  19764574.445    19764572.879
  19764579.512                          42.400          39.900
 126550630.642 6  98610816.46943                  24081759.656
  24081765.984                          36.900          20.600
 108467782.253 7  84520390.60846                  20640724.938
  20640727.969                          45.200          40.400
 102402176.147 7  79646236.452 6                  19142999.867    19142998.832
  19143006.094                          45.400          39.600
 107742447.297 8  83955243.00046                  20502700.070
  20502705.855                          48.500          39.900
 121148872.191 6                  90468327.205 7  23053863.633
                  23053866.824          41.000                          44.300
 122902267.689 7                  91777713.949 8  23387512.734
                  23387517.066          45.800                          50.800
 113635463.472 7                  84857661.723 7  21624107.883
                  21624109.215          42.800                          46.000
 136749437.473 6                 102118109.403 7  26022552.398
                  26022558.355          37.800                          42.000
 139201571.648 5                 103949257.898 6  26489173.258
                  26489177.488          33.300                          36.400
 109642551.769 7                  81875947.808 8  20864284.594
                  20864289.289          46.000                          49.600
 121459951.004 7                  90700662.813 7  23113052.742
                  23113057.988          43.900                          46.600
 19  7  9 10 15 15.0000000  0 21G06G29R24R08R02G30R22G13G07R01G15G02
                                R23G05E12E04E11E36E19E14E09
 119172626.912 6  92861893.53044  88992644.817 7  22677807.031
  22677816.793    22677817.785          38.300          27.800          46.800
 118583936.925 6  92403226.35344                  22565804.375
  22565810.230                          41.600          28.000
 110222980.023 6  85728947.340 5                  20612255.938    20612253.473
  20612257.035                          38.100          30.800
 108510532.013 6  84397109.370 7                  20263567.938    20263567.285
  20263571.238                          41.400          43.600
 126541617.135 5  98421265.202 5                  23713846.688    23713844.570
  23713850.164                          34.500          32.800
 123658442.863 6  96357224.13843  92342347.264 7  23531406.828
  23531414.883    23531415.777          37.700          22.000          45.800
 120514444.977 6  93733471.759 6                  22576414.969    22576413.063
  22576420.137                          39.000          38.400
 113135835.024 7  88157811.16845                  21529027.117
  21529032.609                          43.700          33.500
 127242913.186 5  99150259.18543                  24213496.813
  24213503.438                          35.900          19.000
 105652373.655 7  82174110.938 6                  19764453.273    19764451.566
  19764458.645                          42.500          39.900
 126546903.062 6  98607911.86643                  24081049.492
  24081056.781                          37.100          20.400
 108467936.248 7  84520510.60046                  20640754.328
  20640757.332                          45.100          40.300
 102402994.189 7  79646872.703 6                  19143152.844    19143151.832
  19143159.051                          45.200          39.700
 107742205.198 8  83955054.35046                  20502654.570
  20502660.055                          48.100          39.800
 121151094.692 6                  90469986.873 7  23054286.617
                  23054289.840          41.400                          44.200
 122902708.260 7                  91778042.954 8  23387596.656
                  23387600.961          45.700                          50.800
 113635117.346 7                  84857403.267 7  21624041.922
                  21624043.320          42.700                          45.800
 136746920.058 6                 102116229.521 6  26022073.250
                  26022079.297          37.700                          41.900
 139204048.817 5                 103951107.713 5  26489644.656
                  26489649.004          33.300                          35.700
 109647087.167 7                  81879334.632 8  20865147.563
                  20865152.289          46.000                          49.500
 121458028.890 7                  90699227.470 7  23112686.813
                  23112692.230          43.800                          46.400
 19  7  9 10 15 16.0000000  0 21G06G29R24R08R02G30R22G13G07R01G15G02
                                R23G05E12E04E11E36E19E14E09
 119175289.639 6  92863968.37444  88994633.224 7  22678313.563
  22678323.891    22678324.566          38.600          28.800          47.000
 118582227.688 6  92401894.47644                  22565478.555
  22565484.926                          41.400          28.900
 110220127.319 6  85726728.550 5                  20611721.578    20611720.004
  20611723.898                          37.900          31.000
 108512754.695 6  84398838.120 7                  20263983.508    20263982.926
  20263986.203                          41.700          43.800
 126538427.285 5  98418784.185 5                  23713247.906    23713246.469
  23713251.883                          34.300          32.400
 123656879.343 6  96356005.79243  92341179.689 7  23531109.453
  23531117.527    23531118.293          37.900          22.300          46.300
 120518583.240 6  93736690.404 6                  22577190.375    22577188.938
  22577195.074                          39.400          38.600
 113133028.033 7  88155623.90645                  21528492.945
  21528498.477                          44.000          33.200
 127242860.465 5  99150218.10243                  24213486.242
  24213493.090                          35.900          18.600
 105651727.331 7  82173608.235 6                  19764332.602    19764330.871
  19764337.566                          42.400          39.900
 126543175.580 6  98605007.31643                  24080339.961
  24080347.742                          36.700          20.100
 108468090.626 7  84520630.89546                  20640783.836
  20640786.680                          45.100          40.200
 102403813.052 7  79647509.609 6                  19143306.227    19143305.004
  19143311.926                          45.600          39.600
 107741963.309 8  83954865.86546                  20502608.359
  20502613.934                          48.300          39.900
 121153317.447 6                  90471646.712 7  23054709.672
                  23054712.832          41.400                          44.000
 122903149.076 7                  91778372.126 8  23387680.430
                  23387684.824          45.600                          51.000
 113634771.574 7                  84857145.043 7  21623976.219
                  21623977.539          42.700                          45.800
 136744402.761 6                 102114349.716 7  26021594.219
                  26021600.129          38.000                          42.000
 139206525.916 5                 103952957.520 6  26490116.133
                  26490120.617          33.000                          36.200
 109651623.263 7                  81882721.979 8  20866010.711
                  20866015.512          46.200                          49.600
 121456106.954 7                  90697792.268 7  23112320.977
                  23112326.453          43.700                          46.600
 19  7  9 10 15 17.0000000  0 21G06G29R24R08R02G30R22G13G07R01G15G02
                                R23G05E12E04E11E36E19E14E09
 119177952.771 6  92866043.54544  88996621.927 7  22678820.359
  22678830.965    22678831.246          38.100          28.100          46.900
 118580519.096 6  92400563.10044                  22565153.625
  22565159.980                          41.800          28.500
 110217275.292 6  85724510.303 5                  20611187.758    20611187.102
  20611190.570                          37.900          30.500
 108514977.781 6  84400567.170 7                  20264398.523    20264397.660
  20264401.375                          41.900          44.000
 126535237.760 5  98416303.465 5                  23712649.750    23712648.781
  23712654.328                          34.000          32.800
 123655316.226 6  96354787.79244  92340012.460 7  23530811.461
  23530820.207    23530820.586          37.900          24.600          45.900
 120522721.883 6  93739909.371 6                  22577966.258    22577964.211
  22577970.441                          39.000          38.700
 113130221.592 7  88153437.07445                  21527959.117
  21527964.406                          44.100          33.200
 127242808.309 5  99150177.48443                  24213477.039
  24213483.273                          35.400          18.600
 105651081.608 7  82173106.001 6                  19764210.672    19764209.832
  19764216.938                          42.200          39.500
 126539448.353 6  98602102.98943                  24079631.477
  24079638.434                          36.800          20.100
 108468245.532 7  84520751.60146                  20640813.094
  20640816.324                          44.600          40.400
 102404632.855 7  79648147.231 6                  19143458.930    19143457.848
  19143465.355                          45.800          39.500
 107741721.784 7  83954677.66246                  20502562.648
  20502567.688                          47.500          39.900
 121155540.537 6                  90473306.825 7  23055132.813
                  23055135.875          41.300                          43.900
 122903590.289 7                  91778701.615 8  23387764.445
                  23387768.777          45.400                          50.700
 113634426.268 7                  84856887.204 7  21623910.570
                  21623911.887          42.700                          45.700
 136741885.629 6                 102112470.044 6  26021115.328
                  26021121.383          38.100                          41.900
 139209003.19015                 103954807.422 6  26490586.836
                  26490591.941          32.900                          36.200
 109656160.220 7                  81886109.963 8  20866874.008
                  20866878.914          46.100                          49.500
 121454185.380 7                  90696357.304 7  23111955.297
                  23111960.871          43.400                          46.800
 19  7  9 10 15 18.0000000  0 21G06G29R24R08R02G30R22G13G07R01G15G02
                                R23G05E12E04E11E36E19E14E09
 119180616.205 6  92868118.94844  88998610.855 7  22679327.445
  22679337.117    22679337.992          38.000          27.700          46.700
 118578811.134 6  92399232.23044                  22564828.383
  22564834.992                          41.800          27.900
 110214423.875 6  85722292.502 5                  20610654.563    20610654.000
  20610657.195                          38.000          30.600
 108517201.164 7  84402296.478 7                  20264813.469    20264813.168
  20264816.711                          42.000          44.000
 126532048.501 5  98413822.923 5                  23712052.117    23712050.820
  23712056.516                          34.300          32.600
 123653753.584 6  96353570.15243  92338845.526 7  23530514.164
  23530522.852    23530523.359          37.100          22.600          45.900
 120526860.857 6  93743128.511 6                  22578740.289    22578739.371
  22578745.977                          38.900          37.900
 113127415.578 7  88151250.55845                  21527425.211
  21527430.957                          43.900          33.100
 127242756.713 5  99150137.28243                  24213467.352
  24213473.770                          35.300          19.600
 105650436.405 7  82172604.175 6                  19764089.984    19764089.262
  19764096.238                          42.300          39.700
 126535721.290 6  98599198.77243                  24078922.633
  24078929.164                          36.800          20.100
 108468400.900 7  84520872.66946                  20640842.625
  20640845.934                          44.600          40.100
 102405453.536 7  79648785.539 6                  19143612.883    19143611.426
  19143618.648                          45.800          40.000
 107741480.566 7  83954489.70346                  20502516.094
  20502522.094                          47.000          40.400
 121157763.916 6                  90474967.145 7  23055555.484
                  23055559.016          40.900                          43.800
 122904031.837 7                  91779031.325 8  23387848.539
                  23387852.867          45.700                          51.100
 113634081.411 7                  84856629.655 7  21623844.859
                  21623846.227          42.700                          45.700
 136739368.697 6                 102110590.489 7  26020636.313
                  26020642.305          37.800                          42.100
 139211480.472 5                 103956657.360 6  26491058.422
                  26491063.297          33.300                          36.300
 109660697.932 7                  81889498.514 8  20867737.656
                  20867742.426          46.200                          49.400
 121452264.065 7                  90694922.555 7  23111589.742
                  23111595.273          43.600                          46.800
 19  7  9 10 15 19.0000000  0 21G06G29R24R08R02G30R22G13G07R01G15G02
                                R23G05E12E04E11E36E19E14E09
 119183279.899 6  92870194.54344  89000599.997 7  22679834.180
  22679844.313    22679844.941          38.100          27.900          46.900
 118577103.749 7  92397901.79944                  22564503.516
  22564510.012                          42.000          27.600
 110211572.994 6  85720075.178 5                  20610121.453    20610121.055
  20610124.273                          38.100          31.000
 108519424.829 6  84404026.009 7                  20265228.664    20265228.340
  20265232.301                          41.700          44.100
 126528859.456 5  98411342.556 5                  23711454.180    23711453.281
  23711458.656                          34.600          32.300
 123652191.336 6  96352352.80643  92337678.900 7  23530216.602
  23530225.293    23530226.008          37.300          22.300          45.800
 120531000.046 6  93746347.934 6                  22579516.398    22579514.984
  22579521.570                          39.100          38.100
 113124609.970 7  88149064.37445                  21526891.250
  21526897.199                          44.100          33.400
 127242705.613 5  99150097.44443                  24213457.992
  24213463.672                          35.700          20.100
 105649791.658 7  82172102.725 6                  19763970.133    19763968.684
  19763975.281                          42.200          39.600
 126531994.383 6  98596294.69243                  24078212.977
  24078219.957                          36.900          20.100
 108468556.684 7  84520994.05946                  20640872.047
  20640875.336                          44.300          40.300
 102406275.078 7  79649424.522 6                  19143765.570    19143764.816
  19143772.113                          46.000          40.300
 107741239.606 7  83954301.93746                  20502470.094
  20502476.207                          47.200          40.200
 121159987.588 6                  90476627.672 7  23055978.461
                  23055982.293          40.900                          43.900
 122904473.633 7                  91779361.248 8  23387932.531
                  23387936.879          45.900                          51.000
 113633736.881 7                  84856372.383 7  21623779.242
                  21623780.637          42.600                          45.700
 136736851.840 6                 102108711.029 6  26020157.094
                  26020163.398          37.800                          41.800
 139213957.809 5                 103958507.333 6  26491530.055
                  26491534.789          33.200                          36.500
 109665236.387 7                  81892887.609 8  20868601.203
                  20868605.938          46.200                          49.400
 121450342.957 7                  90693487.993 7  23111224.063
                  23111229.625          43.600                          46.300
 19  7  9 10 15 20.0000000  0 21G06G29R24R08R02G30R22G13G07R01G15G02
                                R23G05E12E04E11E36E19E14E09
 119185943.993 6  92872270.46644  89002589.391 7  22680341.695
  22680351.543    22680351.832          38.400          27.100          47.400
 118575396.992 7  92396571.86944                  22564179.016
  22564185.227                          42.100          28.300
 110208722.765 6  85717858.31715                  20609588.781    20609587.418
  20609590.750                          38.200          30.900
 108521648.811 6  84405755.759 7                  20265643.172    20265643.574
  20265647.266                          41.800          43.900
 126525670.689 5  98408862.381 5                  23710857.273    23710855.742
  23710861.371                          34.600          32.700
 123650629.459 6  96351135.76043  92336512.605 7  23529920.023
  23529928.602    23529928.805          37.300          22.300          45.800
 120535139.610 6  93749567.610 6                  22580292.000    22580290.398
  22580296.813                          39.200          38.300
 113121804.831 7  88146878.55145                  21526356.984
  21526363.367                          43.900          33.000
 127242655.058 5  99150058.07843                  24213448.328
  24213454.141                          35.900          20.100
 105649147.497 6  82171601.706 6                  19763848.813    19763848.137
  19763854.711                          41.800          39.800
 126528267.636 6  98593390.71843                  24077503.875
  24077510.785                          37.000          20.100
 108468712.964 7  84521115.83746                  20640901.984
  20640905.387                          44.100          40.300
 102407097.523 7  79650064.193 6                  19143920.164    19143918.684
  19143925.926                          46.000          40.000
 107740998.950 7  83954114.42046                  20502424.477
  20502430.102                          47.200          40.300
 121162211.564 6                  90478288.410 7  23056401.969
                  23056405.484          41.100                          44.000
 122904915.805 7                  91779691.431 8  23388016.695
                  23388021.043          45.900                          51.200
 113633392.766 7                  84856115.416 7  21623713.727
                  21623715.211          42.900                          45.800
 136734335.156 6                 102106831.709 7  26019678.508
                  26019684.512          37.700                          42.100
 139216435.284 5                 103960357.362 6  26492001.242
                  26492005.883          33.200                          37.100
 109669775.599 7                  81896277.285 8  20869465.031
                  20869469.730          46.800                          49.400
 121448422.174 7                  90692053.630 7  23110858.625
                  23110864.121          43.400                          46.600
 19  7  9 10 15 21.0000000  0 21G06G29R24R08R02G30R22G13G07R01G15G02
                                R23G05E12E04E11E36E19E14E09
 119188608.360 6  92874346.59244  89004579.008 7  22680848.250
  22680858.121    22680858.914          38.900          27.900          46.900
 118573690.802 7  92395242.37244                  22563854.367
  22563860.484                          42.300          28.900
 110205873.080 6  85715641.876 5                  20609056.008    20609054.621
  20609058.156                          38.100          31.000
 108523873.054 7  84407485.731 7                  20266060.078    20266058.652
  20266062.590                          42.100          43.700
 126522482.154 5  98406382.436 5                  23710259.344    23710257.883
  23710263.887                          34.000          33.000
 123649068.041 6  96349919.08743  92335346.589 7  23529622.898
  23529631.219    23529631.359          37.300          22.200          45.900
 120539279.495 6  93752787.478 6                  22581068.672    22581066.133
  22581072.398                          38.800          38.300
 113119000.119 7  88144693.06145                  21525823.492
  21525829.523                          44.100          32.300
 127242604.999 6  99150019.07543                  24213438.164
  24213444.496                          36.200          19.600
 105648503.861 7  82171101.080 6                  19763728.383    19763727.848
  19763734.703                          42.000          39.600
 126524541.044 6  98590486.90143                  24076794.008
  24076801.664                          36.800          20.100
 108468869.675 7  84521237.94346                  20640932.250
  20640934.891                          44.600          40.300
 102407920.841 7  79650704.554 6                  19144073.367    19144072.449
  19144080.148                          45.900          40.000
 107740758.567 7  83953927.10446                  20502378.711
  20502384.457                          47.300          40.700
 121164435.813 6                  90479949.400 7  23056825.203
                  23056828.516          40.800                          43.900
 122905358.250 7                  91780021.842 8  23388100.984
                  23388105.246          45.900                          50.900
 113633049.057 7                  84855858.740 7  21623648.359
                  21623649.738          43.100                          45.700
 136731818.598 6                 102104952.461 6  26019199.375
                  26019205.824          37.900                          41.800
 139218912.731 5                 103962207.391 6  26492472.922
                  26492477.363          33.500                          36.400
 109674315.577 7                  81899667.527 8  20870328.813
                  20870333.699          47.100                          49.300
 121446501.637 7                  90690619.450 7  23110493.148
                  23110498.664          43.300                          46.400
 19  7  9 10 15 22.0000000  0 21G06G29R24R08R02G30R22G13G07R01G15G02
                                R23G05E12E04E11E36E19E14E09
 119191273.001 6  92876422.93344  89006568.846 7  22681355.250
  22681365.125    22681365.898          38.700          27.600          46.700
 118571985.180 6  92393913.30844                  22563529.742
  22563535.984                          41.700          29.600
 110203024.017 6  85713425.968 5                  20608523.133    20608522.027
  20608525.273                          38.000          31.400
 108526097.607 6  84409215.945 7                  20266475.203    20266474.199
  20266477.953                          41.700          43.900
 126519293.911 5  98403902.708 5                  23709660.961    23709660.723
  23709666.242                          33.800          33.200
 123647507.006 6  96348702.69543  92334180.875 7  23529325.211
  23529334.129    23529334.480          36.900          22.600          45.800
 120543419.588 6  93756007.606 6                  22581842.633    22581841.668
  22581848.004                          39.000          38.300
 113116195.855 7  88142507.92445                  21525289.688
  21525296.094                          44.100          32.300
 127242555.457 6  99149980.44343                  24213429.445
  24213435.320                          36.500          19.600
 105647860.710 7  82170600.873 6                  19763608.633    19763607.652
  19763614.652                          42.100          39.500
 126520814.584 6  98587583.18643                  24076084.781
  24076092.602                          36.500          19.900
 108469026.830 7  84521360.40646                  20640961.734
  20640964.910                          44.300          40.500
 102408745.003 7  79651345.563 6                  19144227.820    19144226.504
  19144233.988                          45.600          40.200
 107740518.442 7  83953739.99546                  20502333.148
  20502338.840                          47.200          40.500
 121166660.339 6                  90481610.570 7  23057248.570
                  23057251.895          40.900                          44.100
 122905801.013 7                  91780352.469 8  23388185.367
                  23388189.457          45.600                          50.800
 113632705.712 7                  84855602.353 7  21623582.805
                  21623584.457          43.000                          45.700
 136729302.182 6                 102103073.311 6  26018720.555
                  26018727.027          37.600                          41.800
 139221390.214 5                 103964057.493 6  26492944.141
                  26492949.055          33.500                          36.800
 109678856.290 7                  81903058.314 8  20871193.078
                  20871197.809          46.300                          49.300
 121444581.316 7                  90689185.468 7  23110127.391
                  23110133.230          43.200                          46.600
 19  7  9 10 15 23.0000000  0 21G06G29R24R08R02G30R22G13G07R01G15G02
                                R23G05E12E04E11E36E19E14E09
 119193937.977 6  92878499.53844  89008558.917 7  22681862.641
  22681872.066    22681873.035          38.900          27.900          46.900
 118570280.209 6  92392584.76444                  22563204.742
  22563211.531                          41.300          29.100
 110200175.571 6  85711210.418 5                  20607991.188    20607989.449
  20607992.383                          37.600          30.600
 108528322.520 6  84410946.415 7                  20266890.883    20266889.527
  20266893.484                          41.500          43.400
 126516105.979 5  98401423.154 5                  23709063.875    23709062.977
  23709069.059                          33.600          33.000
 123645946.409 6  96347486.63543  92333015.488 7  23529028.172
  23529037.609    23529037.473          37.200          22.500          46.000
 120547560.050 6  93759227.927 6                  22582618.063    22582617.355
  22582623.727                          38.800          37.600
 113113392.041 7  88140323.13245                  21524756.117
  21524762.621                          43.900          33.000
 127242506.493 6  99149942.29843                  24213419.758
  24213425.688                          36.200          19.300
 105647218.112 7  82170101.080 6                  19763487.430    19763487.316
  19763493.977                          42.000          39.900
 126517088.371 6  98584679.63543                  24075375.891
  24075383.852                          36.600          20.100
 108469184.452 7  84521483.22746                  20640991.586
  20640995.270                          44.300          40.400
 102409570.070 7  79651987.290 6                  19144381.477    19144380.793
  19144388.527                          45.500          40.000
 107740278.613 7  83953553.11746                  20502287.844
  20502293.527                          47.600          40.500
 121168885.172 6                  90483271.975 7  23057672.094
                  23057675.383          41.100                          44.200
 122906244.089 7                  91780683.347 8  23388269.484
                  23388273.844          45.600                          50.900
 113632362.795 7                  84855346.286 7  21623517.742
                  21623519.230          43.000                          45.700
 136726785.920 6                 102101194.283 7  26018241.555
                  26018248.078          37.600                          42.300
 139223867.804 5                 103965907.596 6  26493415.320
                  26493420.535          33.800                          36.200
 109683397.781 7                  81906449.695 8  20872057.023
                  20872061.980          46.200                          49.700
 121442661.316 7                  90687751.689 7  23109762.070
                  23109767.953          43.200                          46.700
 19  7  9 10 15 24.0000000  0 21G06G29R24R08R02G30R22G13G07R01G15G02
                                R23G05E12E04E11E36E19E14E09
 119196603.228 6  92880576.36244  89010549.220 7  22682370.289
  22682379.133    22682380.195          39.200          27.600          47.200
 118568575.832 6  92391256.67844                  22562880.578
  22562887.477                          41.300          27.800
 110197327.743 6  85708995.485 5                  20607457.945    20607457.098
  20607460.102                          37.600          31.300
 108530547.681 6  84412677.116 7                  20267306.031    20267305.402
  20267309.250                          41.400          43.800
 126512918.210 5  98398943.845 5                  23708466.344    23708465.563
  23708471.723                          33.600          33.200
 123644386.150 6  96346270.85043  92331850.393 7  23528731.625
  23528740.535    23528740.504          37.500          22.900          45.600
 120551700.774 6  93762448.504 6                  22583394.352    22583393.055
  22583399.547                          38.700          38.200
 113110588.643 7  88138138.66345                  21524222.641
  21524228.980                          44.400          32.400
 127242457.958 6  99149904.48843                  24213409.766
  24213416.336                          36.100          19.600
 105646576.015 6  82169601.672 6                  19763367.852    19763367.223
  19763373.750                          41.400          40.100
 126513362.225 6  98581776.14043                  24074667.078
  24074674.770                          36.800          19.600
 108469342.513 7  84521606.38946                  20641021.789
  20641024.973                          44.700          40.400
 102410395.971 7  79652629.656 6                  19144535.906    19144535.340
  19144542.742                          45.400          40.500
 107740039.082 7  83953366.47046                  20502241.953
  20502247.617                          47.800          40.300
 121171110.290 6                  90484933.582 7  23058095.250
                  23058098.641          41.200                          44.000
 122906687.482 7                  91781014.447 8  23388353.828
                  23388358.172          46.000                          50.700
 113632020.266 7                  84855090.501 7  21623452.703
                  21623453.965          43.400                          45.800
 136724269.773 6                 102099315.356 6  26017762.977
                  26017769.000          37.900                          41.900
 139226345.398 5                 103967757.762 6  26493887.328
                  26493892.027          33.500                          36.200
 109687940.019 7                  81909841.627 8  20872921.586
                  20872926.328          46.000                          49.600
 121440741.533 7                  90686318.093 7  23109396.844
                  23109402.676          43.600                          46.700
 19  7  9 10 15 25.0000000  0 21G06G29R24R08R02G30R22G13G07R01G15G02
                                R23G05E12E04E11E36E19E14E09
 119199268.848 6  92882653.47944  89012539.768 7  22682876.813
  22682886.539    22682887.426          39.000          27.800          47.300
 118566872.032 6  92389929.03944                  22562556.422
  22562563.133                          41.600          26.900
 110194480.470 6  85706780.969 5                  20606924.242    20606924.313
  20606927.469                          37.500          31.000
 108532773.166 6  84414408.017 7                  20267721.438    20267720.621
  20267724.781                          41.400          43.800
 126509730.751 5  98396464.631 5                  23707867.570    23707868.621
  23707874.551                          33.700          33.100
 123642826.373 6  96345055.43843  92330685.618 7  23528435.289
  23528443.742    23528443.707          37.600          22.500          45.700
 120555841.801 6  93765669.317 6                  22584169.977    22584168.895
  22584175.145                          38.700          38.400
 113107785.705 7  88135954.56345                  21523689.602
  21523695.426                          44.400          32.600
 127242410.006 5  99149867.14943                  24213400.695
  24213407.309                          35.900          19.300
 105645934.480 6  82169102.669 6                  19763247.008    19763247.340
  19763254.176                          41.600          40.300
 126509636.310 6  98578872.82943                  24073958.125
  24073965.582                          36.700          19.900
 108469501.048 7  84521729.92246                  20641052.133
  20641055.270                          44.300          40.100
 102411222.778 7  79653272.706 6                  19144691.141    19144689.848
  19144697.297                          45.500          40.600
 107739799.837 7  83953180.04346                  20502196.664
  20502202.129                          47.900          40.100
 121173335.702 6                  90486595.419 7  23058518.273
                  23058522.164          40.900                          44.300
 122907131.201 7                  91781345.788 8  23388438.305
                  23388442.539          45.300                          50.700
 113631678.166 7                  84854835.019 7  21623387.563
                  21623388.930          43.400                          45.700
 136721753.831 6                 102097436.547 6  26017284.352
                  26017290.383          37.800                          41.800
 139228823.086 5                 103969607.979 6  26494358.133
                  26494363.340          33.300                          36.200
 109692483.042 7                  81913234.144 8  20873786.125
                  20873790.859          45.900                          49.700
 121438822.059 7                  90684884.715 7  23109031.656
                  23109037.477          43.300                          47.000
 19  7  9 10 15 26.0000000  0 21G06G29R24R08R02G30R22G13G07R01G15G02
                                R23G05E12E04E11E36E19E14E09
 119201934.757 6  92884730.79644  89014530.556 7  22683384.523
  22683393.898    22683394.680          38.900          27.100          47.200
 118565168.859 6  92388601.90144                  22562232.438
  22562239.504                          41.800          27.500
 110191633.873 6  85704566.937 5                  20606392.336    20606391.867
  20606395.340                          37.600          31.500
 108534998.911 6  84416139.174 7                  20268136.664    20268136.434
  20268140.180                          41.500          43.900
 126506543.465 5  98393985.679 5                  23707271.352    23707271.020
  23707277.344                          34.100          33.300
 123641266.974 6  96343840.33243  92329521.157 7  23528137.656
  23528146.867    23528146.914          36.900          23.500          45.800
 120559983.150 6  93768890.348 6                  22584945.352    22584944.832
  22584950.941                          38.700          38.200
 113104983.227 7  88133770.81545                  21523156.367
  21523161.801                          44.100          33.300
 127242362.636 6  99149830.23443                  24213391.828
  24213398.355                          36.900          19.900
 105645293.415 7  82168604.099 6                  19763127.453    19763127.176
  19763133.941                          42.000          40.200
 126505910.571 6  98575969.66543                  24073249.031
  24073256.277                          37.000          19.600
 108469660.051 7  84521853.82146                  20641082.727
  20641085.539                          44.500          40.200
 102412050.471 7  79653916.476 6                  19144845.891    19144844.668
  19144851.723                          45.800          40.200
 107739560.890 8  83952993.85846                  20502151.016
  20502156.582                          48.000          40.400
 121175561.451 6                  90488257.492 7  23058942.359
                  23058945.707          40.500                          44.400
 122907575.233 7                  91781677.385 8  23388522.813
                  23388527.023          45.500                          50.400
 113631336.453 7                  84854579.846 7  21623322.773
                  21623323.793          42.900                          45.900
 136719237.998 6                 102095557.857 7  26016806.063
                  26016811.613          38.000                          42.000
 139231300.832 5                 103971458.242 6  26494829.930
                  26494834.898          33.200                          36.300
 109697026.824 7                  81916627.231 8  20874650.750
                  20874655.551          45.900                          50.000
 121436902.863 7                  90683451.561 7  23108666.531
                  23108672.219          43.500                          46.700
 19  7  9 10 15 27.0000000  0 21G06G29R24R08R02G30R22G13G07R01G15G02
                                R23G05E12E04E11E36E19E14E09
 119204600.934 6  92886808.33544  89016521.527 7  22683891.984
  22683901.039    22683901.984          38.500          26.500          47.000
 118563466.215 7  92387275.16944                  22561908.625
  22561915.141                          42.100          27.700
 110188787.745 6  85702353.274 5                  20605861.031    20605859.574
  20605863.250                          37.600          31.300
 108537224.878 6  84417870.467 7                  20268553.547    20268552.215
  20268555.977                          41.400          43.700
 126503356.346 5  98391506.798 5                  23706675.281    23706673.820
  23706679.855                          33.800          33.300
 123639707.995 6  96342625.54843  92328356.964 7  23527840.875
  23527850.098    23527850.277          37.600          22.800          45.800
 120564124.686 6  93772111.529 6                  22585721.320    22585720.590
  22585726.766                          38.600          38.400
 113102181.128 7  88131587.35645                  21522622.945
  21522628.859                          44.000          32.900
 127242315.648 6  99149793.59543                  24213383.305
  24213389.145                          37.100          19.300
 105644652.837 6  82168105.838 6                  19763008.648    19763007.410
  19763014.148                          41.800          40.200
 126502184.939 6  98573066.58543                  24072540.313
  24072547.063                          36.600          20.400
 108469819.434 7  84521978.01546                  20641112.664
  20641115.805                          44.800          40.100
 102412878.970 7  79654560.874 6                  19145000.602    19144999.285
  19145006.727                          45.800          40.300
 107739322.166 7  83952807.84046                  20502105.648
  20502111.020                          47.500          40.400
 121177787.405 6                  90489919.739 7  23059366.242
                  23059369.309          40.600                          44.500
 122908019.543 7                  91782009.165 8  23388607.500
                  23388611.684          45.700                          50.400
 113630995.066 7                  84854324.925 7  21623257.648
                  21623258.887          42.700                          45.700
 136716722.250 6                 102093679.222 7  26016327.086
                  26016332.953          38.000                          42.000
 139233778.580 5                 103973308.492 6  26495301.758
                  26495306.199          32.800                          36.400
 109701571.314 7                  81920020.838 8  20875515.484
                  20875520.258          45.800                          49.400
 121434983.844 7                  90682018.517 7  23108301.273
                  23108307.129          43.600                          46.800
 19  7  9 10 15 28.0000000  0 21G06G29R24R08R02G30R22G13G07R01G15G02
                                R23G05E12E04E11E36E19E14E09
 119207267.472 6  92888886.16144  89018512.753 7  22684398.969
  22684408.648    22684409.406          39.100          27.400          46.600
 118561764.223 6  92385948.93644                  22561584.773
  22561591.215                          41.900          27.800
 110185942.310 6  85700140.202 5                  20605328.781    20605327.676
  20605331.258                          37.400          31.900
 108539451.232 6  84419602.096 7                  20268968.547    20268968.082
  20268971.793                          41.400          43.600
 126500169.547 5  98389028.153 5                  23706078.641    23706076.406
  23706083.305                          34.000          33.300
 123638149.492 6  96341411.14643  92327193.125 7  23527544.586
  23527553.852    23527553.582          37.100          21.700          46.000
 120568266.569 6  93775333.017 6                  22586498.320    22586496.039
  22586502.785                          38.600          38.000
 113099379.501 7  88129404.27745                  21522090.016
  21522095.691                          44.300          33.400
 127242269.300 6  99149757.48443                  24213374.641
  24213380.719                          37.000          19.000
 105644012.814 6  82167608.082 6                  19762888.813    19762887.551
  19762894.379                          41.800          40.100
 126498459.531 6  98570163.63543                  24071831.203
  24071838.480                          36.900          19.900
 108469979.344 7  84522102.62146                  20641142.813
  20641146.242                          44.300          40.600
 102413708.396 7  79655205.984 6                  19145155.602    19145154.191
  19145161.770                          46.000          39.800
 107739083.769 7  83952622.06846                  20502060.422
  20502065.738                          47.600          40.200
 121180013.682 6                  90491582.229 7  23059789.734
                  23059792.953          40.500                          44.300
 122908464.199 7                  91782341.212 8  23388691.570
                  23388696.293          45.700                          50.300
 113630654.141 7                  84854070.344 7  21623192.633
                  21623193.934          42.600                          45.700
 136714206.707 6                 102091800.736 6  26015848.141
                  26015854.141          38.500                          41.800
 139236256.405 5                 103975158.824 6  26495773.430
                  26495777.891          32.200                          36.500
 109706116.607 7                  81923415.046 8  20876380.297
                  20876385.156          46.100                          49.800
 121433065.155 7                  90680585.732 7  23107936.422
                  23107942.066          43.000                          46.700
 19  7  9 10 15 29.0000000  0 21G06G29R24R08R02G30R22G13G07R01G15G02
                                R23G05E12E04E11E36E19E14E09
 119209934.270 6  92890964.19044  89020504.214 7  22684906.367
  22684915.871    22684916.898          39.000          28.500          46.600
 118560062.817 6  92384623.15444                  22561260.875
  22561267.621                          41.600          28.300
 110183097.393 6  85697927.488 5                  20604795.844    20604795.445
  20604799.344                          37.600          30.900
 108541677.887 6  84421333.921 7                  20269384.969    20269383.941
  20269387.633                          41.300          43.500
 126496982.990 5  98386549.721 5                  23705481.367    23705478.992
  23705485.441                          34.300          33.300
 123636591.307 6  96340196.96843  92326029.558 7  23527248.039
  23527256.754    23527257.293          36.800          22.300          45.600
 120572408.756 6  93778554.693 6                  22587274.094    22587272.727
  22587278.996                          38.600          38.000
 113096578.292 7  88127221.51845                  21521556.602
  21521562.879                          44.500          33.000
 127242223.412 6  99149721.72143                  24213365.430
  24213372.188                          37.100          19.600
 105643373.298 7  82167110.651 6                  19762768.367    19762767.973
  19762774.625                          42.200          40.500
 126494734.228 6  98567260.79343                  24071122.000
  24071129.492                          36.900          20.400
 108470139.646 7  84522227.53146                  20641173.695
  20641176.859                          44.000          40.200
 102414538.670 7  79655851.765 6                  19145310.109    19145309.355
  19145317.066                          46.200          40.400
 107738845.636 7  83952436.51446                  20502015.133
  20502020.145                          47.700          39.600
 121182240.241 6                  90493244.906 7  23060213.570
                  23060216.605          40.400                          44.600
 122908909.111 7                  91782673.471 8  23388776.516
                  23388780.789          45.900                          50.800
 113630313.585 7                  84853816.026 7  21623127.984
                  21623129.258          42.600                          45.900
 136711691.288 6                 102089922.321 7  26015369.445
                  26015375.492          38.100                          42.200
 139238734.273 5                 103977009.221 6  26496244.711
                  26496249.426          32.600                          36.100
 109710662.627 7                  81926809.801 8  20877245.523
                  20877250.156          45.800                          49.700
 121431146.698 7                  90679153.117 7  23107571.109
                  23107576.949          43.500                          46.600
 19  7  9 10 15 30.0000000  0 21G06G29R24R08R02G30R22G13G07R01G15G02
                                R23G05E12E04E11E36E19E14E09
 119212601.407 6  92893042.48044  89022495.899 7  22685414.211
  22685423.465    22685424.438          38.900          27.400          46.400
 118558362.020 6  92383297.86744                  22560936.984
  22560943.645                          41.700          27.400
 110180253.147 6  85695715.270 5                  20604264.188    20604263.906
  20604267.223                          37.800          30.700
 108543904.813 6  84423065.983 7                  20269800.414    20269799.809
  20269803.586                          41.700          43.400
 126493796.757 5  98384071.548 5                  23704884.625    23704882.344
  23704889.266                          34.000          33.300
 123635033.582 6  96338983.13943  92324866.316 7  23526952.203
  23526961.063    23526960.816          37.500          22.900          45.600
 120576551.214 6  93781776.631 6                  22588050.547    22588048.477
  22588055.012                          38.600          38.600
 113093777.541 7  88125039.10945                  21521023.891
  21521030.090                          44.600          32.800
 127242178.102 6  99149686.43543                  24213356.828
  24213363.469                          36.900          18.300
 105642734.315 7  82166613.675 6                  19762649.789    19762648.410
  19762655.332                          42.400          40.200
 126491009.125 6  98564358.11843                  24070413.539
  24070420.594                          36.300          20.400
 108470300.441 7  84522352.82046                  20641204.297
  20641207.422                          44.300          40.200
 102415369.837 7  79656498.222 6                  19145466.234    19145465.082
  19145472.672                          46.200          40.200
 107738607.811 7  83952251.19646                  20501969.828
  20501975.109                          47.900          39.700
 121184467.135 6                  90494907.834 7  23060637.219
                  23060640.125          40.700                          44.500
 122909354.411 7                  91783005.978 8  23388861.500
                  23388865.648          45.500                          50.900
 113629973.469 7                  84853562.041 7  21623062.977
                  21623064.563          42.600                          45.800
 136709176.017 6                 102088044.042 7  26014890.484
                  26014896.813          38.300                          42.000
 139241212.215 5                 103978859.617 6  26496716.141
                  26496721.164          33.000                          36.600
 109715209.418 7                  81930205.134 8  20878110.727
                  20878115.445          46.000                          49.300
 121429228.516 7                  90677720.711 7  23107206.469
                  23107211.836          43.800                          46.500
 19  7  9 10 15 31.0000000  0 21G06G29R24R08R02G30R22G13G07R01G15G02
                                R23G05E12E04E11E36E19E14E09
 119215268.866 6  92895121.02044  89024487.827 7  22685921.852
  22685931.047    22685932.098          38.600          27.100          46.400
 118556661.810 7  92381973.03144                  22560613.906
  22560620.578                          42.000          27.500
 110177409.440 6  85693503.463 5                  20603732.703    20603731.645
  20603735.117                          37.800          30.800
 108546132.087 6  84424798.274 7                  20270216.570    20270215.426
  20270219.465                          41.400          43.700
 126490610.742 5  98381593.569 5                  23704286.703    23704285.336
  23704292.023                          33.700          33.700
 123633476.238 6  96337769.62943  92323703.394 7  23526654.609
  23526664.504    23526664.445          36.900          23.000          45.800
 120580694.017 6  93784998.804 6                  22588826.031    22588824.289
  22588831.031                          38.100          38.500
 113090977.206 7  88122857.03345                  21520490.977
  21520497.031                          44.300          32.100
 127242133.258 6  99149651.48443                  24213348.430
  24213354.621                          37.500          19.300
 105642095.853 7  82166117.091 6                  19762529.523    19762529.012
  19762535.781                          42.400          40.000
 126487284.189 6  98561455.59243                  24069704.500
  24069711.418                          36.200          19.000
 108470461.662 7  84522478.45346                  20641235.156
  20641238.164                          44.600          40.200
 102416201.886 7  79657145.356 6                  19145621.859    19145620.637
  19145628.117                          46.100          40.200
 107738370.246 8  83952066.07946                  20501924.734
  20501929.988                          48.000          39.600
 121186694.272 6                  90496570.958 7  23061060.836
                  23061063.945          40.800                          44.300
 122909800.011 7                  91783338.723 8  23388945.992
                  23388950.391          45.500                          50.200
 113629633.735 7                  84853308.338 7  21622998.547
                  21622999.844          42.500                          45.700
 136706660.900 6                 102086165.855 7  26014411.648
                  26014418.250          38.000                          42.200
 139243690.172 5                 103980710.041 6  26497187.523
                  26497192.625          32.800                          36.500
 109719756.973 7                  81933601.026 8  20878975.891
                  20878980.633          46.000                          49.700
 121427310.603 7                  90676288.490 7  23106841.352
                  23106847.098          43.800                          46.700
 19  7  9 10 15 32.0000000  0 21G06G29R24R08R02G30R22G13G07R01G15G02
                                R23G05E12E04E11E36E19E14E09
 119217936.583 6  92897199.75344  89026479.954 7  22686428.680
  22686438.375    22686439.816          38.700          28.700          47.000
 118554962.176 6  92380648.64844                  22560290.430
  22560296.973                          41.900          28.500
 110174566.355 6  85691292.186 5                  20603200.813    20603199.801
  20603203.609                          37.800          31.200
 108548359.609 6  84426530.804 7                  20270632.781    20270631.613
  20270635.578                          41.700          43.400
 126487425.012 5  98379115.724 5                  23703688.617    23703688.332
  23703695.523                          34.300          33.300
 123631919.299 6  96336556.43343  92322540.748 7  23526359.234
  23526367.902    23526368.316          36.900          22.600          45.800
 120584837.108 6  93788221.182 6                  22589602.031    22589600.359
  22589606.996                          38.000          38.100
 113088177.301 7  88120675.29445                  21519958.117
  21519964.250                          44.300          32.900
 127242088.916 6  99149616.94643                  24213340.477
  24213346.121                          37.300          19.300
 105641457.882 7  82165620.908 6                  19762410.484    19762409.434
  19762416.570                          42.400          40.200
 126483559.362 6  98558553.14743                  24068994.781
  24069002.590                          37.000          19.000
 108470623.357 7  84522604.45046                  20641265.586
  20641269.004                          44.300          40.200
 102417034.773 7  79657793.155 6                  19145776.898    19145776.285
  19145783.852                          45.900          40.400
 107738132.963 7  83951881.18546                  20501879.344
  20501884.711                          47.700          39.900
 121188921.700 6                  90498234.296 7  23061484.695
                  23061487.809          41.100                          44.500
 122910245.855 7                  91783671.673 8  23389031.039
                  23389035.332          45.600                          50.000
 113629294.363 7                  84853054.913 7  21622933.922
                  21622935.281          42.600                          45.700
 136704145.890 6                 102084287.776 7  26013933.430
                  26013939.656          38.100                          42.000
 139246168.173 5                 103982560.511 6  26497658.922
                  26497664.172          32.900                          36.300
 109724305.252 7                  81936997.476 8  20879841.680
                  20879846.172          46.100                          49.300
 121425392.918 7                  90674856.463 7  23106476.375
                  23106482.082          44.000                          46.400
 19  7  9 10 15 33.0000000  0 21G06G29R24R08R02G30R22G13G07R01G15G02
                                R23G05E12E04E11E36E19E14E09
 119220604.619 6  92899278.73744  89028472.334 7  22686936.852
  22686946.539    22686947.555          38.300          28.700          46.900
 118553263.172 6  92379324.74444                  22559966.789
  22559973.531                          41.800          27.500
 110171723.894 6  85689081.433 5                  20602669.227    20602668.426
  20602671.977                          37.900          30.900
 108550587.411 7  84428263.548 7                  20271048.711    20271047.988
  20271051.602                          42.000          43.300
 126484239.504 5  98376638.117 5                  23703091.883    23703091.125
  23703098.328                          34.000          33.400
 123630362.810 6  96335343.58743  92321378.426 7  23526062.844
  23526072.039    23526072.254          36.900          22.500          45.900
 120588980.463 6  93791443.812 6                  22590377.375    22590376.504
  22590383.535                          38.100          37.900
 113085377.849 7  88118493.91045                  21519425.547
  21519431.719                          44.600          33.200
 127242045.138 6  99149582.81343                  24213330.797
  24213337.883                          36.600          19.000
 105640820.458 7  82165125.132 6                  19762291.469    19762290.465
  19762297.156                          42.300          39.900
 126479834.740 6  98555650.82743                  24068286.430
  24068293.879                          37.000          19.900
 108470785.468 7  84522730.76446                  20641296.414
  20641299.570                          44.500          40.100
 102417868.534 7  79658441.618 6                  19145933.453    19145932.137
  19145939.895                          45.800          39.600
 107737895.991 7  83951696.52846                  20501834.156
  20501839.652                          46.900          39.900
 121191149.400 6                  90499897.842 7  23061908.836
                  23061911.699          40.900                          44.300
 122910692.054 7                  91784004.874 8  23389116.125
                  23389120.137          45.700                          50.400
 113628955.399 7                  84852801.789 7  21622869.500
                  21622870.656          42.700                          45.700
 136701631.024 6                 102082409.792 6  26013454.469
                  26013461.066          37.700                          41.900
 139248646.260 5                 103984410.977 6  26498130.602
                  26498135.758          32.900                          36.400
 109728854.303 7                  81940394.497 8  20880707.289
                  20880711.996          45.900                          49.300
 121423475.493 7                  90673424.628 7  23106111.625
                  23106117.395          43.400                          46.400
 19  7  9 10 15 34.0000000  0 21G06G29R24R08R02G30R22G13G07R01G15G02
                                R23G05E12E04E11E36E19E14E09
 119223273.043 6  92901358.02844  89030464.955 7  22687445.406
  22687454.141    22687455.309          38.600          29.100          46.800
 118551564.761 6  92378001.30744                  22559643.617
  22559650.250                          41.700          27.300
 110168882.077 6  85686871.114 5                  20602137.063    20602136.828
  20602140.668                          37.400          31.000
 108552815.535 7  84429996.545 7                  20271464.641    20271463.637
  20271467.520                          42.000          43.600
 126481054.197 5  98374160.695 5                  23702495.148    23702494.531
  23702501.617                          34.300          33.800
 123628806.760 6  96334131.08943  92320216.429 7  23525767.320
  23525775.902    23525776.172          37.100          23.200          45.700
 120593124.095 6  93794666.655 6                  22591153.297    22591152.871
  22591159.559                          38.000          38.100
 113082578.883 7  88116312.89045                  21518892.766
  21518899.285                          44.600          33.000
 127242001.914 6  99149549.13143                  24213323.500
  24213329.633                          36.600          19.300
 105640183.570 7  82164629.774 6                  19762171.445    19762171.098
  19762178.309                          42.500          39.900
 126476110.313 6  98552748.68943                  24067578.461
  24067585.340                          37.000          19.900
 108470948.109 7  84522857.50446                  20641327.930
  20641330.289                          44.600          40.500
 102418703.212 7  79659090.814 6                  19146089.133    19146088.355
  19146095.934                          45.600          40.000
 107737659.342 7  83951512.13146                  20501789.508
  20501794.734                          47.100          40.200
 121193377.423 6                  90501561.639 7  23062332.781
                  23062335.656          40.900                          44.300
 122911138.581 7                  91784338.329 8  23389200.906
                  23389205.227          45.900                          50.400
 113628616.855 7                  84852548.987 7  21622804.938
                  21622806.383          42.600                          45.800
 136699116.340 6                 102080531.944 7  26012975.883
                  26012982.543          38.100                          42.100
 139251124.410 5                 103986261.556 6  26498602.188
                  26498607.301          33.500                          36.400
 109733404.138 7                  81943792.086 8  20881573.172
                  20881577.699          45.900                          49.600
 121421558.398 7                  90671993.027 7  23105746.891
                  23105752.441          43.400                          46.500
 19  7  9 10 15 35.0000000  0 21G06G29R24R08R02G30R22G13G07R01G15G02
                                R23G05E12E04E11E36E19E14E09
 119225941.697 6  92903437.50344  89032457.805 7  22687952.539
  22687962.137    22687963.176          38.600          27.800          46.900
 118549866.957 6  92376678.35444                  22559320.617
  22559327.293                          41.300          28.200
 110166040.825 6  85684661.257 5                  20601605.695    20601605.367
  20601609.500                          37.200          31.200
 108555043.962 7  84431729.759 7                  20271880.852    20271879.801
  20271883.785                          42.100          44.000
 126477869.160 5  98371683.395 5                  23701900.180    23701897.992
  23701904.539                          34.500          33.700
 123627251.104 6  96332918.86643  92319054.731 7  23525471.000
  23525479.754    23525480.449          37.000          22.800          45.800
 120597268.082 6  93797889.742 6                  22591929.453    22591928.629
  22591935.840                          38.300          38.100
 113079780.344 7  88114132.20845                  21518360.398
  21518366.750                          44.500          33.300
 127241959.155 6  99149515.81843                  24213315.547
  24213321.625                          36.100          19.300
 105639547.198 7  82164134.819 6                  19762052.359    19762052.434
  19762058.863                          42.500          39.900
 126472386.034 6  98549846.64043                  24066869.039
  24066876.527                          36.900          19.300
 108471111.175 7  84522984.56446                  20641358.492
  20641361.727                          44.500          40.600
 102419538.760 7  79659740.717 6                  19146245.648    19146244.777
  19146252.090                          45.600          40.100
 107737422.945 7  83951327.92946                  20501744.281
  20501749.879                          47.200          40.400
 121195605.737 6                  90503225.640 7  23062756.797
                  23062759.617          40.500                          44.300
 122911585.419 7                  91784671.999 8  23389285.977
                  23389290.074          45.600                          50.800
 113628278.719 7                  84852296.482 7  21622740.453
                  21622742.063          42.600                          45.800
 136696601.786 6                 102078654.185 6  26012497.859
                  26012504.008          38.700                          41.600
 139253602.593 5                 103988112.143 6  26499074.008
                  26499078.813          32.300                          36.500
 109737954.717 7                  81947190.254 8  20882438.961
                  20882443.664          46.000                          49.500
 121419641.530 7                  90670561.598 7  23105382.039
                  23105387.805          43.400                          46.400
 19  7  9 10 15 36.0000000  0 21G06G29R24R08R02G30R22G13G07R01G15G02
                                R23G05E12E04E11E36E19E14E09
 119228610.669 6  92905517.22944  89034450.878 7  22688460.570
  22688470.242    22688471.188          38.900          28.300          47.000
 118548169.719 6  92375355.81244                  22558997.469
  22559004.219                          41.700          28.000
 110163200.141 6  85682451.792 5                  20601074.461    20601074.297
  20601078.262                          37.500          31.000
 108557272.639 7  84433463.180 7                  20272296.594    20272295.918
  20272300.043                          42.200          44.500
 126474684.318 5  98369206.302 5                  23701302.500    23701300.711
  23701307.672                          33.700          33.600
 123625695.817 6  96331706.97743  92317893.327 7  23525174.695
  23525183.988    23525184.484          36.700          22.600          45.900
 120601412.315 6  93801113.032 6                  22592706.453    22592705.133
  22592712.203                          38.500          37.800
 113076982.226 7  88111951.86345                  21517827.766
  21517834.078                          44.500          33.600
 127241916.980 6  99149482.96643                  24213306.750
  24213313.723                          36.200          19.000
 105638911.335 7  82163640.246 6                  19761934.148    19761933.121
  19761939.949                          42.200          39.900
 126468661.917 6  98546944.71443                  24066160.445
  24066167.715                          36.400          18.600
 108471274.659 7  84523111.95046                  20641389.867
  20641392.590                          44.800          40.400
 102420375.181 7  79660391.253 6                  19146401.719    19146400.895
  19146408.375                          45.600          39.800
 107737186.839 7  83951143.94846                  20501699.203
  20501704.867                          47.500          40.600
 121197834.336 6                  90504889.845 7  23063180.992
                  23063183.543          41.000                          44.300
 122912032.549 7                  91785005.905 8  23389371.016
                  23389375.242          45.700                          50.800
 113627940.965 7                  84852044.257 7  21622676.289
                  21622677.875          42.300                          45.800
 136694087.365 6                 102076776.524 7  26012019.461
                  26012025.609          38.500                          42.100
 139256080.846 5                 103989962.797 6  26499546.195
                  26499550.348          33.400                          36.300
 109742506.035 7                  81950588.973 8  20883305.086
                  20883309.656          46.000                          49.100
 121417724.912 7                  90669130.362 7  23105017.516
                  23105022.992          43.800                          46.500
 19  7  9 10 15 37.0000000  0 21G06G29R24R08R02G30R22G13G07R01G15G02
                                R23G05E12E04E11E36E19E14E09
 119231280.204 6  92907597.36744  89036444.355 7  22688968.672
  22688978.129    22688979.180          38.700          27.800          47.300
 118546473.363 6  92374033.99144                  22558674.922
  22558681.375                          41.900          27.900
 110160360.323 6  85680243.103 5                  20600544.430    20600543.465
  20600546.863                          37.500          31.400
 108559501.885 6  84435197.017 7                  20272712.969    20272712.551
  20272716.367                          41.900          44.500
 126471499.963 5  98366729.606 5                  23700705.773    23700703.586
  23700710.875                          33.500          34.100
 123624141.223 6  96330495.61843  92316732.439 7  23524878.914
  23524887.762    23524888.656          36.400          23.000          46.100
 120605557.105 6  93804336.741 6                  22593483.406    22593481.664
  22593488.316                          38.400          38.100
 113074184.788 7  88109772.03245                  21517295.586
  21517301.770                          44.600          33.900
 127241875.505 6  99149450.63143                  24213298.930
  24213305.898                          36.500          18.300
 105638276.243 7  82163146.286 6                  19761815.367    19761814.035
  19761820.957                          42.000          40.000
 126464938.180 6  98544043.11643                  24065451.977
  24065459.277                          36.900          18.600
 108471438.864 7  84523239.90746                  20641420.617
  20641424.156                          45.000          40.300
 102421212.728 7  79661042.694 6                  19146558.492    19146557.223
  19146564.938                          45.800          39.700
 107736951.224 7  83950960.35146                  20501654.477
  20501660.152                          47.500          40.500
 121200063.456 6                  90506554.453 7  23063605.133
                  23063608.035          41.100                          44.100
 122912480.254 7                  91785340.222 8  23389456.180
                  23389460.422          45.800                          50.700
 113627603.864 7                  84851792.528 7  21622612.125
                  21622613.738          42.600                          45.800
 136691573.325 6                 102074899.161 6  26011540.766
                  26011547.027          38.100                          41.500
 139258559.351 5                 103991813.647 6  26500017.758
                  26500022.176          33.200                          36.100
 109747058.365 7                  81953988.426 8  20884171.219
                  20884175.953          45.700                          49.300
 121415808.818 7                  90667699.502 7  23104652.711
                  23104658.465          43.200                          46.700
 19  7  9 10 15 38.0000000  0 21G06G29R24R08R02G30R22G13G07R01G15G02
                                R23G05E12E04E11E36E19E14E09
 119233949.845 6  92909677.61944  89038437.912 7  22689476.719
  22689486.000    22689487.238          39.200          27.600          47.300
 118544777.366 6  92372712.43244                  22558352.336
  22558358.492                          41.800          27.400
 110157520.884 6  85678034.580 5                  20600013.859    20600012.215
  20600016.020                          37.900          30.700
 108561731.195 6  84436930.939 7                  20273129.922    20273128.871
  20273132.668                          41.900          44.000
 126468315.756 5  98364252.933 5                  23700109.156    23700107.180
  23700114.051                          33.300          33.900
 123622586.809 6  96329284.38043  92315571.684 7  23524583.227
  23524592.090    23524592.891          36.500          22.800          46.200
 120609701.953 6  93807560.506 6                  22594259.945    22594258.180
  22594265.020                          38.300          38.300
 113071387.569 7  88107592.39245                  21516763.227
  21516769.383                          44.100          33.600
 127241834.386 6  99149418.61042                  24213291.578
  24213297.566                          36.300          17.800
 105637641.426 7  82162652.538 6                  19761696.734    19761695.707
  19761702.367                          42.300          39.900
 126461214.425 6  98541141.46643                  24064743.180
  24064750.625                          36.600          18.300
 108471603.290 7  84523368.03346                  20641452.758
  20641455.332                          45.200          40.400
 102422050.902 7  79661694.598 6                  19146714.281    19146714.090
  19146721.684                          46.000          39.500
 107736715.702 7  83950776.82646                  20501609.641
  20501615.152                          47.800          40.400
 121202292.633 6                  90508219.096 7  23064029.406
                  23064032.027          41.200                          43.800
 122912928.026 7                  91785674.599 8  23389541.367
                  23389545.637          45.900                          50.800
 113627266.932 7                  84851540.912 7  21622548.156
                  21622549.527          42.800                          45.700
 136689059.197 6                 102073021.730 6  26011062.531
                  26011068.895          38.100                          41.800
 139261037.693 5                 103993664.363 6  26500489.313
                  26500494.004          32.600                          36.000
 109751611.207 7                  81957388.273 8  20885037.469
                  20885042.320          46.100                          49.100
 121413892.746 7                  90666268.681 7  23104288.156
                  23104293.738          43.300                          46.800
 19  7  9 10 15 39.0000000  0 21G06G29R24R08R02G30R22G13G07R01G15G02
                                R23G05E12E04E11E36E19E14E09
 119236619.738 6  92911758.05244  89040431.661 7  22689984.031
  22689994.246    22689995.230          39.100          28.100          47.300
 118543081.934 6  92371391.30744                  22558030.203
  22558036.129                          41.600          27.600
 110154681.969 6  85675826.644 5                  20599482.633    20599481.691
  20599484.844                          37.900          31.700
 108563960.782 6  84438665.068 7                  20273545.492    20273545.168
  20273548.996                          41.700          44.100
 126465131.725 5  98361776.522 5                  23699513.109    23699510.477
  23699517.164                          32.900          34.500
 123621032.793 6  96328073.46043  92314411.197 7  23524287.469
  23524296.223    23524297.094          36.500          22.500          46.000
 120613847.054 6  93810784.485 6                  22595036.250    22595034.883
  22595041.695                          38.300          38.000
 113068590.798 7  88105413.09345                  21516230.813
  21516237.395                          44.300          33.100
 127241793.739 6  99149386.93743                  24213283.484
  24213290.168                          36.500          19.300
 105637007.093 7  82162159.161 6                  19761577.664    19761576.988
  19761583.770                          42.400          40.000
 126457490.769 6  98538239.91943                  24064035.227
  24064042.203                          36.900          19.000
 108471768.164 7  84523496.50046                  20641483.727
  20641486.914                          45.100          40.400
 102422889.939 7  79662347.154 6                  19146871.969    19146871.004
  19146878.559                          46.200          39.600
 107736480.434 7  83950593.50246                  20501565.000
  20501570.988                          47.900          39.800
 121204522.087 6                  90509883.957 7  23064453.414
                  23064456.355          41.300                          44.000
 122913376.118 7                  91786009.201 8  23389626.547
                  23389630.930          46.200                          50.600
 113626930.352 7                  84851289.585 7  21622483.852
                  21622485.414          43.300                          45.700
 136686545.188 6                 102071144.404 6  26010584.016
                  26010590.406          38.200                          41.800
 139263516.122 5                 103995515.112 6  26500960.422
                  26500965.250          32.900                          36.400
 109756164.800 7                  81960788.685 8  20885904.227
                  20885908.746          45.900                          49.300
 121411976.910 7                  90664838.025 7  23103923.445
                  23103929.223          42.700                          46.600
 19  7  9 10 15 40.0000000  0 21G06G29R24R08R02G30R22G13G07R01G15G02
                                R23G05E12E04E11E36E19E14E09
 119239289.895 6  92913838.69444  89042425.616 7  22690492.305
  22690502.152    22690503.484          38.800          27.500          47.000
 118541387.077 7  92370070.64744                  22557707.258
  22557713.250                          42.000          28.200
 110151843.717 6  85673619.067 5                  20598951.781    20598951.289
  20598954.246                          38.000          31.600
 108566190.656 6  84440399.393 7                  20273962.516    20273961.770
  20273965.520                          41.800          43.800
 126461947.912 5  98359300.230 5                  23698915.500    23698913.734
  23698920.715                          33.400          34.300
 123619479.114 6  96326862.78843  92313251.003 7  23523992.008
  23524000.059    23524001.512          36.900          22.500          46.000
 120617992.393 6  93814008.657 6                  22595813.648    22595811.320
  22595818.105                          37.800          38.400
 113065794.395 7  88103234.07345                  21515698.719
  21515705.152                          44.300          33.200
 127241753.558 6  99149355.62242                  24213275.844
  24213282.273                          36.800          17.800
 105636373.276 7  82161666.189 6                  19761458.797    19761458.168
  19761465.055                          42.200          39.700
 126453767.256 6  98535338.49543                  24063325.953
  24063333.520                          37.400          19.000
 108471933.426 7  84523625.27646                  20641515.117
  20641518.363                          45.200          40.500
 102423729.789 7  79663000.383 6                  19147029.055    19147027.926
  19147035.199                          46.000          39.500
 107736245.378 7  83950410.34546                  20501520.102
  20501525.445                          47.900          40.200
 121206751.808 6                  90511548.997 7  23064877.758
                  23064880.711          41.100                          43.900
 122913824.448 7                  91786344.009 8  23389711.820
                  23389716.211          46.400                          50.400
 113626594.139 7                  84851038.499 7  21622419.844
                  21622421.516          43.700                          45.700
 136684031.297 6                 102069267.148 6  26010105.727
                  26010111.988          38.300                          41.800
 139265994.492 5                 103997365.864 6  26501432.164
                  26501437.137          32.900                          36.700
 109760719.075 7                  81964189.620 8  20886770.797
                  20886775.523          45.900                          49.300
 121410061.313 7                  90663407.546 7  23103558.875
                  23103564.766          43.400                          46.700
 19  7  9 10 15 41.0000000  0 21G06G29R24R08R02G30R22G13G07R01G15G02
                                R23G05E12E04E11E36E19E14E09
 119241960.380 6  92915919.59444  89044419.825 7  22691001.023
  22691010.461    22691011.586          39.000          28.200          47.100
 118539692.823 7  92368750.44544                  22557384.672
  22557391.031                          42.000          27.600
 110149006.032 6  85671412.001 5                  20598421.047    20598420.105
  20598423.500                          37.900          32.100
 108568420.825 6  84442133.968 7                  20274378.922    20274377.801
  20274382.004                          41.800          43.700
 126458764.412 5  98356824.164 5                  23698318.813    23698317.422
  23698324.551                          33.300          34.600
 123617925.912 6  96325652.50543  92312091.131 7  23523696.664
  23523704.719    23523705.859          36.900          22.500          46.200
 120622138.075 6  93817233.052 6                  22596589.016    22596587.910
  22596594.598                          38.000          39.000
 113062998.472 7  88101055.43545                  21515166.859
  21515173.043                          43.700          32.800
 127241713.931 6  99149324.76043                  24213268.453
  24213275.086                          37.100          18.600
 105635739.967 7  82161173.627 6                  19761340.141    19761339.863
  19761346.406                          42.000          39.700
 126450043.955 6  98532437.22043                  24062617.547
  24062624.938                          37.600          19.300
 108472099.164 7  84523754.42746                  20641546.195
  20641549.512                          45.300          40.300
 102424570.527 7  79663654.314 6                  19147186.758    19147184.855
  19147192.297                          46.000          40.000
 107736010.640 7  83950227.43646                  20501475.734
  20501480.934                          47.800          39.800
 121208981.811 6                  90513214.274 7  23065302.078
                  23065304.973          41.400                          44.100
 122914273.123 7                  91786679.054 8  23389797.398
                  23389801.719          46.200                          50.200
 113626258.348 7                  84850787.765 7  21622356.180
                  21622357.539          42.800                          45.800
 136681517.555 6                 102067390.017 6  26009627.461
                  26009633.742          37.900                          41.400
 139268472.965 5                 103999216.650 6  26501903.750
                  26501908.527          32.500                          36.400
 109765274.166 7                  81967591.132 8  20887637.602
                  20887642.258          46.000                          49.600
 121408146.000 7                  90661977.276 7  23103194.359
                  23103200.195          43.500                          46.800
 19  7  9 10 15 42.0000000  0 21G06G29R24R08R02G30R22G13G07R01G15G02
                                R23G05E12E04E11E36E19E14E09
 119244631.201 6  92918000.75444  89046414.250 7  22691509.117
  22691518.582    22691519.902          39.000          27.600          47.100
 118537999.181 7  92367430.73244                  22557062.969
  22557069.023                          42.000          28.300
 110146168.942 6  85669205.334 5                  20597889.992    20597889.711
  20597893.055                          38.000          31.600
 108570651.285 6  84443868.768 7                  20274794.375    20274794.238
  20274798.344                          41.800          43.900
 126455581.055 5  98354348.237 5                  23697721.891    23697720.852
  23697728.012                          33.200          34.300
 123616373.086 6  96324442.51143  92310931.538 7  23523400.586
  23523409.426    23523410.320          36.600          22.600          45.600
 120626284.031 6  93820457.674 6                  22597366.328    22597364.586
  22597371.379                          37.900          38.400
 113060202.961 7  88098877.11445                  21514634.297
  21514641.328                          43.800          33.300
 127241674.795 6  99149294.26343                  24213260.828
  24213267.363                          37.000          18.600
 105635107.199 6  82160681.465 6                  19761222.828    19761221.473
  19761228.055                          41.800          39.900
 126446320.795 6  98529536.06043                  24061909.086
  24061916.262                          37.600          19.000
 108472265.348 7  84523883.91746                  20641578.102
  20641581.262                          45.000          40.500
 102425412.156 7  79664308.903 6                  19147343.828    19147342.066
  19147350.074                          46.400          39.600
 107735776.198 7  83950044.75446                  20501430.766
  20501436.402                          47.800          39.900
 121211212.101 6                  90514879.755 7  23065726.688
                  23065729.410          41.100                          44.300
 122914722.106 7                  91787014.328 8  23389882.844
                  23389887.105          46.200                          50.200
 113625922.957 7                  84850537.296 7  21622292.367
                  21622293.805          42.800                          45.800
 136679003.967 6                 102065512.963 6  26009149.000
                  26009155.539          37.800                          41.900
 139270951.401 5                 104001067.489 6  26502375.563
                  26502380.176          32.800                          36.200
 109769829.958 7                  81970993.201 8  20888504.734
                  20888509.219          46.200                          49.300
 121406230.929 7                  90660547.205 7  23102830.039
                  23102835.754          43.600                          46.600
 19  7  9 10 15 43.0000000  0 21G06G29R24R08R02G30R22G13G07R01G15G02
                                R23G05E12E04E11E36E19E14E09
 119247302.363 6  92920082.17544  89048408.946 7  22692017.703
  22692026.551    22692028.156          39.500          28.100          46.800
 118536306.144 7  92366111.47744                  22556740.430
  22556746.551                          42.000          28.000
 110143332.486 6  85666999.217 5                  20597360.164    20597359.199
  20597362.262                          37.400          31.100
 108572882.021 6  84445603.801 7                  20275211.516    20275210.770
  20275215.000                          41.800          43.700
 126452398.047 5  98351872.566 5                  23697125.820    23697124.008
  23697131.219                          33.200          34.000
 123614820.692 6  96323232.85743  92309772.325 7  23523104.852
  23523114.219    23523114.914          36.700          22.600          45.600
 120630430.360 6  93823682.577 6                  22598141.648    22598141.340
  22598148.125                          37.900          38.600
 113057407.927 7  88096699.16645                  21514103.172
  21514109.227                          44.300          33.300
 127241636.314 6  99149264.26743                  24213254.594
  24213259.691                          36.600          19.300
 105634474.990 6  82160189.762 6                  19761104.430    19761103.238
  19761110.055                          41.700          39.900
 126442597.829 6  98526635.04443                  24061200.602
  24061207.953                          37.500          19.000
 108472432.010 7  84524013.78046                  20641609.602
  20641613.063                          45.600          40.300
 102426254.684 7  79664964.217 6                  19147501.016    19147499.863
  19147507.172                          46.500          39.500
 107735542.065 7  83949862.31146                  20501386.359
  20501392.418                          47.900          39.900
 121213442.748 6                  90516545.471 7  23066150.938
                  23066153.965          41.000                          44.300
 122915171.438 7                  91787349.866 8  23389968.406
                  23389972.512          46.100                          50.100
 113625587.994 7                  84850287.168 7  21622228.641
                  21622230.066          42.700                          45.900
 136676490.552 6                 102063636.069 7  26008670.813
                  26008677.164          38.100                          42.000
 139273430.037 5                 104002918.368 6  26502846.648
                  26502851.941          33.200                          36.000
 109774386.585 7                  81974395.857 8  20889371.539
                  20889376.285          46.400                          49.500
 121404316.185 7                  90659117.343 7  23102465.469
                  23102471.539          43.300                          46.800
 19  7  9 10 15 44.0000000  0 21G06G29R24R08R02G30R22G13G07R01G15G02
                                R23G05E12E04E11E36E19E14E09
 119249973.700 6  92922163.72744  89050403.783 7  22692526.109
  22692535.230    22692536.387          39.500          28.800          46.800
 118534613.641 7  92364792.64044                  22556418.344
  22556424.516                          42.000          27.900
 110140496.504 6  85664793.453 5                  20596829.047    20596828.602
  20596832.566                          38.000          30.600
 108575112.986 7  84447339.000 7                  20275628.500    20275627.355
  20275631.496                          42.000          43.800
 126449215.139 5  98349396.945 5                  23696529.305    23696527.820
  23696534.707                          33.400          34.400
 123613268.644 6  96322023.45743  92308613.320 7  23522809.383
  23522819.273    23522819.473          36.900          22.600          45.600
 120634576.845 6  93826907.645 6                  22598919.563    22598917.938
  22598924.715                          37.900          38.400
 113054613.264 7  88094521.51345                  21513571.133
  21513577.535                          44.200          32.800
 127241598.148 6  99149234.53543                  24213247.141
  24213252.613                          37.100          19.600
 105633843.176 6  82159698.376 6                  19760986.172    19760984.770
  19760991.824                          41.700          39.700
 126438874.939 6  98523734.09343                  24060492.219
  24060499.445                          37.600          19.000
 108472599.058 7  84524143.95146                  20641641.617
  20641644.719                          45.400          40.000
 102427098.012 7  79665620.148 6                  19147658.758    19147657.488
  19147665.141                          46.700          39.900
 107735308.100 7  83949679.99846                  20501341.539
  20501346.961                          47.900          39.800
 121215673.562 6                  90518211.336 7  23066575.461
                  23066578.414          40.800                          44.600
 122915620.974 7                  91787685.568 8  23390053.875
                  23390058.074          45.500                          50.400
 113625253.320 7                  84850037.264 7  21622165.000
                  21622166.273          43.100                          46.000
 136673977.191 6                 102061759.205 6  26008192.594
                  26008198.965          38.200                          41.700
 139275908.614 5                 104004769.239 5  26503318.773
                  26503323.484          32.500                          35.800
 109778943.844 7                  81977799.011 8  20890238.813
                  20890243.566          47.000                          49.300
 121402401.585 7                  90657687.616 7  23102101.352
                  23102107.098          43.600                          46.700
 19  7  9 10 15 45.0000000  0 21G06G29R24R08R02G30R22G13G07R01G15G02
                                R23G05E12E04E11E36E19E14E09
 119252645.457 6  92924245.62444  89052398.916 7  22693033.672
  22693043.969    22693044.691          39.900          28.000          46.600
 118532921.787 6  92363474.31644                  22556095.906
  22556102.246                          41.800          28.800
 110137661.235 6  85662588.254 5                  20596299.344    20596298.898
  20596301.902                          37.700          31.000
 108577344.337 6  84449074.486 7                  20276044.750    20276044.191
  20276048.164                          41.800          43.900
 126446032.525 5  98346921.598 5                  23695933.953    23695931.648
  23695938.309                          33.300          34.100
 123611717.049 6  96320814.45843  92307454.678 7  23522514.227
  23522523.582    23522524.004          36.800          22.600          45.800
 120638723.670 6  93830132.964 6                  22599697.164    22599695.141
  22599701.711                          37.800          38.400
 113051819.112 7  88092344.25045                  21513039.461
  21513045.559                          44.000          33.200
 127241560.594 6  99149205.26143                  24213239.305
  24213245.293                          37.100          19.900
 105633211.991 7  82159207.449 6                  19760867.711    19760866.707
  19760873.762                          42.000          39.900
 126435152.320 6  98520833.37143                  24059784.492
  24059791.082                          38.000          19.300
 108472766.604 7  84524274.50746                  20641673.594
  20641676.254                          45.500          40.500
 102427942.282 7  79666276.781 6                  19147816.570    19147815.254
  19147823.047                          46.500          39.900
 107735074.506 7  83949497.97946                  20501297.398
  20501303.129                          47.300          39.900
 121217904.731 6                  90519877.473 7  23067000.016
                  23067002.973          40.900                          44.200
 122916070.897 7                  91788021.554 8  23390139.539
                  23390143.738          46.000                          50.300
 113624919.150 7                  84849787.704 7  21622101.250
                  21622102.738          43.000                          45.900
 136671464.031 6                 102059882.508 7  26007713.813
                  26007720.672          38.700                          42.000
 139278387.261 5                 104006620.222 6  26503790.680
                  26503795.398          33.500                          36.200
 109783501.942 7                  81981202.792 8  20891106.156
                  20891110.875          46.700                          49.800
 121400487.312 7                  90656258.129 7  23101737.203
                  23101742.848          43.500                          46.600
 19  7  9 10 15 46.0000000  0 21G06G29R24R08R02G30R22G13G07R01G15G02
                                R23G05E12E04E11E36E19E14E09
 119255317.522 6  92926327.75544  89054394.285 7  22693543.156
  22693551.965    22693553.227          40.200          28.300          46.800
 118531230.564 6  92362156.48344                  22555774.336
  22555780.672                          41.700          27.800
 110134826.544 6  85660383.481 5                  20595769.281    20595768.836
  20595772.270                          37.500          31.000
 108579575.995 6  84450810.222 7                  20276461.844    20276460.676
  20276464.961                          41.800          44.000
 126442850.170 5  98344446.430 5                  23695335.844    23695334.734
  23695342.488                          33.600          33.600
 123610165.934 6  96319605.79743  92306296.359 7  23522218.898
  23522228.000    23522228.902          36.700          22.600          46.200
 120642870.839 6  93833358.545 6                  22600473.945    22600472.063
  22600478.504                          37.800          38.400
 113049025.411 7  88090167.34045                  21512507.648
  21512514.180                          44.300          33.100
 127241523.667 6  99149176.50243                  24213232.266
  24213238.434                          36.700          20.400
 105632581.294 6  82158716.910 6                  19760749.773    19760748.723
  19760755.945                          41.800          39.900
 126431429.837 6  98517932.74243                  24059075.805
  24059082.410                          38.400          20.100
 108472934.613 7  84524405.42246                  20641705.102
  20641708.813                          45.800          40.600
 102428787.429 7  79666934.114 6                  19147974.906    19147973.215
  19147980.840                          46.100          39.400
 107734841.205 7  83949316.18746                  20501253.398
  20501258.289                          47.600          39.800
 121220136.215 6                  90521543.837 7  23067424.820
                  23067427.750          41.000                          44.300
 122916521.159 7                  91788357.775 8  23390225.305
                  23390229.320          45.900                          50.700
 113624585.355 7                  84849538.437 7  21622037.836
                  21622039.223          43.300                          46.100
 136668951.029 6                 102058005.905 6  26007235.602
                  26007242.387          38.900                          41.900
 139280866.046 5                 104008471.233 6  26504262.266
                  26504266.855          33.600                          36.100
 109788060.804 7                  81984607.119 8  20891973.641
                  20891978.500          46.400                          49.600
 121398573.321 7                  90654828.848 7  23101372.602
                  23101378.516          43.300                          46.600
 19  7  9 10 15 47.0000000  0 21G06G29R24R08R02G30R22G13G07R01G15G02
                                R23G05E12E04E11E36E19E14E09
 119257989.891 6  92928410.11044  89056389.881 7  22694051.242
  22694060.672    22694061.770          39.700          28.100          46.300
 118529539.930 6  92360839.10244                  22555451.727
  22555458.574                          41.800          28.900
 110131992.503 6  85658179.244 5                  20595238.422    20595238.422
  20595242.313                          37.300          31.000
 108581807.992 6  84452546.210 7                  20276878.664    20276877.871
  20276881.563                          41.700          43.900
 126439668.113 5  98341971.498 5                  23694741.055    23694738.305
  23694745.863                          33.300          33.900
 123608615.247 6  96318397.46943  92305138.364 7  23521924.547
  23521933.230    23521933.898          36.500          22.900          46.400
 120647018.309 6  93836584.308 6                  22601250.813    22601248.977
  22601255.637                          38.000          38.600
 113046232.145 7  88087990.76545                  21511975.898
  21511982.184                          44.300          33.200
 127241487.150 6  99149148.04343                  24213225.352
  24213231.629                          36.700          20.400
 105631951.131 7  82158226.790 6                  19760631.977    19760631.113
  19760637.492                          42.000          39.600
 126427707.535 6  98515032.26943                  24058367.227
  24058374.023                          37.800          19.600
 108473103.109 7  84524536.71646                  20641737.250
  20641740.625                          45.800          40.100
 102429633.473 7  79667592.145 6                  19148131.719    19148131.457
  19148139.051                          46.100          39.400
 107734608.190 7  83949134.61646                  20501208.781
  20501214.383                          47.500          39.600
 121222367.980 6                  90523210.437 7  23067849.469
                  23067852.406          41.100                          44.400
 122916971.733 7                  91788694.241 8  23390310.828
                  23390315.094          46.000                          50.900
 113624251.950 7                  84849289.494 7  21621974.328
                  21621975.680          43.300                          46.200
 136666438.174 6                 102056129.423 6  26006757.492
                  26006764.301          38.600                          41.800
 139283344.847 5                 104010322.268 6  26504733.758
                  26504738.938          33.200                          36.300
 109792620.411 7                  81988012.039 8  20892841.367
                  20892846.121          46.300                          49.500
 121396659.594 7                  90653399.772 7  23101008.656
                  23101014.438          43.500                          46.300
 19  7  9 10 15 48.0000000  0 21G06G29R24R08R02G30R22G13G07R01G15G02
                                R23G05E12E04E11E36E19E14E09
 119260662.563 6  92930492.71844  89058385.706 7  22694560.078
  22694568.930    22694570.191          39.600          27.900          47.000
 118527849.888 6  92359522.18044                  22555130.797
  22555137.148                          41.700          27.700
 110129159.045 6  85655975.341 5                  20594709.516    20594708.199
  20594712.133                          37.400          31.000
 108584040.257 7  84454282.398 7                  20277294.852    20277294.270
  20277298.570                          42.000          44.100
 126436486.295 5  98339496.761 5                  23694143.711    23694141.617
  23694149.457                          33.800          33.700
 123607064.895 5  96317189.41243  92303980.645 7  23521629.289
  23521638.418    23521638.734          35.600          22.800          46.200
 120651165.990 6  93839810.350 6                  22602027.305    22602025.961
  22602032.602                          38.400          38.700
 113043439.309 7  88085814.52845                  21511444.516
  21511450.859                          44.100          32.700
 127241451.205 6  99149120.03243                  24213218.453
  24213224.539                          37.100          19.600
 105631321.468 7  82157737.014 6                  19760515.281    19760513.176
  19760519.816                          42.100          39.800
 126423985.384 6  98512131.89743                  24057658.695
  24057666.078                          38.100          20.400
 108473272.017 7  84524668.32946                  20641769.570
  20641772.566                          45.700          40.500
 102430480.374 7  79668250.842 6                  19148290.719    19148289.637
  19148297.387                          46.100          39.400
 107734375.458 8  83948953.26846                  20501164.344
  20501169.758                          48.000          39.800
 121224600.047 6                  90524877.216 7  23068273.953
                  23068277.074          41.400                          44.400
 122917422.585 7                  91789030.934 8  23390396.680
                  23390400.922          46.100                          50.200
 113623918.976 7                  84849040.826 7  21621910.898
                  21621912.477          43.200                          46.100
 136663925.455 6                 102054253.035 6  26006279.508
                  26006286.016          38.900                          41.800
 139285823.657 5                 104012173.341 6  26505205.586
                  26505210.426          33.400                          36.200
 109797180.752 7                  81991417.488 8  20893709.289
                  20893713.977          46.300                          49.300
 121394746.136 7                  90651970.886 7  23100644.453
                  23100650.363          43.700                          46.400
 19  7  9 10 15 49.0000000  0 21G06G29R24R08R02G30R22G13G07R01G15G02
                                R23G05E12E04E11E36E19E14E09
 119263335.536 6  92932575.54444  89060381.752 7  22695068.461
  22695077.656    22695078.875          39.500          28.200          46.900
 118526160.450 6  92358205.73344                  22554809.664
  22554815.547                          41.800          28.300
 110126326.156 6  85653772.083 5                  20594180.102    20594178.621
  20594182.445                          37.200          31.700
 108586272.795 6  84456018.842 7                  20277712.313    20277711.355
  20277715.227                          41.700          44.100
 126433304.741 5  98337022.217 5                  23693547.883    23693545.789
  23693553.082                          33.300          33.400
 123605515.006 5  96315981.69443  92302823.260 7  23521333.430
  23521343.430    23521343.902          35.700          21.700          45.900
 120655314.044 6  93843036.579 6                  22602804.742    22602803.047
  22602809.738                          38.300          38.400
 113040646.953 7  88083638.67145                  21510913.250
  21510919.684                          44.100          33.100
 127241415.803 6  99149092.46043                  24213211.508
  24213218.004                          37.100          19.000
 105630692.324 6  82157247.689 6                  19760396.641    19760395.684
  19760402.125                          41.800          39.900
 126420263.424 6  98509231.63043                  24056950.305
  24056957.305                          38.200          19.900
 108473441.419 7  84524800.33646                  20641801.984
  20641805.078                          45.500          40.300
 102431328.152 7  79668910.233 6                  19148449.359    19148448.066
  19148455.805                          45.700          39.700
 107734142.991 8  83948772.11846                  20501120.203
  20501125.602                          48.000          39.800
 121226832.352 6                  90526544.214 7  23068698.758
                  23068701.863          41.400                          44.700
 122917873.778 7                  91789367.856 8  23390482.602
                  23390486.664          46.200                          50.200
 113623586.395 7                  84848792.464 7  21621847.891
                  21621849.121          43.400                          46.100
 136661412.886 6                 102052376.775 6  26005801.492
                  26005807.914          39.000                          41.900
 139288302.526 5                 104014024.459 6  26505677.414
                  26505682.133          33.600                          36.200
 109801741.863 7                  81994823.509 8  20894577.219
                  20894581.891          46.200                          49.400
 121392832.930 7                  90650542.198 7  23100280.547
                  23100286.230          43.400                          46.400
 19  7  9 10 15 50.0000000  0 21G06G29R24R08R02G30R22G13G07R01G15G02
                                R23G05E12E04E11E36E19E14E09
 119266008.805 6  92934658.60744  89062378.026 7  22695577.539
  22695585.715    22695587.340          39.400          28.200          46.800
 118524471.582 6  92356889.73244                  22554487.938
  22554493.984                          41.700          28.200
 110123493.858 6  85651569.158 5                  20593650.086    20593648.816
  20593652.965                          37.300          31.700
 108588505.603 6  84457755.450 7                  20278129.320    20278128.035
  20278132.383                          41.600          44.500
 126430123.458 5  98334547.890 5                  23692952.742    23692949.664
  23692956.883                          33.600          33.600
 123603965.437 6  96314774.22943  92301666.161 7  23521039.242
  23521048.184    23521049.125          36.200          22.300          45.700
 120659462.349 6  93846263.050 6                  22603582.164    22603579.859
  22603586.680                          38.400          38.600
 113037854.976 7  88081463.10145                  21510382.039
  21510387.832                          44.100          33.200
 127241380.898 6  99149065.25543                  24213205.016
  24213211.734                          36.700          18.600
 105630063.655 7  82156758.714 6                  19760279.539    19760277.879
  19760284.402                          42.000          39.600
 126416541.585 6  98506331.50543                  24056242.891
  24056249.266                          37.900          19.300
 108473611.220 7  84524932.64646                  20641834.055
  20641837.336                          45.400          40.200
 102432176.779 7  79669570.268 6                  19148608.086    19148606.652
  19148614.441                          45.800          39.800
 107733910.797 7  83948591.19146                  20501075.539
  20501081.523                          47.800          39.500
 121229064.951 6                  90528211.415 7  23069123.734
                  23069126.801          41.100                          44.500
 122918325.251 7                  91789704.987 8  23390568.508
                  23390572.641          46.200                          50.300
 113623254.191 7                  84848544.385 7  21621784.430
                  21621786.012          43.200                          45.900
 136658900.421 6                 102050500.585 6  26005322.789
                  26005329.980          39.500                          41.600
 139290781.423 5                 104015875.603 6  26506149.352
                  26506153.926          33.400                          36.100
 109806303.692 7                  81998230.066 8  20895445.266
                  20895449.926          46.400                          49.600
 121390919.966 7                  90649113.686 7  23099916.375
                  23099922.273          43.600                          46.300
 19  7  9 10 15 51.0000000  0 21G06G29R24R08R02G30R22G13G07R01G15G02
                                R23G05E12E04E11E36E19E14E09
 119268682.384 6  92936741.92544  89064374.538 7  22696086.672
  22696095.176    22696096.191          39.000          28.400          46.700
 118522783.339 6  92355574.22744                  22554167.250
  22554173.230                          41.400          27.700
 110120662.163 6  85649366.713 5                  20593120.477    20593119.488
  20593123.625                          37.400          31.000
 108590738.679 6  84459492.297 7                  20278546.680    20278545.371
  20278549.656                          41.600          43.900
 126426942.424 5  98332073.725 5                  23692355.313    23692353.453
  23692360.660                          34.200          33.800
 123602416.368 6  96313567.16443  92300509.375 7  23520744.508
  23520753.805    23520754.254          36.000          22.300          45.800
 120663610.974 6  93849489.713 6                  22604357.953    22604357.480
  22604364.172                          38.700          38.600
 113035063.467 7  88079287.90145                  21509850.531
  21509856.621                          44.100          33.000
 127241346.476 6  99149038.46243                  24213198.883
  24213205.242                          36.700          18.600
 105629435.524 7  82156270.184 6                  19760160.625    19760160.605
  19760167.262                          42.100          39.900
 126412819.960 6  98503431.54143                  24055534.453
  24055541.133                          37.100          19.300
 108473781.474 7  84525065.30746                  20641866.391
  20641869.609                          45.400          40.500
 102433026.289 7  79670231.013 6                  19148766.297    19148765.496
  19148773.492                          45.600          39.900
 107733678.899 7  83948410.48946                  20501031.555
  20501037.418                          47.700          40.100
 121231297.883 6                  90529878.856 7  23069548.836
                  23069551.629          41.200                          44.500
 122918777.032 7                  91790042.359 8  23390654.453
                  23390658.664          46.100                          50.300
 113622922.395 7                  84848296.610 7  21621721.141
                  21621722.734          43.200                          45.800
 136656388.108 6                 102048624.518 6  26004845.219
                  26004851.711          39.000                          41.500
 139293260.435 5                 104017726.793 6  26506620.594
                  26506625.469          33.600                          36.400
 109810866.295 7                  82001637.199 8  20896313.672
                  20896318.301          46.600                          49.900
 121389007.276 7                  90647685.373 7  23099552.367
                  23099558.254          43.400                          46.400
 19  7  9 10 15 52.0000000  0 21G06G29R24R08R02G30R22G13G07R01G15G02
                                R23G05E12E04E11E36E19E14E09
 119271356.263 6  92938825.47244  89066371.275 7  22696595.461
  22696603.949    22696604.930          39.100          28.100          46.600
 118521095.670 6  92354259.15744                  22553845.375
  22553851.430                          41.500          27.800
 110117831.012 6  85647164.710 5                  20592590.984    20592590.066
  20592593.715                          37.100          30.900
 108592972.046 6  84461229.366 7                  20278964.023    20278962.387
  20278966.605                          41.700          44.300
 126423761.601 5  98329599.780 5                  23691758.828    23691757.297
  23691764.430                          33.600          34.000
 123600867.713 6  96312360.44643  92299352.883 7  23520450.148
  23520458.574    23520459.398          36.700          22.900          45.800
 120667759.829 6  93852716.640 6                  22605136.711    22605134.758
  22605141.402                          38.600          38.600
 113032272.390 7  88077113.03845                  21509319.406
  21509325.555                          44.000          32.600
 127241312.629 6  99149012.07443                  24213192.508
  24213198.727                          36.700          19.000
 105628807.914 7  82155782.040 6                  19760044.609    19760042.902
  19760049.547                          42.500          39.900
 126409098.470 6  98500531.66643                  24054825.930
  24054832.871                          37.500          19.300
 108473952.189 7  84525198.33746                  20641899.078
  20641901.996                          45.300          40.500
 102433876.665 7  79670892.405 6                  19148925.969    19148924.465
  19148932.316                          45.900          39.800
 107733447.282 7  83948230.01346                  20500987.719
  20500993.449                          47.600          40.500
 121233531.039 6                  90531546.480 7  23069973.711
                  23069976.594          40.900                          44.100
 122919229.134 7                  91790379.966 8  23390740.531
                  23390744.734          46.200                          50.400
 113622590.956 7                  84848049.115 7  21621658.180
                  21621659.715          43.200                          45.700
 136653875.960 6                 102046748.543 6  26004367.148
                  26004373.902          38.700                          41.600
 139295739.459 5                 104019577.992 6  26507092.594
                  26507097.313          33.300                          36.400
 109815429.635 7                  82005044.892 8  20897181.781
                  20897186.707          46.300                          49.800
 121387094.833 7                  90646257.261 7  23099188.531
                  23099194.355          43.400                          46.600
 19  7  9 10 15 53.0000000  0 21G06G29R24R08R02G30R22G13G07R01G15G02
                                R23G05E12E04E11E36E19E14E09
 119274030.500 6  92940909.29244  89068368.247 7  22697104.445
  22697112.688    22697113.895          39.200          28.200          46.600
 118519408.608 6  92352944.56644                  22553525.070
  22553530.855                          41.600          27.600
 110115000.586 6  85644963.263 5                  20592062.266    20592061.043
  20592064.266                          36.900          30.600
 108595205.757 7  84462966.691 7                  20279380.969    20279379.496
  20279383.773                          42.100          43.000
 126420581.030 5  98327125.999 5                  23691163.516    23691161.609
  23691168.285                          33.300          33.500
 123599319.448 6  96311154.00343  92298196.726 7  23520154.750
  23520163.977    23520164.691          37.100          22.300          46.100
 120671909.044 6  93855943.800 6                  22605913.234    22605911.891
  22605918.313                          38.400          38.600
 113029481.790 7  88074938.54545                  21508789.328
  21508794.801                          44.600          33.300
 127241279.280 6  99148986.09643                  24213186.242
  24213192.320                          36.500          19.600
 105628180.857 7  82155294.331 6                  19759926.938    19759925.418
  19759932.273                          42.500          39.700
 126405377.163 6  98497631.96343                  24054118.203
  24054125.004                          37.400          19.900
 108474123.390 7  84525331.73646                  20641931.359
  20641935.008                          45.400          40.300
 102434727.926 7  79671554.498 6                  19149084.875    19149083.465
  19149091.281                          46.300          39.900
 107733215.959 7  83948049.75846                  20500943.398
  20500949.277                          47.900          39.900
 121235764.547 6                  90533214.351 7  23070398.531
                  23070401.410          40.900                          44.400
 122919681.567 7                  91790717.823 8  23390826.539
                  23390830.801          45.800                          50.400
 113622259.966 7                  84847801.944 7  21621595.352
                  21621596.723          43.000                          45.700
 136651363.958 6                 102044872.703 6  26003889.102
                  26003895.957          38.400                          41.700
 139298218.508 5                 104021429.255 6  26507564.367
                  26507569.082          33.300                          36.300
 109819993.746 7                  82008453.155 8  20898050.523
                  20898055.203          46.100                          49.400
 121385182.688 7                  90644829.347 7  23098824.578
                  23098830.406          43.800                          46.900
 19  7  9 10 15 54.0000000  0 21G06G29R24R08R02G30R22G13G07R01G15G02
                                R23G05E12E04E11E36E19E14E09
 119276704.973 6  92942993.29544  89070365.435 7  22697613.117
  22697621.805    22697622.520          39.300          27.700          46.600
 118517722.144 6  92351630.44144                  22553204.273
  22553209.898                          41.500          27.700
 110112170.678 6  85642762.285 5                  20591531.852    20591531.922
  20591535.477                          37.300          31.100
 108597439.793 6  84464704.261 7                  20279797.555    20279796.949
  20279800.922                          41.800          43.600
 126417400.704 5  98324652.383 5                  23690567.836    23690565.953
  23690572.184                          33.600          33.700
 123597771.612 6  96309947.87743  92297040.868 7  23519860.461
  23519869.969    23519870.055          37.200          22.300          45.800
 120676058.486 6  93859171.164 6                  22606690.656    22606689.551
  22606695.680                          38.200          38.900
 113026691.628 7  88072764.39445                  21508257.602
  21508263.461                          44.700          33.400
 127241246.462 6  99148960.52143                  24213180.008
  24213186.121                          36.700          19.300
 105627554.324 7  82154807.027 6                  19759808.883    19759808.535
  19759815.211                          42.800          40.200
 126401656.034 6  98494732.37243                  24053409.867
  24053416.938                          37.100          20.100
 108474295.022 7  84525465.47946                  20641963.977
  20641967.402                          45.400          40.400
 102435580.041 7  79672217.252 6                  19149243.578    19149243.199
  19149250.508                          46.500          39.700
 107732984.909 7  83947869.71946                  20500899.891
  20500905.492                          47.600          40.000
 121237998.322 6                  90534882.417 7  23070823.773
                  23070826.551          40.900                          44.300
 122920134.284 7                  91791055.893 8  23390912.695
                  23390916.941          46.100                          50.700
 113621929.338 7                  84847555.062 7  21621532.367
                  21621533.855          43.100                          45.800
 136648852.073 6                 102042996.969 6  26003411.133
                  26003417.766          38.400                          41.700
 139300697.651 5                 104023280.556 6  26508036.336
                  26508040.957          33.200                          36.600
 109824558.591 7                  82011861.961 8  20898919.156
                  20898923.844          46.000                          49.600
 121383270.763 7                  90643401.624 7  23098460.984
                  23098466.605          43.600                          46.800
 19  7  9 10 15 55.0000000  0 21G06G29R24R08R02G30R22G13G07R01G15G02
                                R23G05E12E04E11E36E19E14E09
 119279379.835 6  92945077.60944  89072362.896 7  22698122.164
  22698130.496    22698131.652          39.200          29.000          46.400
 118516036.341 6  92350316.83844                  22552883.344
  22552889.551                          41.700          27.000
 110109341.483 6  85640561.767 5                  20591003.563    20591002.410
  20591006.320                          37.900          31.200
 108599674.163 6  84466442.105 7                  20280214.609    20280214.215
  20280218.258                          41.700          43.900
 126414220.665 5  98322179.042 5                  23689971.945    23689970.625
  23689976.375                          33.600          33.600
 123596224.199 6  96308742.09943  92295885.358 7  23519566.047
  23519575.781    23519575.406          37.600          22.800          45.600
 120680208.297 6  93862398.786 6                  22607468.078    22607466.313
  22607473.176                          38.300          38.800
 113023901.917 7  88070590.58945                  21507727.117
  21507732.980                          44.500          32.100
 127241214.213 6  99148935.35343                  24213173.750
  24213180.418                          36.700          19.600
 105626928.330 7  82154320.157 6                  19759692.742    19759691.574
  19759697.914                          42.600          40.400
 126397935.080 6  98491832.93543                  24052702.219
  24052708.656                          37.000          20.600
 108474467.128 7  84525599.58346                  20641997.234
  20642000.219                          45.500          40.500
 102436433.084 7  79672880.725 6                  19149403.617    19149402.535
  19149410.199                          45.900          39.800
 107732754.154 7  83947689.90846                  20500855.484
  20500861.125                          47.500          40.000
 121240232.408 6                  90536550.741 7  23071248.875
                  23071251.801          40.900                          44.100
 122920587.360 7                  91791394.232 8  23390999.063
                  23391003.141          45.900                          50.700
 113621599.169 7                  84847308.505 7  21621469.594
                  21621470.852          43.200                          45.900
 136646340.389 6                 102041121.343 7  26002933.211
                  26002939.785          38.100                          42.100
 139303176.861 5                 104025131.919 6  26508507.945
                  26508512.816          32.800                          36.000
 109829124.229 7                  82015271.368 8  20899788.086
                  20899792.617          46.400                          49.300
 121381359.160 7                  90641974.130 7  23098097.070
                  23098102.852          43.700                          46.500
 19  7  9 10 15 56.0000000  0 21G06G29R24R08R02G30R22G13G07R01G15G02
                                R23G05E12E04E11E36E19E14E09
 119282055.258 6  92947162.35044  89074360.779 7  22698631.203
  22698639.457    22698640.766          39.400          27.900          46.600
 118514351.382 6  92349003.87944                  22552562.625
  22552568.629                          41.500          27.900
 110106513.153 6  85638361.943 5                  20590475.938    20590473.730
  20590477.430                          37.800          30.700
 108601909.075 6  84468180.389 7                  20280632.266    20280631.730
  20280635.457                          41.700          43.900
 126411041.139 5  98319706.091 5                  23689376.492    23689373.953
  23689380.730                          33.400          34.200
 123594677.498 6  96307536.86043  92294730.318 7  23519271.742
  23519281.301    23519281.176          37.600          22.500          45.700
 120684358.634 6  93865626.819 6                  22608245.414    22608244.496
  22608250.773                          38.000          38.800
 113021112.919 7  88068417.34545                  21507196.453
  21507202.207                          44.100          32.600
 127241182.740 6  99148910.82643                  24213167.305
  24213173.582                          36.400          19.600
 105626303.134 7  82153833.879 6                  19759574.984    19759574.637
  19759580.988                          42.100          40.500
 126394214.539 6  98488933.81743                  24051993.797
  24052000.746                          36.900          20.100
 108474639.965 7  84525734.25946                  20642029.875
  20642033.227                          45.600          40.500
 102437287.244 7  79673545.066 6                  19149563.219    19149562.207
  19149569.758                          45.800          39.900
 107732523.961 7  83947510.54346                  20500811.594
  20500817.316                          47.200          40.200
 121242467.065 6                  90538219.467 7  23071674.289
                  23071676.969          41.100                          44.300
 122921041.005 7                  91791732.987 8  23391085.203
                  23391089.609          46.200                          50.500
 113621269.673 7                  84847062.446 7  21621406.813
                  21621408.363          43.200                          45.800
 136643829.113 6                 102039246.037 6  26002455.203
                  26002462.023          38.700                          41.800
 139305656.382 5                 104026983.525 6  26508980.039
                  26508984.523          33.300                          36.500
 109833690.856 7                  82018681.526 8  20900657.148
                  20900661.625          46.800                          49.700
 121379448.093 7                  90640547.015 7  23097733.328
                  23097739.168          43.600                          46.600
 19  7  9 10 15 57.0000000  0 21G06G29R24R08R02G30R22G13G07R01G15G02
                                R23G05E12E04E11E36E19E14E09
 119284730.712 6  92949247.11344  89076358.682 7  22699139.516
  22699148.379    22699149.980          38.900          27.300          46.600
 118512666.760 6  92347691.18244                  22552241.266
  22552247.906                          41.300          28.500
 110103685.168 6  85636162.397 5                  20589946.664    20589945.230
  20589948.324                          37.600          31.000
 108604143.985 6  84469918.655 7                  20281050.203    20281048.941
  20281052.813                          41.700          44.200
 126407861.599 5  98317233.134 5                  23688780.148    23688778.359
  23688784.715                          33.200          34.100
 123593130.923 6  96306331.74143  92293575.424 7  23518976.117
  23518986.777    23518986.801          36.600          22.500          45.700
 120688509.004 6  93868854.860 6                  22609024.070    22609022.094
  22609028.086                          37.900          38.400
 113018324.113 7  88066244.25445                  21506665.875
  21506671.480                          43.900          33.500
 127241151.533 5  99148886.51843                  24213161.469
  24213168.121                          35.700          19.000
 105625678.169 7  82153347.811 6                  19759459.047    19759457.762
  19759464.289                          42.000          40.300
 126390493.922 6  98486034.60543                  24051285.836
  24051292.578                          37.000          19.900
 108474812.984 7  84525869.08346                  20642062.891
  20642066.223                          45.300          40.300
 102438142.034 7  79674209.903 6                  19149724.039    19149722.184
  19149729.617                          45.600          39.600
 107732293.776 7  83947331.17646                  20500768.273
  20500773.797                          47.100          40.100
 121244701.709 6                  90539888.198 7  23072099.438
                  23072102.191          40.700                          44.300
 122921494.680 7                  91792071.784 8  23391171.391
                  23391175.844          46.500                          50.300
 113620940.299 7                  84846816.478 7  21621344.172
                  21621345.590          43.100                          45.800
 136641317.695 6                 102037370.627 6  26001977.359
                  26001984.043          38.500                          41.800
 139308135.684 5                 104028834.919 6  26509451.531
                  26509456.398          32.900                          36.200
 109838258.002 7                  82022092.034 8  20901526.063
                  20901530.777          46.700                          49.800
 121377537.012 7                  90639119.918 7  23097369.797
                  23097375.504          43.800                          46.700
 19  7  9 10 15 58.0000000  0 21G06G29R24R08R02G30R22G13G07R01G15G02
                                R23G05E12E04E11E36E19E14E09
 119287406.429 6  92951332.07844  89078356.789 7  22699649.195
  22699657.816    22699659.066          38.400          27.200          46.600
 118510982.705 6  92346378.92644                  22551920.602
  22551927.574                          40.900          28.500
 110100857.740 6  85633963.292 5                  20589417.500    20589416.535
  20589419.602                          37.000          30.800
 108606379.152 6  84471657.115 7                  20281467.672    20281466.340
  20281470.367                          41.600          44.000
 126404682.325 5  98314760.320 5                  23688185.836    23688181.934
  23688188.641                          33.300          34.100
 123591584.741 6  96305126.94143  92292420.786 7  23518682.586
  23518692.504    23518692.566          36.200          22.800          45.600
 120692659.600 6  93872083.139 6                  22609800.172    22609799.582
  22609805.867                          38.000          38.600
 113015535.703 7  88064071.46845                  21506134.969
  21506140.430                          44.300          33.800
 127241120.746 5  99148862.51943                  24213156.000
  24213162.605                          35.700          19.300
 105625053.673 7  82152862.087 6                  19759342.391    19759340.988
  19759347.438                          42.100          40.200
 126386773.426 6  98483135.53943                  24050578.820
  24050584.594                          36.900          19.900
 108474986.411 7  84526004.22146                  20642095.555
  20642098.879                          45.700          40.000
 102438997.644 7  79674875.377 6                  19149882.984    19149882.207
  19149889.734                          45.500          39.700
 107732063.851 7  83947152.01846                  20500724.609
  20500730.363                          47.600          40.200
 121246936.637 6                  90541557.146 7  23072524.648
                  23072527.570          41.100                          44.500
 122921948.654 7                  91792410.791 8  23391258.008
                  23391262.152          46.400                          50.300
 113620611.266 7                  84846570.766 7  21621281.516
                  21621283.043          42.800                          45.800
 136638806.388 6                 102035495.311 7  26001499.492
                  26001506.145          38.600                          42.000
 139310614.974 5                 104030686.373 6  26509923.422
                  26509928.324          33.000                          36.800
 109842825.829 7                  82025503.083 8  20902395.273
                  20902399.926          46.600                          49.800
 121375626.142 7                  90637692.974 7  23097006.227
                  23097011.801          43.900                          46.600
 19  7  9 10 15 59.0000000  0 21G06G29R24R08R02G30R22G13G07R01G15G02
                                R23G05E12E04E11E36E19E14E09
 119290082.476 6  92953417.32644  89080355.126 7  22700158.547
  22700167.000    22700168.309          38.400          28.000          46.300
 118509299.215 6  92345067.11844                  22551600.758
  22551607.117                          41.300          26.900
 110098030.853 6  85631764.617 5                  20588889.203    20588887.699
  20588891.043                          37.300          30.900
 108608614.629 6  84473395.811 7                  20281884.250    20281883.902
  20281887.605                          41.800          43.700
 126401503.234 5  98312287.740 5                  23687588.359    23687586.102
  23687593.148                          33.500          34.000
 123590038.917 5  96303922.40043  92291266.476 7  23518388.891
  23518398.215    23518398.266          35.700          22.500          45.400
 120696810.509 6  93875311.584 6                  22610578.695    22610576.836
  22610583.207                          38.200          38.500
 113012747.750 7  88061899.03945                  21505604.031
  21505609.723                          43.900          33.600
 127241090.546 6  99148839.00143                  24213149.945
  24213156.613                          36.000          18.600
 105624429.699 7  82152376.770 6                  19759225.516    19759224.535
  19759230.656                          42.400          39.900
 126383053.108 6  98480236.58943                  24049870.180
  24049876.559                          37.600          19.600
 108475160.274 7  84526139.69346                  20642128.734
  20642132.207                          45.500          40.200
 102439854.132 7  79675541.553 6                  19150043.594    19150042.371
  19150049.875                          45.700          39.900
 107731834.198 8  83946973.06846                  20500680.648
  20500686.637                          48.000          40.200
 121249171.822 6                  90543226.290 7  23072949.867
                  23072952.652          40.800                          44.400
 122922402.931 7                  91792750.020 8  23391344.445
                  23391348.648          46.500                          50.500
 113620282.624 7                  84846325.362 7  21621218.867
                  21621220.438          42.600                          45.800
 136636295.237 6                 102033620.072 7  26001021.414
                  26001028.355          38.700                          42.200
 139313094.368 5                 104032537.851 6  26510395.297
                  26510399.926          33.300                          36.400
 109847394.431 7                  82028914.694 8  20903264.500
                  20903269.352          46.500                          49.600
 121373715.547 7                  90636266.230 7  23096642.484
                  23096648.148          43.800                          46.500
 19  7  9 10 16  0.0000000  0 21G06G29R24R08R02G30R22G13G07R01G15G02
                                R23G05E12E04E11E36E19E14E09
 119292758.834 6  92955502.78744  89082353.694 7  22700667.250
  22700676.309    22700677.633          37.700          27.700          46.500
 118507616.357 6  92343755.79944                  22551280.359
  22551286.820                          41.300          27.700
 110095204.602 6  85629566.368 5                  20588361.336    20588359.152
  20588362.613                          37.700          31.200
 108610850.376 7  84475134.717 7                  20282302.461    20282301.176
  20282305.129                          42.000          43.800
 126398324.384 5  98309815.324 5                  23686992.031    23686990.383
  23686997.988                          33.200          34.200
 123588493.576 6  96302718.22843  92290112.460 7  23518095.102
  23518104.195    23518104.277          36.300          21.800          45.300
 120700961.715 6  93878540.293 6                  22611356.258    22611354.375
  22611361.070                          38.100          38.400
 113009960.209 7  88059726.92645                  21505073.586
  21505079.586                          44.000          33.100
 127241060.845 5  99148815.86443                  24213144.078
  24213150.910                          35.500          18.300
 105623806.206 7  82151891.830 6                  19759108.891    19759107.816
  19759114.137                          42.500          40.000
 126379332.948 6  98477337.76043                  24049162.344
  24049168.887                          37.700          20.400
 108475334.608 7  84526275.53846                  20642161.734
  20642165.172                          45.800          40.900
 102440711.510 7  79676208.369 6                  19150203.578    19150202.637
  19150209.883                          45.700          40.000
 107731604.837 8  83946794.34246                  20500637.039
  20500642.793                          48.000          40.200
 121251407.320 6                  90544895.636 7  23073375.383
                  23073378.246          41.200                          44.100
 122922857.518 7                  91793089.478 8  23391430.703
                  23391435.191          46.100                          50.300
 113619954.386 7                  84846080.256 7  21621156.938
                  21621158.004          42.900                          45.800
 136633784.199 6                 102031744.979 7  26000543.773
                  26000550.441          38.700                          42.600
 139315573.754 5                 104034389.349 6  26510867.242
                  26510871.730          32.800                          36.100
 109851963.744 7                  82032326.856 8  20904134.125
                  20904138.957          46.800                          49.800
 121371805.208 7                  90634839.672 7  23096278.852
                  23096284.637          43.900                          46.400
 19  7  9 10 16  1.0000000  0 21G06G29R24R08R02G30R22G13G07R01G15G02
                                R23G05E12E04E11E36E19E14E09
 119295435.445 6  92957588.45844  89084352.477 7  22701176.594
  22701185.859    22701187.004          37.500          27.600          46.600
 118505934.058 6  92342444.91144                  22550960.289
  22550966.660                          41.400          27.200
 110092378.916 6  85627368.637 5                  20587831.938    20587830.387
  20587834.211                          37.600          31.300
 108613086.384 7  84476873.850 7                  20282719.344    20282719.184
  20282722.844                          42.000          44.300
 126395145.819 5  98307343.042 5                  23686396.961    23686395.688
  23686402.098                          33.200          34.300
 123586948.582 6  96301514.35943  92288958.746 7  23517800.961
  23517810.324    23517810.230          36.700          22.800          45.400
 120705113.186 6  93881769.228 6                  22612133.570    22612132.250
  22612138.566                          38.400          38.700
 113007173.091 7  88057555.14245                  21504543.242
  21504549.215                          44.300          32.600
 127241031.640 5  99148793.09843                  24213138.531
  24213145.492                          35.800          18.300
 105623183.247 7  82151407.299 6                  19758992.125    19758991.238
  19758997.512                          42.100          40.100
 126375612.940 6  98474439.05943                  24048454.336
  24048461.473                          37.700          19.900
 108475509.373 7  84526411.72246                  20642195.813
  20642198.387                          45.300          40.200
 102441569.739 7  79676875.894 6                  19150364.391    19150362.910
  19150370.230                          45.900          39.700
 107731375.735 7  83946615.82146                  20500593.500
  20500599.316                          47.700          40.300
 121253643.104 6                  90546565.205 7  23073800.922
                  23073803.664          41.200                          44.100
 122923312.383 7                  91793429.158 8  23391517.250
                  23391521.703          46.000                          50.400
 113619626.562 7                  84845835.446 7  21621094.297
                  21621095.535          43.000                          45.800
 136631273.292 6                 102029869.949 6  26000066.195
                  26000072.855          38.500                          41.900
 139318053.245 5                 104036240.911 6  26511338.789
                  26511343.582          33.300                          36.100
 109856533.817 7                  82035739.565 8  20905003.680
                  20905008.469          46.200                          49.500
 121369895.107 7                  90633413.308 7  23095915.547
                  23095921.254          43.500                          46.400
 19  7  9 10 16  2.0000000  0 21G06G29R24R08R02G30R22G13G07R01G15G02
                                R23G05E12E04E11E36E19E14E09
 119298112.403 6  92959674.41544  89086351.510 7  22701686.664
  22701695.039    22701696.434          38.000          28.000          46.400
 118504252.401 6  92341134.52944                  22550640.406
  22550646.547                          41.800          27.500
 110089553.864 6  85625171.405 5                  20587301.977    20587302.211
  20587305.906                          37.600          31.000
 108615322.699 7  84478613.193 7                  20283137.594    20283136.613
  20283140.391                          42.200          44.300
 126391967.412 5  98304870.959 5                  23685801.578    23685799.672
  23685806.211                          33.100          35.000
 123585404.075 6  96300310.84343  92287805.371 7  23517507.367
  23517515.926    23517516.246          37.100          22.600          45.400
 120709264.942 6  93884998.396 6                  22612911.516    22612909.844
  22612916.348                          38.100          38.200
 113004386.474 7  88055383.75445                  21504013.352
  21504019.063                          44.500          32.400
 127241003.008 5  99148770.82343                  24213133.445
  24213140.121                          35.500          18.600
 105622560.799 7  82150923.181 6                  19758875.398    19758874.793
  19758881.328                          42.300          40.000
 126371893.108 6  98471540.49443                  24047746.391
  24047753.219                          37.700          18.600
 108475684.616 7  84526548.27146                  20642228.453
  20642232.090                          45.800          40.500
 102442428.861 7  79677544.108 6                  19150525.055    19150523.363
  19150530.926                          45.300          39.900
 107731146.927 7  83946437.53246                  20500550.078
  20500555.816                          47.800          40.500
 121255879.171 6                  90548234.999 7  23074226.414
                  23074229.066          41.400                          44.200
 122923767.596 7                  91793769.089 8  23391604.234
                  23391608.289          45.500                          50.800
 113619299.130 7                  84845590.932 7  21621031.891
                  21621033.277          43.100                          45.800
 136628762.570 6                 102027995.068 6  25999588.250
                  25999594.938          39.000                          41.900
 139320532.746 5                 104038092.512 6  26511810.484
                  26511815.223          33.000                          36.600
 109861104.650 7                  82039152.849 8  20905873.500
                  20905878.336          46.600                          49.300
 121367985.315 7                  90631987.154 7  23095552.109
                  23095557.836          43.600                          46.700
 19  7  9 10 16  3.0000000  0 21G06G29R24R08R02G30R22G13G07R01G15G02
                                R23G05E12E04E11E36E19E14E09
 119300789.696 6  92961760.60544  89088350.781 7  22702196.203
  22702205.133    22702205.867          38.300          28.900          46.500
 118502571.364 6  92339824.63244                  22550320.492
  22550326.652                          41.300          26.700
 110086729.468 6  85622974.625 5                  20586775.453    20586773.691
  20586777.898                          37.600          31.200
 108617559.326 7  84480352.815 7                  20283554.984    20283553.910
  20283558.125                          42.300          44.100
 126388789.292 5  98302399.136 5                  23685206.570    23685203.609
  23685210.859                          32.800          34.500
 123583859.943 6  96299107.62143  92286652.300 7  23517213.867
  23517222.664    23517222.441          37.100          22.500          45.500
 120713417.028 6  93888227.775 6                  22613689.664    22613687.711
  22613694.043                          38.400          38.100
 113001600.325 7  88053212.73445                  21503483.289
  21503488.641                          44.500          33.300
 127240974.945 6  99148748.99043                  24213128.570
  24213134.996                          36.600          19.000
 105621938.915 7  82150439.484 6                  19758759.328    19758758.160
  19758764.957                          42.500          40.100
 126368173.482 6  98468642.10943                  24047038.617
  24047045.496                          37.600          19.300
 108475860.328 7  84526685.18946                  20642262.047
  20642265.363                          45.500          40.800
 102443288.873 7  79678212.986 6                  19150685.438    19150684.355
  19150691.703                          45.400          39.800
 107730918.437 7  83946259.48446                  20500506.188
  20500511.980                          47.800          40.400
 121258115.547 6                  90549905.035 7  23074651.758
                  23074654.602          40.800                          43.800
 122924223.149 7                  91794109.264 8  23391690.836
                  23391695.012          45.700                          50.900
 113618972.121 7                  84845346.736 7  21620969.586
                  21620971.078          42.600                          45.800
 136626252.037 6                 102026120.296 7  25999110.586
                  25999117.117          38.500                          42.100
 139323012.353 5                 104039944.141 6  26512282.445
                  26512287.188          33.200                          36.800
 109865676.257 7                  82042566.702 8  20906743.531
                  20906748.258          46.300                          48.800
 121366075.796 7                  90630561.216 7  23095188.633
                  23095194.332          43.400                          46.600
 19  7  9 10 16  4.0000000  0 21G06G29R24R08R02G30R22G13G07R01G15G02
                                R23G05E12E04E11E36E19E14E09
 119303467.262 6  92963847.03144  89090350.273 7  22702705.766
  22702714.656    22702715.320          38.500          28.400          46.300
 118500890.898 6  92338515.17844                  22550000.891
  22550006.969                          41.100          27.400
 110083905.623 6  85620778.331 5                  20586247.273    20586245.535
  20586249.414                          37.400          31.500
 108619796.273 7  84482092.633 7                  20283972.391    20283971.949
  20283975.773                          42.200          44.000
 126385611.444 5  98299927.432 5                  23684610.281    23684608.375
  23684615.465                          33.400          34.700
 123582316.252 6  96297904.75343  92285499.536 7  23516920.273
  23516928.723    23516928.668          37.000          23.900          45.300
 120717569.376 6  93891457.355 6                  22614467.008    22614465.832
  22614472.082                          38.400          38.200
 112998814.564 7  88051042.00045                  21502953.273
  21502958.527                          44.700          33.300
 127240947.320 6  99148727.41943                  24213123.641
  24213129.359                          36.400          19.600
 105621317.522 7  82149956.197 6                  19758642.906    19758641.973
  19758648.375                          42.600          40.500
 126364453.996 6  98465743.77843                  24046330.766
  24046337.840                          37.800          19.000
 108476036.472 7  84526822.45346                  20642296.203
  20642299.059                          45.200          41.000
 102444149.709 7  79678882.532 6                  19150846.984    19150845.246
  19150852.680                          45.800          39.900
 107730690.194 7  83946081.63446                  20500462.859
  20500468.668                          47.700          40.400
 121260352.199 6                  90551575.237 7  23075077.898
                  23075080.309          41.000                          43.900
 122924678.963 7                  91794449.656 8  23391777.711
                  23391781.883          46.000                          50.900
 113618645.464 7                  84845102.818 7  21620907.461
                  21620908.867          42.600                          45.800
 136623741.578 6                 102024245.607 7  25998632.922
                  25998639.555          39.100                          42.000
 139325491.991 5                 104041795.834 6  26512754.320
                  26512759.012          32.900                          36.900
 109870248.573 7                  82045981.110 8  20907613.602
                  20907618.406          46.200                          49.000
 121364166.498 7                  90629135.441 7  23094825.617
                  23094831.109          43.600                          46.800
 19  7  9 10 16  5.0000000  0 21G06G29R24R08R02G30R22G13G07R01G15G02
                                R23G05E12E04E11E36E19E14E09
 119306145.189 6  92965933.72244  89092349.993 7  22703215.258
  22703223.930    22703224.902          38.600          28.500          46.700
 118499211.035 6  92337206.19044                  22549680.836
  22549687.188                          41.100          27.300
 110081082.417 6  85618582.475 5                  20585719.430    20585718.113
  20585721.520                          37.900          31.300
 108622033.538 6  84483832.747 7                  20284390.484    20284389.715
  20284393.371                          41.800          43.800
 126382433.857 5  98297455.962 5                  23684014.609    23684013.313
  23684020.008                          33.500          34.500
 123580772.967 6  96296702.18843  92284347.067 7  23516625.758
  23516635.141    23516634.953          36.900          22.300          45.400
 120721722.013 6  93894687.226 6                  22615244.789    22615243.871
  22615250.020                          38.000          38.300
 112996029.262 7  88048871.63745                  21502422.867
  21502428.781                          44.300          32.700
 127240920.234 6  99148706.33243                  24213117.828
  24213124.262                          36.500          19.300
 105620696.664 7  82149473.307 6                  19758527.141    19758526.020
  19758532.410                          42.900          40.500
 126360734.674 6  98462845.60743                  24045622.805
  24045629.676                          37.200          19.300
 108476213.068 7  84526960.05846                  20642329.492
  20642332.547                          44.900          40.800
 102445011.423 7  79679552.762 6                  19151007.656    19151006.223
  19151013.684                          45.900          40.000
 107730462.239 7  83945904.01046                  20500419.555
  20500425.184                          47.900          40.300
 121262589.107 6                  90553245.693 7  23075503.328
                  23075505.816          40.600                          43.600
 122925135.127 7                  91794790.285 8  23391864.422
                  23391868.551          46.000                          50.900
 113618319.249 7                  84844859.206 7  21620845.695
                  21620846.797          42.400                          45.700
 136621231.301 6                 102022371.052 6  25998155.133
                  25998161.777          38.900                          41.800
 139327971.634 5                 104043647.516 6  26513226.258
                  26513231.219          33.200                          36.300
 109874821.653 7                  82049396.067 8  20908483.797
                  20908488.582          46.100                          49.100
 121362257.473 7                  90627709.882 7  23094461.984
                  23094467.680          43.100                          46.800
 19  7  9 10 16  6.0000000  0 21G06G29R24R08R02G30R22G13G07R01G15G02
                                R23G05E12E04E11E36E19E14E09
 119308823.402 6  92968020.63844  89094349.947 7  22703724.508
  22703733.379    22703734.570          38.900          28.000          46.800
 118497531.787 6  92335897.68744                  22549361.336
  22549367.715                          41.400          28.200
 110078259.825 6  85616387.174 5                  20585191.016    20585190.145
  20585193.664                          37.700          31.500
 108624271.113 6  84485573.090 7                  20284808.516    20284807.512
  20284811.242                          41.800          43.800
 126379256.518 5  98294984.742 5                  23683421.430    23683417.457
  23683424.461                          33.100          34.600
 123579230.095 6  96295499.96443  92283194.945 7  23516332.234
  23516341.723    23516341.305          36.900          22.800          45.400
 120725874.949 6  93897917.277 6                  22616022.242    22616021.770
  22616028.031                          38.000          38.400
 112993244.407 7  88046701.62345                  21501893.086
  21501898.672                          44.200          32.600
 127240893.720 6  99148685.67243                  24213113.156
  24213119.301                          36.500          20.100
 105620076.317 7  82148990.813 6                  19758411.398    19758409.527
  19758416.371                          42.500          40.400
 126357015.521 6  98459947.55543                  24044915.852
  24044922.027                          36.900          19.600
 108476390.154 7  84527098.04746                  20642362.906
  20642366.125                          44.500          40.200
 102445874.026 7  79680223.669 6                  19151167.805    19151167.449
  19151174.863                          46.000          40.200
 107730234.594 8  83945726.62546                  20500376.578
  20500382.125                          48.000          40.500
 121264826.363 6                  90554916.359 7  23075929.211
                  23075931.719          40.700                          43.800
 122925591.568 7                  91795131.151 8  23391951.203
                  23391955.391          46.200                          50.900
 113617993.412 7                  84844615.888 7  21620783.531
                  21620784.750          43.300                          45.700
 136618721.162 6                 102020496.580 7  25997677.734
                  25997684.004          38.700                          42.300
 139330451.336 5                 104045499.270 6  26513698.648
                  26513702.949          33.000                          36.300
 109879395.505 7                  82052811.590 8  20909354.125
                  20909358.957          46.400                          49.400
 121360348.716 7                  90626284.521 7  23094098.898
                  23094104.523          43.100                          46.600
 19  7  9 10 16  7.0000000  0 21G06G29R24R08R02G30R22G13G07R01G15G02
                                R23G05E12E04E11E36E19E14E09
 119311501.878 6  92970107.75044  89096350.132 7  22704234.633
  22704243.223    22704244.160          38.900          28.600          46.900
 118495853.126 6  92334589.64444                  22549041.844
  22549047.969                          40.800          28.000
 110075437.792 6  85614192.190 5                  20584663.594    20584662.629
  20584666.379                          37.700          31.400
 108626508.948 6  84487313.622 7                  20285225.242    20285225.270
  20285229.453                          41.600          43.600
 126376079.424 5  98292513.658 5                  23682825.211    23682822.039
  23682829.176                          32.900          34.600
 123577687.619 6  96294298.04844  92282043.103 7  23516038.688
  23516048.355    23516047.887          36.300          24.700          45.600
 120730028.189 6  93901147.570 6                  22616801.305    22616799.914
  22616805.945                          37.900          38.800
 112990459.988 7  88044531.95345                  21501363.234
  21501368.871                          44.300          33.000
 127240867.705 6  99148665.39842                  24213107.680
  24213114.305                          36.500          17.800
 105619456.484 7  82148508.733 6                  19758294.805    19758294.012
  19758300.582                          42.300          40.100
 126353296.548 6  98457049.68943                  24044208.133
  24044214.613                          37.100          20.600
 108476567.663 7  84527236.36746                  20642396.844
  20642399.977                          44.700          40.600
 102446737.495 7  79680895.261 6                  19151330.180    19151328.957
  19151336.668                          46.000          40.200
 107730007.210 7  83945549.44346                  20500332.828
  20500338.664                          47.800          40.200
 121267063.864 6                  90556587.226 7  23076355.063
                  23076357.531          41.100                          44.100
 122926048.333 7                  91795472.243 8  23392038.305
                  23392042.430          46.000                          50.800
 113617667.985 7                  84844372.879 7  21620721.492
                  21620722.813          42.700                          45.600
 136616211.155 6                 102018622.226 7  25997200.055
                  25997206.512          39.100                          42.500
 139332931.128 5                 104047351.036 6  26514170.180
                  26514174.898          33.300                          36.000
 109883970.051 7                  82056227.673 8  20910224.813
                  20910229.484          46.100                          49.200
 121358440.232 7                  90624859.342 7  23093735.758
                  23093741.527          43.100                          46.400
 19  7  9 10 16  8.0000000  0 21G06G29R24R08R02G30R22G13G07R01G15G02
                                R23G05E12E04E11E36E19E14E09
 119314180.690 6  92972195.13144  89098350.545 7  22704744.477
  22704753.445    22704753.840          39.200          27.900          46.300
 118494175.040 6  92333282.04644                  22548722.430
  22548728.820                          41.300          28.100
 110072616.404 6  85611997.823 5                  20584135.734    20584134.980
  20584138.773                          38.200          31.500
 108628747.108 7  84489054.397 7                  20285643.617    20285643.363
  20285647.227                          42.200          43.600
 126372902.613 5  98290042.829 5                  23682229.172    23682226.586
  23682233.746                          32.900          34.700
 123576145.601 6  96293096.46143  92280891.583 7  23515744.891
  23515754.328    23515754.434          36.500          23.000          45.600
 120734181.735 6  93904378.102 6                  22617578.563    22617577.738
  22617584.188                          38.100          38.800
 112987676.029 7  88042362.63245                  21500833.219
  21500839.086                          43.800          32.300
 127240842.222 6  99148645.52143                  24213102.359
  24213110.074                          36.700          18.600
 105618837.190 7  82148027.040 6                  19758178.961    19758178.285
  19758184.473                          42.000          40.000
 126349577.714 6  98454151.90343                  24043500.297
  24043506.898                          36.900          21.100
 108476745.646 7  84527375.05146                  20642430.836
  20642433.625                          44.600          40.200
 102447601.861 7  79681567.550 6                  19151491.625    19151490.473
  19151497.770                          46.300          40.100
 107729780.112 7  83945372.48346                  20500289.688
  20500295.516                          47.700          40.600
 121269301.692 6                  90558258.321 7  23076780.578
                  23076783.344          40.700                          44.300
 122926505.441 7                  91795813.576 8  23392125.234
                  23392129.344          45.700                          50.300
 113617342.978 7                  84844130.181 7  21620659.844
                  21620661.086          43.000                          45.800
 136613701.278 6                 102016747.983 7  25996722.422
                  25996728.906          38.800                          42.500
 139335410.959 5                 104049202.867 6  26514642.297
                  26514646.691          32.800                          36.400
 109888545.382 7                  82059644.314 8  20911095.242
                  20911100.133          46.700                          49.300
 121356532.018 7                  90623434.384 7  23093372.719
                  23093378.309          43.100                          46.600
 19  7  9 10 16  9.0000000  0 21G06G29R24R08R02G30R22G13G07R01G15G02
                                R23G05E12E04E11E36E19E14E09
 119316859.800 6  92974282.75944  89100351.155 7  22705254.258
  22705263.023    22705263.488          38.800          28.100          46.200
 118492497.568 6  92331974.91144                  22548403.859
  22548409.578                          41.500          27.900
 110069795.529 6  85609803.799 5                  20583608.109    20583607.500
  20583611.074                          37.900          30.900
 108630985.481 7  84490795.376 7                  20286061.891    20286061.449
  20286065.223                          42.300          43.500
 126369726.065 5  98287572.153 5                  23681632.836    23681631.492
  23681638.379                          33.300          34.700
 123574603.942 6  96291895.15943  92279740.350 7  23515451.867
  23515461.414    23515460.922          36.800          22.500          45.400
 120738335.520 6  93907608.806 6                  22618357.766    22618356.070
  22618362.348                          38.000          38.700
 112984892.478 7  88040193.62745                  21500303.773
  21500309.563                          43.700          32.600
 127240817.216 6  99148626.05443                  24213098.125
  24213104.832                          37.000          19.000
 105618218.343 7  82147545.705 6                  19758063.555    19758062.410
  19758068.793                          42.000          40.200
 126345859.046 6  98451254.22343                  24042792.297
  24042799.277                          36.900          20.900
 108476924.053 7  84527514.07146                  20642464.602
  20642467.551                          44.400          39.900
 102448467.091 7  79682240.498 6                  19151653.023    19151652.199
  19151659.387                          46.000          39.900
 107729553.267 7  83945195.71846                  20500246.516
  20500252.480                          47.800          40.300
 121271539.752 6                  90559929.596 7  23077206.484
                  23077209.148          40.900                          44.300
 122926962.803 7                  91796155.116 8  23392212.070
                  23392216.305          46.000                          50.300
 113617018.329 7                  84843887.739 7  21620598.023
                  21620599.242          42.700                          45.900
 136611191.554 6                 102014873.835 7  25996244.797
                  25996251.355          38.500                          42.100
 139337890.791 5                 104051054.690 6  26515114.328
                  26515118.582          32.800                          36.500
 109893121.421 7                  82063061.487 8  20911966.125
                  20911970.797          46.800                          49.400
 121354624.039 7                  90622009.580 7  23093009.773
                  23093015.301          43.500                          46.600
 19  7  9 10 16 10.0000000  0 21G06G29R24R08R02G30R22G13G07R01G15G02
                                R23G05E12E04E11E36E19E14E09
 119319539.232 6  92976370.62744  89102352.037 7  22705764.563
  22705772.906    22705773.398          39.000          28.700          46.200
 118490820.692 6  92330668.25844                  22548084.383
  22548090.723                          41.600          28.300
 110066975.311 6  85607610.305 5                  20583079.867    20583079.984
  20583083.531                          38.100          31.500
 108633224.172 7  84492536.577 7                  20286480.039    20286479.551
  20286483.164                          42.400          43.600
 126366549.789 5  98285101.725 5                  23681037.672    23681036.164
  23681043.223                          32.600          35.100
 123573062.731 6  96290694.23843  92278589.454 7  23515157.781
  23515168.527    23515167.672          36.600          22.300          45.700
 120742489.660 6  93910839.814 6                  22619135.547    22619134.273
  22619140.742                          37.800          38.700
 112982109.408 7  88038024.99945                  21499774.641
  21499779.922                          44.000          32.700
 127240792.810 6  99148607.00143                  24213092.852
  24213100.191                          36.600          19.300
 105617600.072 7  82147064.847 6                  19757948.242    19757946.676
  19757953.145                          42.600          40.100
 126342140.593 6  98448356.74843                  24042085.383
  24042091.746                          37.000          20.100
 108477102.932 7  84527653.44946                  20642498.656
  20642501.629                          44.600          40.200
 102449333.229 7  79682914.184 6                  19151815.500    19151813.879
  19151821.527                          45.900          39.900
 107729326.737 7  83945019.19946                  20500203.531
  20500209.484                          47.800          40.200
 121273778.132 6                  90561601.125 7  23077632.234
                  23077635.066          41.200                          44.500
 122927420.496 7                  91796496.915 8  23392299.359
                  23392303.563          46.100                          50.500
 113616694.114 7                  84843645.616 7  21620536.336
                  21620537.492          43.000                          45.600
 136608681.974 6                 102012999.812 7  25995767.219
                  25995773.914          38.700                          42.300
 139340370.749 5                 104052906.589 6  26515585.703
                  26515590.539          33.300                          36.000
 109897698.251 7                  82066479.238 8  20912837.023
                  20912841.715          46.400                          49.300
 121352716.337 7                  90620584.999 7  23092646.477
                  23092652.195          43.400                          46.400
 19  7  9 10 16 11.0000000  0 21G06G29R24R08R02G30R22G13G07R01G15G02
                                R23G05E12E04E11E36E19E14E09
 119322218.951 6  92978458.72544  89104353.132 7  22706274.547
  22706282.980    22706283.309          38.600          28.200          46.100
 118489144.427 6  92329362.06944                  22547765.031
  22547771.953                          41.500          28.400
 110064155.694 6  85605417.283 5                  20582554.242    20582552.738
  20582556.176                          38.100          31.100
 108635463.119 6  84494277.971 7                  20286897.797    20286897.379
  20286901.230                          41.900          43.900
 126363373.690 5  98282631.397 5                  23680441.633    23680440.711
  23680448.414                          32.400          35.100
 123571521.893 6  96289493.58143  92277438.841 7  23514865.258
  23514874.926    23514874.527          37.000          22.200          45.600
 120746644.010 6  93914070.959 6                  22619914.313    22619912.688
  22619918.867                          37.900          38.300
 112979326.757 7  88035856.71245                  21499244.422
  21499250.328                          44.000          33.600
 127240768.858 6  99148588.35843                  24213088.344
  24213095.492                          36.400          19.900
 105616982.303 7  82146584.343 6                  19757831.406    19757831.152
  19757837.645                          42.800          40.300
 126338422.270 6  98445459.32643                  24041376.992
  24041383.996                          36.900          19.900
 108477282.246 7  84527793.18146                  20642532.352
  20642535.656                          45.000          40.600
 102450200.207 7  79683588.474 6                  19151977.242    19151976.137
  19151983.934                          46.100          39.900
 107729100.486 7  83944842.90746                  20500160.078
  20500165.926                          47.800          40.400
 121276016.824 6                  90563272.857 7  23078058.492
                  23078061.168          41.000                          43.900
 122927878.494 7                  91796838.921 8  23392386.492
                  23392390.539          45.900                          50.700
 113616370.238 7                  84843403.766 7  21620474.750
                  21620475.816          42.500                          45.800
 136606172.523 6                 102011125.873 7  25995289.766
                  25995296.324          38.700                          42.400
 139342850.692 5                 104054758.479 6  26516057.578
                  26516062.559          32.900                          36.300
 109902275.799 7                  82069897.538 8  20913708.203
                  20913712.922          46.100                          48.900
 121350808.881 7                  90619160.613 7  23092283.430
                  23092289.137          43.500                          46.700
 19  7  9 10 16 12.0000000  0 21G06G29R24R08R02G30R22G13G07R01G15G02
                                R23G05E12E04E11E36E19E14E09
 119324899.001 6  92980547.08444  89106354.471 7  22706784.148
  22706792.523    22706793.191          38.900          27.700          46.300
 118487468.792 6  92328056.38844                  22547446.656
  22547453.234                          41.500          28.200
 110061336.724 6  85603224.726 5                  20582026.906    20582025.262
  20582029.047                          37.800          31.200
 108637702.378 6  84496019.609 7                  20287315.500    20287315.785
  20287319.461                          41.700          43.700
 126360197.844 5  98280161.326 5                  23679846.820    23679845.758
  23679853.480                          32.900          34.300
 123569981.559 6  96288293.31944  92276288.574 7  23514572.672
  23514581.668    23514581.340          37.100          24.100          45.500
 120750798.669 6  93917302.388 6                  22620691.570    22620690.887
  22620697.152                          38.100          38.700
 112976544.596 7  88033688.79645                  21498714.883
  21498720.773                          44.300          32.800
 127240745.473 6  99148570.17843                  24213084.313
  24213091.242                          36.300          19.300
 105616365.054 7  82146104.264 6                  19757716.117    19757715.512
  19757722.078                          42.900          40.100
 126334704.164 6  98442562.10043                  24040669.438
  24040676.289                          37.000          19.600
 108477462.051 7  84527933.28546                  20642566.641
  20642570.074                          44.800          40.800
 102451068.088 7  79684263.482 6                  19152139.570    19152138.652
  19152146.160                          46.000          39.400
 107728874.539 7  83944666.83846                  20500117.250
  20500123.316                          47.800          40.600
 121278255.776 6                  90564944.818 7  23078484.492
                  23078487.363          40.900                          43.800
 122928336.828 7                  91797181.182 8  23392473.523
                  23392477.906          46.200                          50.700
 113616046.807 7                  84843162.249 7  21620413.148
                  21620414.328          42.800                          45.800
 136603663.288 6                 102009252.078 7  25994812.086
                  25994819.023          38.700                          42.500
 139345330.759 5                 104056610.464 6  26516529.492
                  26516534.395          32.900                          36.300
 109906854.108 7                  82073316.410 8  20914579.320
                  20914584.223          46.300                          49.500
 121348901.743 7                  90617736.432 7  23091920.633
                  23091926.359          43.200                          46.800
 19  7  9 10 16 13.0000000  0 21G06G29R24R08R02G30R22G13G07R01G15G02
                                R23G05E12E04E11E36E19E14E09
 119327579.371 6  92982635.67144  89108356.045 7  22707293.766
  22707302.855    22707303.066          39.200          28.100          46.300
 118485793.740 6  92326751.14844                  22547128.320
  22547134.305                          41.800          28.100
 110058518.376 6  85601032.664 5                  20581499.711    20581498.582
  20581501.797                          37.800          31.200
 108639941.954 6  84497761.515 7                  20287734.742    20287734.020
  20287737.531                          41.400          43.600
 126357022.274 5  98277691.411 5                  23679251.641    23679251.379
  23679258.457                          32.900          34.300
 123568441.605 6  96287093.35243  92275138.600 7  23514279.289
  23514288.680    23514288.387          37.100          22.500          45.300
 120754953.624 6  93920534.014 6                  22621470.422    22621469.102
  22621475.473                          38.100          38.300
 112973762.857 7  88031521.19945                  21498185.656
  21498191.281                          44.000          32.800
 127240722.577 6  99148552.29943                  24213080.250
  24213086.645                          36.900          19.000
 105615748.326 7  82145624.572 6                  19757601.898    19757599.910
  19757606.504                          42.600          40.500
 126330986.205 6  98439664.98543                  24039961.320
  24039968.660                          36.700          20.600
 108477642.275 7  84528073.72446                  20642601.180
  20642604.465                          45.000          39.900
 102451936.844 7  79684939.188 6                  19152302.016    19152300.887
  19152308.453                          46.300          39.400
 107728648.850 8  83944490.97746                  20500074.648
  20500080.305                          48.000          40.300
 121280495.019 6                  90566616.983 7  23078910.734
                  23078913.332          40.900                          43.800
 122928795.482 7                  91797523.671 8  23392560.867
                  23392565.164          46.200                          50.700
 113615723.789 7                  84842921.037 7  21620351.969
                  21620352.871          43.200                          45.800
 136601154.147 6                 102007378.384 7  25994334.609
                  25994341.594          38.400                          42.600
 139347810.79415                 104058462.488 6  26517001.664
                  26517006.250          32.900                          36.600
 109911433.172 7                  82076735.841 8  20915450.859
                  20915455.563          45.900                          49.700
 121346994.833 7                  90616312.445 7  23091557.602
                  23091563.422          42.900                          46.300
 19  7  9 10 16 14.0000000  0 21G06G29R24R08R02G30R22G13G07R01G15G02
                                R23G05E12E04E11E36E19E14E09
 119330259.985 6  92984724.46044  89110357.797 7  22707804.188
  22707812.977    22707813.477          39.100          28.500          46.300
 118484119.258 6  92325446.36744                  22546809.672
  22546815.723                          41.500          28.200
 110055700.550 6  85598841.049 5                  20580972.063    20580971.758
  20580974.848                          37.700          31.800
 108642181.798 6  84499503.621 7                  20288152.672    20288152.254
  20288155.770                          41.400          43.600
 126353846.869 5  98275221.689 5                  23678656.539    23678655.734
  23678662.898                          32.700          34.500
 123566901.986 6  96285893.64243  92273988.905 7  23513986.547
  23513995.918    23513995.344          36.800          22.500          45.500
 120759108.838 6  93923765.853 6                  22622249.063    22622247.836
  22622254.309                          38.400          38.600
 112970981.498 7  88029353.90345                  21497656.242
  21497662.008                          44.200          33.600
 127240700.176 6  99148534.84743                  24213076.055
  24213082.773                          36.900          19.300
 105615132.050 7  82145145.250 6                  19757486.125    19757484.535
  19757491.398                          42.500          40.500
 126327268.348 6  98436767.98743                  24039255.656
  24039261.707                          37.500          19.900
 108477822.942 7  84528214.49946                  20642635.453
  20642638.820                          45.200          40.000
 102452806.418 7  79685615.552 6                  19152464.180    19152463.449
  19152471.238                          46.100          39.700
 107728423.415 8  83944315.31246                  20500031.422
  20500037.285                          48.000          40.500
 121282734.525 6                  90568289.329 7  23079336.828
                  23079339.645          41.200                          43.900
 122929254.387 7                  91797866.362 8  23392648.039
                  23392652.523          46.500                          50.600
 113615401.131 7                  84842680.073 7  21620290.328
                  21620291.406          42.700                          45.700
 136598645.122 6                 102005504.763 7  25993856.961
                  25993863.938          38.200                          42.600
 139350290.890 5                 104060314.497 6  26517473.688
                  26517478.539          33.200                          37.100
 109916012.930 7                  82080155.788 8  20916322.602
                  20916326.949          45.700                          49.700
 121345088.137 7                  90614888.621 7  23091194.781
                  23091200.602          43.100                          46.800
 19  7  9 10 16 15.0000000  0 21G06G29R24R08R02G30R22G13G07R01G15G02
                                R23G05E12E04E11E36E19E14E09
 119332940.932 6  92986813.50844  89112359.821 7  22708314.438
  22708323.141    22708323.738          38.900          28.100          46.300
 118482445.394 6  92324142.05644                  22546490.797
  22546497.188                          41.800          27.100
 110052883.392 6  85596649.938 5                  20580445.883    20580444.871
  20580447.945                          37.700          31.700
 108644421.984 6  84501245.990 7                  20288571.258    20288570.418
  20288574.289                          41.400          43.500
 126350671.804 5  98272752.200 5                  23678061.344    23678060.727
  23678067.723                          32.300          35.000
 123565362.847 6  96284694.32743  92272839.549 7  23513693.727
  23513702.758    23513702.445          37.000          22.300          45.700
 120763264.392 6  93926997.931 6                  22623027.156    22623026.332
  22623032.570                          38.200          38.700
 112968200.631 7  88027187.00345                  21497127.344
  21497132.719                          44.200          33.900
 127240678.390 6  99148517.87743                  24213071.516
  24213078.270                          36.700          19.300
 105614516.340 7  82144666.401 6                  19757371.414    19757369.660
  19757376.266                          42.600          40.400
 126323550.723 6  98433871.11843                  24038547.602
  24038553.863                          37.200          19.600
 108478004.083 7  84528355.64846                  20642670.344
  20642673.336                          45.400          40.200
 102453676.927 7  79686292.597 6                  19152626.813    19152626.012
  19152633.867                          45.800          40.000
 107728198.321 8  83944139.91546                  20499988.367
  20499994.148                          48.200          40.300
 121284974.323 6                  90569961.927 7  23079763.008
                  23079765.832          40.900                          43.800
 122929713.641 7                  91798209.314 8  23392735.773
                  23392739.871          46.100                          50.900
 113615078.896 7                  84842439.446 7  21620229.125
                  21620230.230          43.100                          45.900
 136596136.272 6                 102003631.271 7  25993379.563
                  25993386.551          38.200                          42.500
 139352771.085 5                 104062166.587 6  26517945.430
                  26517950.355          32.900                          36.800
 109920593.482 7                  82083576.318 8  20917194.117
                  20917198.637          45.900                          49.800
 121343181.745 7                  90613465.020 7  23090832.156
                  23090837.891          43.200                          46.700
 19  7  9 10 16 16.0000000  0 21G06G29R24R08R02G30R22G13G07R01G15G02
                                R23G05E12E04E11E36E19E14E09
 119335622.177 6  92988902.78744  89114362.042 7  22708824.430
  22708833.320    22708833.785          39.200          27.600          46.500
 118480772.092 6  92322838.18044                  22546172.328
  22546178.645                          41.300          27.800
 110050066.789 6  85594459.213 5                  20579918.750    20579917.738
  20579921.645                          37.800          32.100
 108646662.431 6  84502988.532 7                  20288989.211    20288989.051
  20288992.594                          41.700          43.400
 126347496.987 5  98270282.880 5                  23677467.289    23677465.852
  23677472.867                          32.700          34.900
 123563824.127 6  96283495.32943  92271690.483 7  23513401.039
  23513410.066    23513409.855          36.600          22.900          45.700
 120767420.197 6  93930230.230 6                  22623805.523    22623804.676
  22623811.164                          38.300          38.700
 112965420.196 7  88025020.42445                  21496597.727
  21496603.988                          43.900          33.700
 127240657.057 6  99148501.26243                  24213067.281
  24213074.137                          37.100          19.000
 105613901.130 7  82144187.882 6                  19757255.594    19757254.520
  19757261.070                          42.100          40.800
 126319833.207 6  98430974.36143                  24037839.766
  24037846.742                          36.500          19.600
 108478185.636 7  84528497.11746                  20642704.766
  20642707.770                          45.000          40.600
 102454548.259 7  79686970.289 6                  19152790.203    19152788.840
  19152796.621                          45.900          40.400
 107727973.437 8  83943964.67446                  20499945.883
  20499951.621                          48.000          40.000
 121287214.409 6                  90571634.708 7  23080189.336
                  23080192.141          40.800                          43.900
 122930173.157 7                  91798552.457 8  23392823.172
                  23392827.277          46.000                          50.500
 113614756.991 7                  84842199.086 7  21620167.688
                  21620168.957          43.400                          45.700
 136593627.548 6                 102001757.864 7  25992902.430
                  25992909.117          38.300                          42.100
 139355251.247 5                 104064018.694 6  26518417.375
                  26518422.102          32.500                          36.900
 109925174.724 7                  82086997.382 8  20918065.930
                  20918070.438          46.000                          49.600
 121341275.582 7                  90612041.597 7  23090469.500
                  23090475.133          43.300                          46.500
 19  7  9 10 16 17.0000000  0 21G06G29R24R08R02G30R22G13G07R01G15G02
                                R23G05E12E04E11E36E19E14E09
 119338303.754 6  92990992.32644  89116364.518 7  22709334.773
  22709343.902    22709344.078          38.700          27.900          46.300
 118479099.448 6  92321534.82644                  22545853.938
  22545860.469                          41.300          28.300
 110047250.814 6  85592269.052 5                  20579392.289    20579391.301
  20579395.402                          37.700          31.700
 108648903.150 6  84504731.331 7                  20289408.008    20289407.566
  20289411.172                          41.700          43.000
 126344322.434 5  98267813.785 5                  23676872.539    23676871.852
  23676878.203                          32.200          35.200
 123562285.820 6  96282296.64243  92270541.762 7  23513107.719
  23513117.613    23513117.086          36.500          22.500          45.500
 120771576.326 6  93933462.784 6                  22624585.258    22624583.188
  22624589.641                          38.800          38.600
 112962640.218 7  88022854.20645                  21496069.320
  21496074.949                          43.700          33.700
 127240636.220 6  99148485.04043                  24213063.398
  24213070.508                          37.300          19.300
 105613286.482 7  82143709.833 6                  19757139.867    19757139.496
  19757146.238                          42.000          40.400
 126316115.944 6  98428077.75843                  24037132.078
  24037139.402                          36.700          19.600
 108478367.690 7  84528638.97946                  20642739.352
  20642742.309                          45.100          40.200
 102455420.491 7  79687648.694 6                  19152953.141    19152952.059
  19152959.691                          45.600          40.100
 107727748.875 7  83943789.69346                  20499903.313
  20499908.844                          47.800          40.100
 121289454.822 6                  90573307.722 7  23080615.641
                  23080618.402          40.700                          44.500
 122930633.031 7                  91798895.880 8  23392910.664
                  23392914.871          46.100                          50.500
 113614435.556 7                  84841959.037 7  21620106.547
                  21620107.797          43.400                          45.800
 136591118.955 6                 101999884.576 7  25992425.109
                  25992431.879          38.800                          42.400
 139357731.513 5                 104065870.821 6  26518889.125
                  26518894.090          32.500                          36.600
 109929756.748 7                  82090419.025 8  20918937.805
                  20918942.363          46.100                          49.600
 121339369.721 7                  90610618.379 7  23090106.594
                  23090112.410          43.200                          46.200
 19  7  9 10 16 18.0000000  0 21G06G29R24R08R02G30R22G13G07R01G15G02
                                R23G05E12E04E11E36E19E14E09
 119340985.616 6  92993082.09244  89118367.213 7  22709845.016
  22709854.074    22709854.457          39.300          27.600          46.600
 118477427.385 6  92320231.92844                  22545535.719
  22545542.207                          41.400          28.500
 110044435.468 6  85590079.316 5                  20578865.242    20578864.750
  20578868.480                          37.800          31.200
 108651144.163 7  84506474.332 7                  20289826.180    20289825.996
  20289829.598                          42.300          42.900
 126341148.119 5  98265344.867 5                  23676277.656    23676277.086
  23676283.531                          31.700          35.300
 123560747.876 6  96281098.23743  92269393.330 7  23512815.102
  23512824.531    23512824.402          36.400          22.900          45.400
 120775732.746 6  93936695.528 6                  22625363.219    22625361.781
  22625368.047                          38.500          38.600
 112959860.670 7  88020688.33245                  21495540.289
  21495546.547                          44.100          33.600
 127240616.005 6  99148469.27343                  24213060.180
  24213066.301                          37.300          19.000
 105612672.328 7  82143232.163 6                  19757025.594    19757024.613
  19757031.410                          42.200          40.200
 126312398.802 6  98425181.31943                  24036424.133
  24036432.035                          36.600          18.600
 108478550.180 7  84528781.17746                  20642773.805
  20642777.207                          45.500          40.400
 102456293.568 7  79688327.777 6                  19153116.352    19153115.410
  19153122.785                          45.600          40.200
 107727524.594 7  83943614.93646                  20499860.344
  20499866.066                          47.800          39.800
 121291695.488 6                  90574980.937 7  23081041.695
                  23081044.789          40.800                          44.500
 122931093.199 7                  91799239.513 8  23392998.289
                  23393002.332          46.100                          50.800
 113614114.491 7                  84841719.299 7  21620045.359
                  21620046.527          43.100                          45.800
 136588610.535 6                 101998011.396 7  25991948.070
                  25991954.477          38.400                          42.300
 139360211.816 5                 104067723.003 6  26519361.633
                  26519365.988          33.200                          36.600
 109934339.508 7                  82093841.213 8  20919809.742
                  20919814.473          46.100                          49.800
 121337464.104 7                  90609195.354 7  23089744.070
                  23089749.793          43.000                          46.200
 19  7  9 10 16 19.0000000  0 21G06G29R24R08R02G30R22G13G07R01G15G02
                                R23G05E12E04E11E36E19E14E09
 119343667.802 6  92995172.10444  89120370.134 7  22710355.305
  22710364.195    22710364.754          39.200          26.500          46.600
 118475755.904 6  92318929.47144                  22545217.352
  22545224.184                          41.000          28.500
 110041620.675 6  85587890.057 5                  20578338.789    20578338.227
  20578342.152                          38.200          31.500
 108653385.454 7  84508217.571 7                  20290245.133    20290244.527
  20290248.105                          42.600          43.300
 126337974.022 5  98262876.129 5                  23675683.055    23675681.430
  23675688.348                          31.200          34.800
 123559210.418 6  96279900.22843  92268245.206 7  23512523.141
  23512532.246    23512532.023          36.000          22.500          45.600
 120779889.414 6  93939928.495 6                  22626141.703    22626140.383
  22626146.684                          38.700          39.000
 112957081.562 7  88018522.79345                  21495011.211
  21495016.887                          43.900          33.300
 127240596.242 6  99148453.88543                  24213056.195
  24213062.762                          37.000          18.600
 105612058.686 7  82142754.876 6                  19756910.492    19756909.746
  19756916.383                          42.300          40.200
 126308681.874 6  98422285.01543                  24035718.203
  24035724.563                          37.300          19.300
 108478733.125 7  84528923.73046                  20642808.969
  20642812.223                          45.400          40.400
 102457167.516 7  79689007.496 6                  19153280.117    19153278.730
  19153286.160                          45.700          40.100
 107727300.581 7  83943440.37846                  20499817.563
  20499823.660                          47.900          39.900
 121293936.431 6                  90576654.401 7  23081468.563
                  23081471.293          40.800                          44.000
 122931553.684 7                  91799583.371 8  23393085.742
                  23393090.008          46.200                          50.300
 113613793.850 7                  84841479.844 7  21619984.258
                  21619985.699          43.100                          45.900
 136586102.255 6                 101996138.322 7  25991470.828
                  25991477.191          38.500                          42.100
 139362692.192 5                 104069575.204 6  26519833.656
                  26519838.211          32.800                          36.700
 109938923.013 7                  82097263.957 8  20920681.789
                  20920686.605          46.000                          49.600
 121335558.766 7                  90607772.536 7  23089381.453
                  23089387.309          43.000                          46.400
 19  7  9 10 16 20.0000000  0 20G06G29R24R08G30R22G13G07R01G15G02R23
                                G05E12E04E11E36E19E14E09
 119346350.292 6  92997262.35844  89122373.300 7  22710866.305
  22710874.766    22710875.207          39.200          28.200          46.100
 118474085.024 6  92317627.48144                  22544899.727
  22544906.684                          40.800          28.800
 110038806.586 6  85585701.291 5                  20577813.406    20577812.137
  20577815.949                          37.700          31.700
 108655627.084 7  84509961.052 7                  20290662.445    20290663.035
  20290666.633                          42.200          43.400
 123557673.368 6  96278702.53943  92267097.400 7  23512230.328
  23512239.754    23512239.520          37.100          22.300          45.700
 120784046.380 6  93943161.710 6                  22626920.578    22626919.352
  22626925.840                          38.400          39.200
 112954302.927 7  88016357.61945                  21494482.703
  21494488.453                          43.900          33.500
 127240577.029 6  99148438.89743                  24213052.250
  24213058.781                          37.400          18.600
 105611445.604 7  82142278.038 6                  19756796.305    19756795.301
  19756801.723                          42.300          40.400
 126304965.073 6  98419388.80543                  24035010.633
  24035017.273                          36.500          20.400
 108478916.552 7  84529066.66646                  20642843.414
  20642846.801                          45.800          40.700
 102458042.320 7  79689687.901 6                  19153442.680    19153442.324
  19153449.891                          45.800          40.100
 107727076.856 7  83943266.04546                  20499775.313
  20499781.215                          47.500          39.800
 121296177.691 6                  90578328.061 7  23081895.109
                  23081897.676          41.100                          44.200
 122932014.488 7                  91799927.482 8  23393173.555
                  23393177.680          45.600                          50.500
 113613473.602 7                  84841240.702 7  21619923.438
                  21619924.676          42.600                          45.800
 136583594.131 6                 101994265.371 6  25990993.227
                  25990999.949          38.600                          41.800
 139365172.597 5                 104071427.457 6  26520305.719
                  26520310.270          32.900                          36.900
 109943507.268 7                  82100687.268 8  20921554.313
                  20921559.031          45.900                          49.800
 121333653.685 7                  90606349.913 7  23089018.953
                  23089024.633          43.200                          46.600
 19  7  9 10 16 21.0000000  0 20G06G29R24R08G30R22G13G07R01G15G02R23
                                G05E12E04E11E36E19E14E09
 119349033.103 6  92999352.85844  89124376.693 7  22711376.789
  22711385.496    22711385.883          38.800          27.400          46.200
 118472414.808 6  92316326.02844                  22544582.031
  22544588.078                          40.900          29.600
 110035993.077 6  85583513.007 5                  20577286.898    20577286.195
  20577289.688                          37.400          31.600
 108657869.032 7  84511704.781 7                  20291081.688    20291081.902
  20291085.285                          42.100          43.300
 123556136.763 6  96277505.16443  92265949.921 7  23511938.078
  23511947.336    23511947.234          37.100          22.300          45.800
 120788203.683 6  93946395.154 6                  22627699.438    22627697.836
  22627704.367                          38.400          39.100
 112951524.734 7  88014192.79845                  21493953.906
  21493959.832                          44.000          33.500
 127240558.364 6  99148424.35143                  24213048.258
  24213055.293                          37.000          19.000
 105610833.041 7  82141801.571 6                  19756681.383    19756680.801
  19756686.848                          42.200          40.500
 126301248.459 6  98416492.73843                  24034302.938
  24034310.004                          36.300          20.600
 108479100.416 7  84529209.93446                  20642878.625
  20642882.152                          45.400          40.700
 102458918.015 7  79690369.013 6                  19153607.047    19153605.777
  19153613.520                          45.700          39.800
 107726853.441 7  83943091.95846                  20499732.641
  20499738.457                          47.600          39.900
 121298419.254 6                  90580001.954 7  23082321.313
                  23082324.199          41.200                          43.800
 122932475.610 7                  91800271.824 8  23393261.102
                  23393265.402          45.600                          50.500
 113613153.791 7                  84841001.873 7  21619862.656
                  21619863.871          42.700                          46.000
 136581086.181 6                 101992392.550 7  25990515.719
                  25990522.641          38.400                          42.100
 139367653.055 5                 104073279.750 6  26520777.883
                  26520782.094          32.600                          37.000
 109948092.280 7                  82104111.145 8  20922426.742
                  20922431.535          46.200                          49.800
 121331748.889 7                  90604927.484 7  23088656.383
                  23088662.230          43.100                          46.400
 19  7  9 10 16 22.0000000  0 20G06G29R24R08G30R22G13G07R01G15G02R23
                                G05E12E04E11E36E19E14E09
 119351716.183 6  93001443.57544  89126380.301 7  22711887.094
  22711895.887    22711896.398          38.800          27.000          45.800
 118470745.123 6  92315024.96344                  22544264.609
  22544270.750                          40.600          29.300
 110033180.150 6  85581325.157 5                  20576760.438    20576760.297
  20576763.840                          37.000          30.600
 108660111.221 7  84513448.730 7                  20291500.898    20291500.387
  20291504.148                          42.400          43.500
 123554600.477 6  96276308.07043  92264802.729 7  23511645.633
  23511655.008    23511654.762          37.200          22.800          45.600
 120792361.168 6  93949628.791 6                  22628478.484    22628476.766
  22628482.918                          38.200          38.700
 112948746.967 7  88012028.30645                  21493425.016
  21493431.172                          44.100          33.200
 127240540.190 6  99148410.19343                  24213045.055
  24213051.836                          36.600          19.300
 105610220.945 7  82141325.515 6                  19756567.195    19756565.910
  19756572.449                          42.400          40.200
 126297532.000 6  98413596.81143                  24033596.930
  24033602.809                          36.300          20.400
 108479284.723 7  84529353.54946                  20642913.734
  20642917.313                          45.200          40.400
 102459794.568 7  79691050.753 6                  19153770.508    19153769.707
  19153777.445                          45.900          39.600
 107726630.298 7  83942918.08046                  20499690.258
  20499695.953                          47.600          40.000
 121300661.061 6                  90581676.031 7  23082748.031
                  23082750.945          41.300                          44.000
 122932937.019 7                  91800616.385 8  23393348.984
                  23393353.246          45.300                          50.500
 113612834.298 7                  84840763.309 7  21619801.617
                  21619803.047          42.800                          46.200
 136578578.296 6                 101990519.790 7  25990038.711
                  25990045.480          38.600                          42.000
 139370133.558 5                 104075132.067 6  26521249.563
                  26521254.266          31.800                          36.100
 109952677.995 7                  82107535.547 8  20923299.500
                  20923304.160          46.400                          49.900
 121329844.316 7                  90603505.241 7  23088294.063
                  23088299.609          43.500                          46.600
 19  7  9 10 16 23.0000000  0 21G06G29R24R08R02G30R22G13G07R01G15G02
                                R23G05E12E04E11E36E19E14E09
 119354399.617 6  93003534.56044  89128384.146 7  22712397.477
  22712406.809    22712407.086          38.700          27.600          45.900
 118469076.051 6  92313724.39544                  22543947.000
  22543953.305                          40.600          28.900
 110030367.855 6  85579137.879 5                  20576235.055    20576233.855
  20576238.172                          37.500          30.900
 108662353.712 7  84515192.892 7                  20291919.641    20291919.340
  20291922.813                          42.600          43.100
 126325280.10215  98253003.14415                  23673302.891    23673302.391
  23673309.676                          32.400          34.700
 123553064.677 6  96275111.33143  92263655.847 7  23511353.531
  23511362.770    23511362.770          37.100          22.500          45.800
 120796519.006 6  93952862.647 6                  22629257.805    22629255.852
  22629261.582                          38.500          38.800
 112945969.648 7  88009864.16045                  21492896.906
  21492902.746                          44.100          34.000
 127240522.537 6  99148396.44043                  24213041.641
  24213048.203                          37.100          19.000
 105609609.389 7  82140849.868 6                  19756452.063    19756451.645
  19756458.461                          42.500          40.100
 126293815.712 6  98410701.00243                  24032889.328
  24032895.934                          36.500          20.100
 108479469.489 7  84529497.51946                  20642948.789
  20642951.629                          45.100          40.300
 102460671.999 7  79691733.213 6                  19153934.766    19153933.754
  19153941.266                          45.800          40.000
 107726407.428 7  83942744.41746                  20499647.688
  20499653.871                          47.300          39.700
 121302903.165 6                  90583350.335 7  23083174.664
                  23083177.699          41.400                          43.700
 122933398.744 7                  91800961.171 8  23393436.922
                  23393441.160          45.700                          50.800
 113612515.247 7                  84840525.048 7  21619740.961
                  21619742.449          43.000                          45.800
 136576070.604 6                 101988647.178 7  25989561.523
                  25989568.266          39.100                          42.000
 139372614.130 5                 104076984.437 6  26521721.906
                  26521726.242          32.600                          36.300
 109957264.490 7                  82110960.514 8  20924172.086
                  20924176.922          46.400                          49.900
 121327940.019 7                  90602083.215 7  23087931.555
                  23087937.348          43.700                          46.500
 19  7  9 10 16 24.0000000  0 21G06G29R24R08R02G30R22G13G07R01G15G02
                                R23G05E12E04E11E36E19E14E09
 119357083.321 6  93005625.76344  89130388.232 7  22712908.297
  22712917.711    22712917.887          38.400          28.100          45.900
 118467407.626 6  92312424.32244                  22543628.766
  22543635.645                          40.600          28.700
 110027556.188 6  85576950.987 5                  20575711.070    20575708.535
  20575711.754                          37.400          31.800
 108664596.496 7  84516937.262 7                  20292338.680    20292337.793
  20292341.793                          42.400          43.400
 126322107.264 5  98250535.350 5                  23672708.867    23672708.109
  23672714.859                          32.300          34.700
 123551529.270 6  96273914.91743  92262509.299 7  23511061.734
  23511070.977    23511070.477          36.500          23.000          46.000
 120800677.129 6  93956096.750 6                  22630035.672    22630034.496
  22630040.930                          38.300          38.800
 112943192.786 7  88007700.36945                  21492368.305
  21492374.160                          44.500          33.600
 127240505.447 6  99148383.13943                  24213038.648
  24213045.125                          37.200          19.600
 105608998.356 7  82140374.612 6                  19756337.969    19756337.223
  19756344.059                          42.300          40.500
 126290099.631 6  98407805.34343                  24032181.641
  24032188.598                          36.700          20.100
 108479654.704 7  84529641.84546                  20642984.430
  20642987.293                          45.400          40.800
 102461550.355 7  79692416.364 6                  19154098.891    19154097.996
  19154105.672                          45.700          39.900
 107726184.837 7  83942570.96146                  20499605.539
  20499611.418                          47.500          40.200
 121305145.590 6                  90585024.859 7  23083601.563
                  23083604.230          41.400                          43.800
 122933860.790 7                  91801306.212 8  23393524.922
                  23393529.016          45.900                          50.800
 113612196.609 7                  84840287.090 7  21619680.273
                  21619681.695          42.700                          45.900
 136573563.068 6                 101986774.667 7  25989084.242
                  25989091.063          38.800                          42.200
 139375094.752 5                 104078836.867 6  26522194.008
                  26522198.238          31.800                          36.300
 109961851.710 7                  82114386.038 8  20925045.289
                  20925049.816          46.400                          49.900
 121326035.982 7                  90600661.366 7  23087569.258
                  23087575.141          43.500                          47.000
 19  7  9 10 16 25.0000000  0 21G06G29R24R08R02G30R22G13G07R01G15G02
                                R23G05E12E04E11E36E19E14E09
 119359767.311 6  93007717.17444  89132392.517 7  22713418.242
  22713428.359    22713428.613          38.500          26.800          46.000
 118465739.706 6  92311124.64444                  22543311.836
  22543318.508                          40.900          28.900
 110024745.040 6  85574764.604 5                  20575183.313    20575182.535
  20575186.203                          37.700          31.500
 108666839.531 7  84518681.850 7                  20292756.969    20292756.668
  20292760.820                          42.000          43.700
 126318934.636 5  98248067.741 5                  23672114.992    23672113.344
  23672120.367                          31.800          35.200
 123549994.282 5  96272718.83144  92261363.027 7  23510769.625
  23510778.707    23510778.461          35.800          24.600          46.200
 120804835.508 6  93959331.008 6                  22630814.406    22630813.156
  22630819.711                          38.100          38.300
 112940416.319 7  88005536.89645                  21491839.203
  21491846.020                          44.300          33.200
 127240488.801 6  99148370.15643                  24213034.797
  24213042.012                          36.800          19.300
 105608387.806 7  82139899.741 6                  19756224.555    19756222.895
  19756229.730                          42.200          40.500
 126286383.675 6  98404909.76743                  24031474.078
  24031481.070                          36.800          20.100
 108479840.363 7  84529786.51746                  20643019.758
  20643022.832                          45.400          40.900
 102462429.512 7  79693100.152 6                  19154262.859    19154262.129
  19154269.758                          45.600          39.700
 107725962.503 7  83942397.72346                  20499562.938
  20499568.879                          47.600          39.900
 121307388.271 6                  90586699.584 7  23084028.438
                  23084031.156          41.100                          43.600
 122934323.092 7                  91801651.455 8  23393612.922
                  23393616.906          45.900                          50.700
 113611878.296 7                  84840049.419 7  21619619.758
                  21619621.137          42.300                          45.800
 136571055.609 6                 101984902.206 7  25988607.016
                  25988614.043          38.700                          42.100
 139377575.381 5                 104080689.285 6  26522665.797
                  26522670.035          32.600                          36.400
 109966439.658 7                  82117812.101 8  20925918.180
                  20925922.816          46.100                          50.000
 121324132.193 7                  90599239.709 7  23087207.125
                  23087212.816          43.900                          46.900
 19  7  9 10 16 26.0000000  0 21G06G29R24R08R02G30R22G13G07R01G15G02
                                R23G05E12E04E11E36E19E14E09
 119362451.674 6  93009808.89044  89134397.049 7  22713929.828
  22713938.949    22713939.465          38.300          27.700          45.900
 118464072.476 6  92309825.51144                  22542994.188
  22543001.176                          41.300          28.700
 110021934.544 6  85572578.554 5                  20574657.070    20574657.000
  20574660.613                          38.100          31.400
 108669082.906 7  84520426.689 7                  20293176.500    20293175.707
  20293179.469                          42.200          43.900
 126315762.225 5  98245600.346 5                  23671520.055    23671518.523
  23671525.488                          31.500          34.800
 123548459.766 6  96271523.10543  92260217.088 7  23510476.703
  23510486.453    23510486.582          36.800          22.900          46.300
 120808994.233 6  93962565.591 6                  22631594.250    22631592.203
  22631598.996                          38.400          38.200
 112937640.374 7  88003373.81145                  21491312.023
  21491317.922                          43.900          33.400
 127240472.766 6  99148357.67243                  24213032.094
  24213039.188                          36.500          19.600
 105607777.802 7  82139425.277 6                  19756109.961    19756108.582
  19756115.383                          42.400          40.300
 126282667.880 6  98402014.36443                  24030766.938
  24030774.582                          36.400          19.300
 108480026.512 7  84529931.56546                  20643054.484
  20643058.246                          45.400          40.400
 102463309.591 7  79693784.651 6                  19154427.414    19154426.730
  19154434.535                          45.900          39.800
 107725740.500 7  83942224.73046                  20499521.008
  20499526.906                          47.400          39.500
 121309631.254 6                  90588374.535 7  23084454.820
                  23084457.961          41.200                          43.700
 122934785.764 7                  91801996.949 8  23393700.664
                  23393705.020          45.800                          51.000
 113611560.493 7                  84839812.070 7  21619559.102
                  21619560.629          42.800                          45.900
 136568548.379 6                 101983029.919 7  25988129.930
                  25988136.980          38.700                          42.400
 139380056.058 5                 104082541.717 6  26523138.008
                  26523142.285          32.500                          36.100
 109971028.364 7                  82121238.741 8  20926791.563
                  20926796.027          46.000                          49.900
 121322228.717 7                  90597818.275 7  23086844.875
                  23086850.676          43.900                          46.800
 19  7  9 10 16 27.0000000  0 21G06G29R24R08R02G30R22G13G07R01G15G02
                                R23G05E12E04E11E36E19E14E09
 119365136.297 6  93011900.79744  89136401.800 7  22714440.563
  22714449.844    22714450.543          38.300          26.600          46.000
 118462405.801 6  92308526.79944                  22542677.508
  22542684.203                          41.100          28.800
 110019124.659 6  85570393.122 5                  20574130.781    20574131.625
  20574135.391                          38.000          31.300
 108671326.526 7  84522171.736 7                  20293594.992    20293595.020
  20293598.691                          42.000          43.900
 126312590.170 5  98243133.144 5                  23670924.813    23670923.750
  23670930.840                          32.500          35.300
 123546925.579 6  96270327.62743  92259071.459 7  23510185.203
  23510194.441    23510194.559          36.900          22.800          46.200
 120813153.207 6  93965800.341 6                  22632372.844    22632371.406
  22632377.785                          38.200          38.600
 112934864.849 7  88001211.06445                  21490783.758
  21490789.738                          43.700          32.700
 127240457.181 6  99148345.53143                  24213029.156
  24213035.883                          36.500          19.600
 105607168.298 7  82138951.227 6                  19755996.242    19755994.723
  19756001.535                          42.400          40.200
 126278952.232 6  98399119.04243                  24030060.234
  24030067.207                          36.500          19.000
 108480213.084 7  84530076.94846                  20643090.133
  20643094.023                          45.400          40.000
 102464190.525 7  79694469.842 6                  19154592.523    19154591.348
  19154599.047                          46.100          40.000
 107725518.751 7  83942051.94346                  20499478.773
  20499484.695                          47.600          39.500
 121311874.492 6                  90590049.694 7  23084882.070
                  23084884.863          41.000                          43.800
 122935248.743 7                  91802342.672 8  23393788.977
                  23393793.148          46.000                          50.900
 113611243.033 7                  84839575.007 7  21619498.953
                  21619500.215          42.700                          46.300
 136566041.269 6                 101981157.733 7  25987652.656
                  25987659.883          38.600                          42.100
 139382536.849 5                 104084394.272 5  26523610.070
                  26523614.320          32.600                          35.800
 109975617.812 7                  82124665.917 8  20927664.664
                  20927669.363          45.900                          50.300
 121320325.451 7                  90596397.015 7  23086482.844
                  23086488.535          44.000                          46.800
 19  7  9 10 16 28.0000000  0 21G06G29R24R08R02G30R22G13G07R01G15G02
                                R23G05E12E04E11E36E19E14E09
 119367821.277 6  93013993.00044  89138406.816 7  22714950.977
  22714960.445    22714961.426          38.700          26.900          46.200
 118460739.776 6  92307228.59744                  22542360.750
  22542367.148                          41.300          28.700
 110016315.379 6  85568208.130 5                  20573607.125    20573606.137
  20573609.891                          38.100          31.300
 108673570.479 7  84523917.023 7                  20294014.711    20294013.590
  20294017.656                          42.200          44.000
 126309418.323 5  98240666.181 5                  23670330.563    23670329.547
  23670336.832                          32.500          35.200
 123545391.826 6  96269132.49843  92257926.158 7  23509892.875
  23509902.418    23509902.887          37.500          22.600          46.100
 120817312.489 6  93969035.337 6                  22633152.219    22633151.043
  22633157.039                          38.400          38.600
 112932089.771 7  87999048.66645                  21490255.070
  21490261.730                          43.600          33.300
 127240442.181 6  99148333.83843                  24213027.164
  24213033.410                          37.000          19.900
 105606559.342 6  82138477.599 6                  19755883.148    19755881.113
  19755887.766                          41.800          40.000
 126275236.804 6  98396223.91543                  24029353.102
  24029360.273                          36.100          19.300
 108480400.129 7  84530222.69746                  20643125.758
  20643129.676                          45.200          40.300
 102465072.360 7  79695155.716 6                  19154757.195    19154756.301
  19154763.820                          46.100          40.300
 107725297.325 7  83941879.40346                  20499436.945
  20499442.434                          47.600          39.700
 121314118.081 6                  90591725.090 7  23085308.867
                  23085311.922          40.900                          43.800
 122935712.027 7                  91802688.635 8  23393876.898
                  23393881.348          46.100                          50.800
 113610925.993 7                  84839338.255 7  21619438.578
                  21619439.988          42.900                          46.000
 136563534.306 6                 101979285.649 7  25987175.742
                  25987182.758          38.200                          42.200
 139385017.671 5                 104086246.810 6  26524082.219
                  26524086.305          32.900                          36.200
 109980208.016 7                  82128093.667 8  20928538.273
                  20928542.867          46.300                          50.000
 121318422.480 7                  90594975.972 7  23086120.742
                  23086126.340          44.000                          46.600
 19  7  9 10 16 29.0000000  0 21G06G29R24R08R02G30R22G13G07R01G15G02
                                R23G05E12E04E11E36E19E14E09
 119370506.466 6  93016085.33744  89140412.008 7  22715462.367
  22715471.605    22715472.531          38.800          27.600          46.300
 118459074.267 6  92305930.79444                  22542043.984
  22542050.438                          41.500          27.800
 110013506.681 6  85566023.607 5                  20573082.305    20573081.035
  20573084.641                          38.300          31.000
 108675814.672 6  84525662.517 7                  20294433.625    20294432.949
  20294436.730                          41.900          43.700
 126306246.684 5  98238199.369 5                  23669736.578    23669735.141
  23669742.594                          31.500          35.100
 123543858.502 6  96267937.70643  92256781.135 7  23509601.750
  23509610.613    23509611.168          38.000          22.600          46.000
 120821471.994 6  93972270.507 6                  22633932.711    22633929.727
  22633936.156                          38.500          38.100
 112929315.090 7  87996886.58245                  21489727.281
  21489733.371                          43.400          33.600
 127240427.647 6  99148322.51643                  24213023.891
  24213030.102                          37.400          19.600
 105605950.842 7  82138004.348 6                  19755768.141    19755766.949
  19755773.750                          42.100          39.900
 126271521.495 6  98393328.87743                  24028646.438
  24028653.121                          36.000          20.100
 108480587.605 7  84530368.77346                  20643161.492
  20643164.879                          45.500          40.400
 102465955.010 7  79695842.202 6                  19154922.469    19154921.434
  19154929.066                          46.000          39.900
 107725076.122 7  83941707.03546                  20499394.609
  20499400.242                          47.600          39.600
 121316361.891 6                  90593400.649 7  23085735.898
                  23085738.852          41.300                          43.900
 122936175.577 7                  91803034.794 8  23393965.273
                  23393969.566          46.200                          51.000
 113610609.290 7                  84839101.766 7  21619378.109
                  21619379.699          42.700                          45.700
 136561027.451 6                 101977413.648 7  25986698.703
                  25986705.598          38.500                          42.300
 139387498.447 5                 104088099.369 5  26524554.219
                  26524558.473          32.800                          35.800
 109984798.913 7                  82131521.933 8  20929411.750
                  20929416.453          45.900                          49.900
 121316519.745 7                  90593555.092 7  23085758.719
                  23085764.211          43.600                          46.200
 19  7  9 10 16 30.0000000  0 21G06G29R24R08R02G30R22G13G07R01G15G02
                                R23G05E12E04E11E36E19E14E09
 119373192.046 6  93018178.00644  89142417.459 7  22715973.258
  22715982.402    22715983.668          38.800          26.800          46.400
 118457409.431 6  92304633.52744                  22541726.727
  22541733.438                          41.000          28.500
 110010698.653 6  85563839.562 5                  20572557.195    20572555.855
  20572559.527                          37.800          31.600
 108678059.210 7  84527408.281 7                  20294852.141    20294851.980
  20294855.680                          42.000          43.500
 126303075.368 5  98235732.765 5                  23669141.930    23669140.727
  23669148.344                          31.600          35.800
 123542325.664 6  96266743.27243  92255636.451 7  23509310.461
  23509318.867    23509319.512          37.600          23.300          45.700
 120825631.843 6  93975505.958 6                  22634711.031    22634709.383
  22634715.469                          38.300          38.300
 112926540.919 7  87994724.88645                  21489199.422
  21489206.109                          43.600          34.100
 127240413.705 6  99148311.63643                  24213020.992
  24213027.863                          37.100          19.300
 105605342.951 7  82137531.519 6                  19755654.727    19755653.348
  19755660.277                          42.300          40.000
 126267806.442 6  98390434.05043                  24027939.508
  24027946.691                          36.500          19.600
 108480775.549 7  84530515.22446                  20643197.617
  20643200.750                          45.700          40.100
 102466838.593 7  79696529.430 6                  19155087.516    19155086.668
  19155094.078                          45.800          40.100
 107724855.246 7  83941534.92146                  20499352.813
  20499358.242                          47.400          40.000
 121318606.021 6                  90595076.472 7  23086162.594
                  23086165.875          41.200                          43.800
 122936639.493 7                  91803381.225 8  23394053.445
                  23394057.836          46.400                          51.000
 113610293.044 7                  84838865.605 7  21619318.133
                  21619319.375          42.700                          45.900
 136558520.790 6                 101975541.793 7  25986221.875
                  25986228.539          38.300                          42.500
 139389979.38115                 104089952.016 6  26525026.320
                  26525030.730          33.200                          36.000
 109989390.591 7                  82134950.782 8  20930285.656
                  20930290.070          45.900                          50.200
 121314617.289 7                  90592134.436 7  23085396.391
                  23085402.359          43.300                          46.500
 19  7  9 10 16 31.0000000  0 21G06G29R24R08R02G30R22G13G07R01G15G02
                                R23G05E12E04E11E36E19E14E09
 119375877.895 6  93020270.88144  89144423.127 7  22716484.219
  22716493.652    22716494.844          38.700          27.200          46.300
 118455745.188 6  92303336.71044                  22541410.438
  22541416.305                          41.400          28.000
 110007891.219 6  85561655.988 5                  20572031.516    20572030.621
  20572034.656                          37.900          31.500
 108680303.972 6  84529154.182 7                  20295271.453    20295270.895
  20295274.902                          41.600          43.000
 126299904.250 5  98233266.319 5                  23668548.000    23668546.656
  23668554.336                          31.200          35.700
 123540793.129 6  96265549.09043  92254492.053 7  23509017.969
  23509027.383    23509028.113          37.600          23.200          45.900
 120829791.931 6  93978741.577 6                  22635490.664    22635488.359
  22635494.727                          38.400          38.400
 112923767.139 7  87992563.50645                  21488671.875
  21488677.543                          43.500          34.100
 127240400.239 6  99148301.14543                  24213018.438
  24213025.418                          37.000          19.300
 105604735.504 7  82137059.037 6                  19755541.047    19755539.621
  19755546.516                          42.200          40.100
 126264091.474 6  98387539.27143                  24027232.242
  24027239.719                          36.000          18.600
 108480963.926 7  84530662.01246                  20643233.719
  20643236.453                          45.600          40.400
 102467723.023 7  79697217.330 6                  19155252.977    19155251.777
  19155259.355                          45.500          40.500
 107724634.617 7  83941363.00346                  20499310.602
  20499316.145                          47.900          40.200
 121320850.433 6                  90596752.478 7  23086589.883
                  23086592.832          41.200                          43.900
 122937103.690 7                  91803727.860 8  23394141.633
                  23394146.285          46.400                          51.000
 113609977.179 7                  84838629.737 7  21619258.008
                  21619259.375          42.700                          45.800
 136556014.232 6                 101973670.008 7  25985744.859
                  25985751.668          38.800                          42.400
 139392460.292 5                 104091804.614 6  26525498.438
                  26525502.672          33.200                          36.200
 109993982.985 7                  82138380.175 8  20931159.438
                  20931163.988          45.900                          49.900
 121312715.088 7                  90590713.962 7  23085034.617
                  23085040.359          43.200                          46.700
 19  7  9 10 16 32.0000000  0 21G06G29R24R08R02G30R22G13G07R01G15G02
                                R23G05E12E04E11E36E19E14E09
 119378564.041 6  93022363.97044  89146429.031 7  22716995.602
  22717005.047    22717005.922          39.200          27.200          46.300
 118454081.522 6  92302040.34744                  22541093.328
  22541099.723                          41.300          28.600
 110005084.328 6  85559472.874 5                  20571507.008    20571505.691
  20571509.738                          38.000          31.200
 108682549.022 6  84530900.338 7                  20295690.422    20295690.074
  20295694.516                          41.700          43.400
 126296733.301 5  98230800.067 6                  23667955.281    23667952.484
  23667959.996                          31.700          36.200
 123539261.060 6  96264355.27843  92253347.983 7  23508727.352
  23508735.660    23508736.590          38.500          22.600          46.000
 120833952.349 6  93981977.449 6                  22636269.875    22636268.344
  22636274.039                          38.300          38.600
 112920993.839 7  87990402.49445                  21488143.852
  21488150.285                          43.700          33.700
 127240387.310 6  99148291.07543                  24213016.125
  24213023.215                          36.800          19.300
 105604128.577 7  82136587.003 6                  19755427.602    19755425.871
  19755432.973                          42.100          40.600
 126260376.671 5  98384644.60643                  24026525.344
  24026532.605                          35.800          19.000
 108481152.770 7  84530809.16246                  20643269.133
  20643272.355                          46.200          40.400
 102468608.337 7  79697905.898 6                  19155418.398    19155417.457
  19155424.969                          45.300          40.600
 107724414.274 7  83941191.31346                  20499268.766
  20499274.363                          47.600          40.000
 121323095.125 6                  90598428.724 7  23087017.266
                  23087020.043          41.300                          43.700
 122937568.184 7                  91804074.737 8  23394230.211
                  23394234.625          46.100                          51.100
 113609661.708 7                  84838394.164 7  21619197.719
                  21619199.336          42.600                          45.800
 136553507.842 6                 101971798.348 7  25985268.094
                  25985274.492          39.000                          42.500
 139394941.287 5                 104093657.283 6  26525970.383
                  26525974.867          32.800                          36.000
 109998576.136 7                  82141810.118 8  20932033.523
                  20932038.109          46.200                          49.700
 121310813.158 7                  90589293.679 7  23084672.680
                  23084678.402          43.000                          46.700
 19  7  9 10 16 33.0000000  0 21G06G29R24R08R02G30R22G13G07R01G15G02
                                R23G05E12E04E11E36E19E14E09
 119381250.532 6  93024457.35944  89148435.161 7  22717507.289
  22717516.090    22717517.281          38.800          27.100          46.400
 118452418.490 6  92300744.47644                  22540777.125
  22540783.316                          41.100          27.900
 110002278.118 6  85557290.27615                  20570981.313    20570980.938
  20570984.949                          37.900          30.800
 108684794.372 6  84532646.723 7                  20296110.203    20296109.574
  20296113.551                          41.300          42.400
 126293562.690 5  98228334.038 5                  23667359.844    23667358.406
  23667365.871                          31.100          35.900
 123537729.412 6  96263161.78743  92252204.212 7  23508434.969
  23508444.125    23508445.168          38.000          22.500          46.100
 120838113.022 6  93985213.513 6                  22637050.070    22637047.578
  22637053.414                          38.400          38.100
 112918220.952 7  87988241.80645                  21487616.414
  21487622.691                          43.600          33.200
 127240374.876 6  99148281.37443                  24213012.961
  24213020.266                          37.200          18.600
 105603522.167 7  82136115.374 6                  19755313.359    19755312.684
  19755319.766                          42.400          39.400
 126256662.069 5  98381750.08443                  24025818.383
  24025825.496                          35.500          18.600
 108481342.071 7  84530956.67246                  20643305.055
  20643308.371                          46.000          39.900
 102469494.541 7  79698595.172 6                  19155584.438    19155583.191
  19155590.699                          45.500          39.800
 107724194.240 8  83941019.85646                  20499226.875
  20499232.652                          48.200          40.100
 121325340.094 6                  90600105.164 7  23087444.289
                  23087447.313          41.000                          43.500
 122938033.025 7                  91804421.839 8  23394318.867
                  23394323.070          46.500                          51.200
 113609346.664 7                  84838158.884 7  21619138.078
                  21619139.355          42.700                          46.000
 136551001.569 6                 101969926.795 7  25984791.305
                  25984797.668          38.300                          42.200
 139397422.309 5                 104095510.057 6  26526442.398
                  26526447.051          32.600                          36.500
 110003170.042 7                  82145240.620 8  20932907.805
                  20932912.215          46.100                          49.500
 121308911.481 7                  90587873.605 7  23084310.852
                  23084316.504          43.600                          46.800
 19  7  9 10 16 34.0000000  0 21G06G29R24R08R02G30R22G13G07R01G15G02
                                R23G05E12E04E11E36E19E14E09
 119383937.327 6  93026550.95944  89150441.539 7  22718018.938
  22718027.344    22718028.652          38.400          27.100          46.400
 118450756.055 6  92299449.07444                  22540461.086
  22540467.008                          41.100          27.900
 109999472.497 6  85555108.138 5                  20570457.406    20570456.395
  20570460.102                          37.500          30.200
 108687040.053 6  84534393.365 7                  20296529.719    20296528.551
  20296533.070                          41.300          42.800
 126290392.326 5  98225868.215 5                  23666766.313    23666764.195
  23666772.133                          30.600          35.900
 123536198.203 6  96261968.64843  92251060.763 7  23508143.648
  23508152.883    23508153.844          37.500          22.600          45.800
 120842274.040 6  93988449.880 6                  22637828.844    22637827.406
  22637832.887                          38.300          38.600
 112915448.548 7  87986081.48745                  21487088.695
  21487095.055                          43.400          33.300
 127240363.015 6  99148272.17643                  24213011.563
  24213018.309                          36.000          19.300
 105602916.282 7  82135644.089 6                  19755200.055    19755199.355
  19755206.328                          42.200          40.000
 126252947.680 5  98378855.78443                  24025111.367
  24025118.816                          35.800          18.600
 108481531.834 7  84531104.53646                  20643341.352
  20643344.785                          45.200          40.400
 102470381.639 7  79699285.151 6                  19155750.297    19155748.863
  19155756.500                          45.400          39.900
 107723974.491 7  83940848.62746                  20499185.117
  20499190.531                          47.500          40.400
 121327585.376 6                  90601781.841 7  23087871.781
                  23087874.613          41.000                          43.600
 122938498.161 7                  91804769.195 8  23394407.359
                  23394411.508          46.300                          51.200
 113609032.023 7                  84837923.920 7  21619078.172
                  21619079.531          42.900                          46.100
 136548495.499 6                 101968055.385 7  25984314.305
                  25984320.688          38.600                          42.600
 139399903.396 5                 104097362.806 5  26526914.734
                  26526919.207          33.000                          35.900
 110007764.672 7                  82148671.678 8  20933782.164
                  20933786.590          46.100                          49.300
 121307010.093 7                  90586453.737 7  23083948.727
                  23083954.688          43.100                          46.600
 19  7  9 10 16 35.0000000  0 21G06G29R24R08R02G30R22G13G07R01G15G02
                                R23G05E12E04E11E36E19E14E09
 119386624.394 6  93028644.77544  89152448.114 7  22718529.961
  22718539.133    22718539.977          38.800          28.100          46.300
 118449094.211 6  92298154.13044                  22540144.234
  22540150.945                          41.200          27.900
 109996667.516 6  85552926.431 5                  20569931.992    20569932.203
  20569935.422                          38.100          31.000
 108689286.006 6  84536140.216 7                  20296948.930    20296948.254
  20296952.477                          41.000          42.900
 126287222.27415  98223402.597 6                  23666172.797    23666170.070
  23666177.582                          30.700          36.200
 123534667.397 6  96260775.79543  92249917.631 7  23507852.555
  23507861.383    23507862.531          37.700          22.000          45.800
 120846435.269 6  93991686.371 6                  22638608.117    22638606.941
  22638612.680                          38.400          38.700
 112912676.551 7  87983921.49845                  21486561.141
  21486567.461                          43.200          32.700
 127240351.676 6  99148263.29643                  24213008.750
  24213015.988                          36.300          19.900
 105602310.878 7  82135173.237 6                  19755086.711    19755086.105
  19755093.000                          42.500          40.000
 126249233.364 5  98375961.52843                  24024404.492
  24024411.867                          35.700          18.600
 108481722.045 7  84531252.75246                  20643377.758
  20643380.707                          45.200          40.200
 102471269.562 7  79699975.738 6                  19155916.328    19155914.824
  19155922.586                          45.500          40.100
 107723754.994 8  83940677.58646                  20499142.828
  20499148.949                          48.200          40.100
 121329830.934 6                  90603458.706 7  23088299.227
                  23088301.871          40.800                          43.700
 122938963.586 7                  91805116.749 8  23394495.844
                  23394500.043          46.400                          51.000
 113608717.725 7                  84837689.227 7  21619018.320
                  21619019.656          42.700                          45.700
 136545989.542 6                 101966184.039 7  25983837.266
                  25983843.809          39.000                          42.100
 139402384.573 5                 104099215.618 6  26527386.578
                  26527391.152          32.600                          36.000
 110012360.032 7                  82152103.290 8  20934656.422
                  20934661.098          46.300                          49.300
 121305108.939 7                  90585034.028 7  23083587.070
                  23083592.984          43.000                          46.800
 19  7  9 10 16 36.0000000  0 21G06G29R24R08R02G30R22G13G07R01G15G02
                                R23G05E12E04E11E36E19E14E09
 119389311.774 6  93030738.84044  89154454.921 7  22719040.961
  22719050.121    22719051.281          38.800          27.600          46.600
 118447432.950 6  92296859.64044                  22539828.422
  22539835.082                          41.000          28.300
 109993863.066 6  85550745.208 5                  20569408.297    20569407.734
  20569411.395                          37.900          31.000
 108691532.267 6  84537887.303 7                  20297368.563    20297367.676
  20297371.816                          40.900          42.600
 126284052.435 5  98220937.168 5                  23665577.719    23665575.883
  23665583.715                          30.700          35.500
 123533136.975 6  96259583.26743  92248774.789 7  23507561.680
  23507570.188    23507571.305          36.900          22.800          45.800
 120850596.781 6  93994923.124 6                  22639388.094    22639386.305
  22639392.211                          38.300          38.400
 112909905.028 7  87981761.87145                  21486034.102
  21486040.008                          43.700          32.800
 127240340.809 6  99148254.84443                  24213007.227
  24213013.992                          36.900          20.100
 105601706.017 7  82134702.796 6                  19754973.688    19754972.801
  19754979.734                          42.300          40.000
 126245519.283 5  98373067.42243                  24023698.063
  24023705.313                          35.500          19.300
 108481912.696 7  84531401.31746                  20643413.672
  20643417.000                          45.600          40.000
 102472158.368 7  79700667.046 6                  19156082.070    19156080.871
  19156088.645                          45.700          39.900
 107723535.789 8  83940506.78146                  20499101.844
  20499107.414                          48.200          40.100
 121332076.771 6                  90605135.801 7  23088726.406
                  23088729.461          40.900                          44.100
 122939429.330 7                  91805464.549 8  23394584.430
                  23394588.750          46.100                          50.700
 113608403.860 7                  84837454.845 7  21618958.516
                  21618960.039          42.700                          45.800
 136543483.727 6                 101964312.808 7  25983360.180
                  25983366.879          38.800                          42.100
 139404865.682 5                 104101068.435 6  26527859.109
                  26527863.191          32.500                          36.200
 110016956.131 7                  82155535.428 8  20935531.344
                  20935535.711          46.100                          49.500
 121303208.052 7                  90583614.555 7  23083225.352
                  23083231.254          43.500                          46.700
 19  7  9 10 16 37.0000000  0 21G06G29R24R08R02G30R22G13G07R01G15G02
                                R23G05E12E04E11E36E19E14E09
 119391999.200 6  93032832.94644  89156461.774 7  22719552.898
  22719561.535    22719562.813          39.400          28.200          47.000
 118445772.031 6  92295565.42044                  22539511.398
  22539519.031                          40.800          27.900
 109991059.004 6  85548564.307 5                  20568883.969    20568883.289
  20568886.875                          38.000          30.400
 108693778.514 6  84539634.385 7                  20297787.211    20297787.051
  20297791.336                          41.400          43.300
 126280882.528 5  98218471.702 5                  23664983.164    23664982.172
  23664989.262                          30.900          35.400
 123531606.727 6  96258390.87043  92247632.060 7  23507270.742
  23507279.133    23507279.910          36.800          23.600          45.400
 120854758.332 6  93998159.877 6                  22640167.281    22640166.031
  22640171.883                          38.600          38.500
 112907133.667 7  87979602.36845                  21485506.594
  21485512.309                          43.700          33.300
 127240330.229 6  99148246.62043                  24213004.703
  24213012.145                          37.000          19.600
 105601101.390 7  82134232.534 6                  19754860.734    19754860.035
  19754866.930                          42.300          40.300
 126241805.093 5  98370173.23943                  24022991.094
  24022998.543                          35.100          19.000
 108482103.539 7  84531550.02046                  20643450.078
  20643453.582                          45.500          40.100
 102473047.758 7  79701358.786 6                  19156248.320    19156247.215
  19156254.957                          45.800          39.900
 107723316.618 7  83940335.99546                  20499060.102
  20499065.598                          47.900          40.600
 121334322.610 6                  90606812.900 7  23089153.625
                  23089156.934          41.200                          44.200
 122939895.121 7                  91805812.378 8  23394673.234
                  23394677.418          46.100                          50.800
 113608090.119 7                  84837220.556 7  21618898.914
                  21618900.223          43.100                          45.700
 136540977.796 6                 101962441.494 7  25982883.133
                  25982889.992          38.700                          42.100
 139407346.681 5                 104102921.092 6  26528330.953
                  26528335.738          32.800                          36.200
 110021552.688 7                  82158967.931 8  20936405.797
                  20936410.324          45.900                          49.100
 121301307.170 7                  90582195.044 7  23082863.500
                  23082869.500          43.300                          46.700
 19  7  9 10 16 38.0000000  0 21G06G29R24R08R02G30R22G13G07R01G15G02
                                R23G05E12E04E11E36E19E14E09
 119394687.214 6  93034927.50244  89158469.072 7  22720064.539
  22720073.215    22720074.352          39.400          27.900          46.600
 118444112.038 6  92294271.91844                  22539195.844
  22539203.121                          40.700          27.700
 109988255.806 6  85546384.016 5                  20568359.109    20568359.180
  20568362.859                          37.700          30.900
 108696025.350 6  84541381.945 7                  20298207.617    20298206.613
  20298210.875                          41.400          43.300
 126277713.201 5  98216006.707 5                  23664388.648    23664388.219
  23664395.617                          31.200          35.100
 123530077.181 6  96257199.00543  92246489.886 7  23506978.313
  23506988.043    23506988.832          36.700          23.000          45.700
 120858920.451 6  94001397.084 6                  22640946.102    22640945.770
  22640951.664                          38.400          38.300
 112904363.047 7  87977443.44445                  21484979.531
  21484984.926                          43.700          34.000
 127240320.485 6  99148239.00743                  24213002.836
  24213010.195                          36.300          19.300
 105600497.599 7  82133762.906 6                  19754748.273    19754747.223
  19754753.742                          42.500          40.500
 126238091.335 5  98367279.40943                  24022284.305
  24022291.676                          35.200          19.000
 108482295.152 7  84531699.33146                  20643486.445
  20643489.574                          45.600          40.200
 102473938.329 7  79702051.457 6                  19156414.844    19156413.668
  19156421.266                          45.800          39.900
 107723098.003 8  83940165.64746                  20499018.602
  20499024.012                          48.200          40.400
 121336569.061 6                  90608490.440 7  23089580.961
                  23089584.508          40.900                          44.200
 122940361.504 7                  91806160.659 8  23394761.836
                  23394766.086          46.300                          50.800
 113607777.080 7                  84836986.794 7  21618839.195
                  21618840.613          43.000                          45.800
 136538472.297 6                 101960570.520 6  25982406.289
                  25982413.156          38.600                          41.800
 139409827.974 5                 104104774.005 6  26528803.000
                  26528807.637          32.900                          36.100
 110026150.307 7                  82162401.217 8  20937280.625
                  20937285.289          46.100                          49.300
 121299406.828 7                  90580775.977 7  23082502.188
                  23082507.984          43.400                          46.900
