     2.11           OBSERVATION DATA    M (MIXED)           RINEX VERSION / TYPE
teqc  2016Nov7      KASI/KOREA          20190709 10:47:38UTCPGM / RUN BY / DATE
Linux 2.4.20-8|Pentium IV|gcc|Linux|486/DX+                 COMMENT
  0.0000      (antenna height)                              COMMENT
 +36.39942714 (latitude)                                    COMMENT
+127.37448264 (longitude)                                   COMMENT
0116.859      (elevation)                                   COMMENT
BIT 2 OF LLI FLAGS DATA COLLECTED UNDER A/S CONDITION       COMMENT
23902M002 (COGO code)                                       COMMENT
DAEJ                                                        MARKER NAME
23902M002                                                   MARKER NUMBER
KASI GPS            KASI/KOREA                              OBSERVER / AGENCY
5412K48145          TRIMBLE NETR9       5.20                REC # / TYPE / VERS
4923363230          TRM59800.00     SCIS                    ANT # / TYPE
 -3120041.4470  4084615.0240  3764026.4153                  APPROX POSITION XYZ
        0.0000        0.0000        0.0000                  ANTENNA: DELTA H/E/N
     1     1                                                WAVELENGTH FACT L1/2
    10    L1    L2    L5    C1    P1    P2    C5    S1    S2# / TYPES OF OBSERV
          S5                                                # / TYPES OF OBSERV
    18                                                      LEAP SECONDS
 SNR is mapped to RINEX snr flag value [0-9]                COMMENT
  L1 & L2: min(max(int(snr_dBHz/6), 0), 9)                  COMMENT
  2019     7     9    10    30    0.0000000     GPS         TIME OF FIRST OBS
                                                            END OF HEADER
 19  7  9 10 30  0.0000000  0 21G06G29R24R08R02G30R22G13G07R01G15G02
                                R23G05E12E04E11E36E19E14E09
 121646182.188 6  94789338.76744  90839779.784 7  23148509.336
  23148519.023    23148519.152          36.100          24.600          44.400
 117311656.088 7  91411838.69744                  22323697.164
  22323703.551                          42.700          29.900
 107948678.070 6  83960045.932 5                  20186949.438    20186947.629
  20186951.508                          39.100          32.500
 110582679.277 6  86008779.268 7                  20650527.531    20650526.527
  20650530.453                          40.800          43.000
 123819278.360 5  96303891.842 5                  23203679.461    23203677.344
  23203685.195                          33.400          35.100
 122445168.105 6  95411816.36643  91436331.742 7  23300527.172
  23300535.484    23300535.945          38.100          23.500          46.300
 124278144.165 5  96660793.086 6                  23281483.219    23281481.781
  23281488.109                          35.300          36.400
 110832334.895 7  86362876.41145                  21090685.383
  21090691.367                          45.400          35.900
 127402850.429 6  99274886.10843                  24243931.914
  24243937.859                          37.900          19.300
 105278194.516 7  81883082.979 6                  19694455.602    19694453.473
  19694460.656                          42.500          40.300
 123320628.353 6  96093932.36343                  23467110.133
  23467115.828                          38.800          22.600
 108785294.412 7  84767802.51946                  20701145.297
  20701148.746                          45.600          40.000
 103467468.533 7  80474796.876 6                  19342144.773    19342144.113
  19342151.773                          46.800          39.900
 107637223.250 7  83873250.41346                  20482676.758
  20482682.152                          47.000          40.600
 123227841.394 6                  92020803.929 7  23449478.844
                  23449481.523          39.100                          42.700
 123410606.258 7                  92157317.623 8  23484246.344
                  23484250.613          45.700                          50.500
 113488045.127 7                  84747576.400 7  21596055.328
                  21596056.711          43.300                          46.000
 134581231.811 6                 100498995.196 7  25609955.398
                  25609962.652          39.400                          43.600
 141411582.096 5                 105599589.507 5  26909725.352
                  26909729.992          32.300                          35.100
 113928871.301 7                  85076770.540 8  21679944.109
                  21679948.801          46.100                          48.900
 119860624.167 7                  89506360.669 7  22808710.633
                  22808716.414          44.000                          47.500
 19  7  9 10 30  1.0000000  0 21G06G29R24R08R02G30R22G13G07R01G15G02
                                R23G05E12E04E11E36E19E14E09
 121649105.054 5  94791616.31944  90841962.454 7  23149065.633
  23149075.113    23149075.391          35.400          25.300          44.200
 117310497.783 7  91410936.12444                  22323477.023
  22323483.184                          42.200          28.200
 107946410.270 6  83958282.056 5                  20186524.914    20186523.832
  20186527.719                          39.200          32.500
 110585127.022 6  86010683.070 7                  20650984.281    20650983.910
  20650987.566                          40.600          43.000
 123816320.005 5  96301590.912 5                  23203125.922    23203123.195
  23203130.637                          34.400          35.200
 122444000.933 6  95410906.90643  91435460.179 7  23300305.117
  23300313.016    23300313.766          37.900          22.900          46.300
 124282495.511 5  96664177.491 6                  23282298.977    23282296.836
  23282303.578                          35.200          36.800
 110829946.070 7  86361014.98846                  21090230.617
  21090236.637                          45.300          36.200
 127403267.058 6  99275210.73743                  24244010.711
  24244016.840                          37.600          19.600
 105277989.102 7  81882923.211 6                  19694416.016    19694415.363
  19694421.973                          42.500          40.100
 123317074.485 6  96091163.10843                  23466433.250
  23466439.484                          39.100          22.800
 108785861.911 7  84768244.72546                  20701253.344
  20701256.813                          45.200          39.700
 103469052.193 7  80476028.602 6                  19342441.422    19342440.223
  19342447.809                          46.600          40.000
 107637226.122 7  83873252.64846                  20482677.336
  20482683.012                          47.300          40.400
 123230307.708 6                  92022645.704 7  23449947.867
                  23449950.648          39.500                          42.400
 123411308.270 7                  92157841.854 8  23484379.977
                  23484384.223          46.400                          50.300
 113488062.654 7                  84747589.510 7  21596058.547
                  21596060.082          43.000                          45.900
 134578863.066 6                 100497226.336 7  25609504.727
                  25609512.020          38.900                          43.600
 141414088.245 5                 105601460.958 5  26910202.023
                  26910206.969          33.300                          35.300
 113933978.842 7                  85080584.609 8  21680916.016
                  21680920.691          46.100                          48.500
 119858937.213 7                  89505100.933 7  22808389.383
                  22808395.316          44.200                          47.900
 19  7  9 10 30  2.0000000  0 21G06G29R24R08R02G30R22G13G07R01G15G02
                                R23G05E12E04E11E36E19E14E09
 121652028.167 5  94793894.10043  90844145.318 7  23149621.625
  23149631.266    23149631.641          35.400          23.200          44.500
 117309340.111 7  91410034.04844                  22323256.453
  22323263.141                          42.400          29.800
 107944143.188 6  83956518.784 5                  20186100.508    20186099.898
  20186103.664                          39.400          32.600
 110587574.994 6  86012587.043 7                  20651441.852    20651441.082
  20651444.656                          40.700          42.700
 123813361.861 5  96299290.152 5                  23202570.406    23202569.016
  23202576.469                          34.100          35.400
 122442834.230 6  95409997.76843  91434588.942 7  23300083.234
  23300091.492    23300091.773          38.200          22.800          46.500
 124286847.048 5  96667561.993 6                  23283112.750    23283111.973
  23283118.855                          35.600          36.700
 110827557.735 7  86359153.94746                  21089775.813
  21089781.785                          45.400          36.200
 127403684.134 6  99275535.76143                  24244090.164
  24244096.633                          37.900          20.100
 105277784.113 7  81882763.777 6                  19694377.578    19694376.809
  19694383.539                          42.200          40.400
 123313520.808 6  96088394.02643                  23465756.570
  23465763.016                          38.800          22.500
 108786429.855 7  84768687.27846                  20701361.609
  20701365.105                          45.400          39.600
 103470636.671 7  80477260.979 6                  19342737.094    19342736.504
  19342743.648                          46.700          40.100
 107637229.237 7  83873255.07446                  20482678.031
  20482683.543                          47.600          40.500
 123232774.311 6                  92024487.600 7  23450417.383
                  23450420.176          39.400                          42.300
 123412010.521 7                  92158366.271 8  23484513.664
                  23484517.867          46.200                          50.300
 113488080.625 7                  84747602.931 7  21596061.984
                  21596063.441          42.700                          45.800
 134576494.512 6                 100495457.599 7  25609054.117
                  25609061.016          39.600                          43.600
 141416594.355 5                 105603332.456 5  26910678.531
                  26910683.727          32.800                          35.200
 113939086.900 7                  85084399.063 8  21681887.992
                  21681892.789          46.100                          48.700
 119857250.501 7                  89503841.372 7  22808068.375
                  22808074.430          44.200                          47.900
 19  7  9 10 30  3.0000000  0 21G06G29R24R08R02G30R22G13G07R01G15G02
                                R23G05E12E04E11E36E19E14E09
 121654951.614 5  94796172.10644  90846328.389 7  23150177.820
  23150187.480    23150187.781          35.300          24.000          44.600
 117308183.105 7  91409132.48344                  22323035.945
  22323042.566                          42.900          29.800
 107941876.829 6  83954756.060 5                  20185676.945    20185675.934
  20185679.559                          39.000          32.700
 110590023.184 6  86014491.209 7                  20651898.258    20651897.934
  20651901.871                          40.800          42.600
 123810404.063 5  96296989.623 5                  23202016.672    23202014.438
  23202021.992                          34.500          35.600
 122441668.054 6  95409089.07343  91433718.084 7  23299860.773
  23299869.660    23299869.887          37.400          22.600          46.100
 124291198.820 5  96670946.670 6                  23283927.305    23283927.184
  23283933.707                          35.300          36.200
 110825169.928 7  86357293.31846                  21089321.719
  21089327.605                          45.300          36.100
 127404101.784 6  99275861.20343                  24244170.156
  24244176.047                          37.800          19.900
 105277579.657 7  81882604.738 6                  19694339.711    19694338.215
  19694345.254                          42.200          40.200
 123309967.385 6  96085625.10843                  23465080.695
  23465086.727                          39.100          22.600
 108786998.305 7  84769130.22746                  20701469.898
  20701472.988                          45.700          40.200
 103472222.035 7  80478494.017 6                  19343034.039    19343032.723
  19343040.543                          46.800          40.100
 107637232.658 7  83873257.74646                  20482678.586
  20482684.133                          47.500          40.600
 123235241.174 6                  92026329.721 7  23450886.734
                  23450889.516          39.600                          42.400
 123412713.096 7                  92158890.915 8  23484647.313
                  23484651.543          45.900                          50.500
 113488099.043 7                  84747616.687 7  21596065.430
                  21596066.957          42.700                          46.100
 134574126.165 6                 100493689.032 7  25608603.680
                  25608610.410          39.200                          43.800
 141419100.574 5                 105605203.963 5  26911155.313
                  26911160.633          33.200                          35.600
 113944195.525 7                  85088213.941 8  21682860.133
                  21682864.801          46.100                          48.800
 119855564.070 7                  89502582.022 8  22807747.641
                  22807753.426          44.300                          48.000
 19  7  9 10 30  4.0000000  0 21G06G29R24R08R02G30R22G13G07R01G15G02
                                R23G05E12E04E11E36E19E14E09
 121657875.353 5  94798450.32443  90848511.700 7  23150734.406
  23150744.031    23150744.102          35.500          23.400          44.800
 117307026.749 7  91408231.42845                  22322816.578
  22322822.730                          42.800          30.600
 107939611.155 6  83952993.886 5                  20185253.008    20185252.305
  20185256.023                          39.000          32.900
 110592471.594 6  86016395.538 7                  20652356.063    20652355.293
  20652358.984                          40.800          42.300
 123807446.532 5  96294689.335 5                  23201462.398    23201460.750
  23201467.754                          34.500          35.500
 122440502.335 6  95408180.71343  91432847.580 7  23299638.453
  23299647.305    23299647.996          37.400          22.800          46.000
 124295550.774 5  96674331.513 6                  23284742.727    23284741.855
  23284748.891                          35.700          36.300
 110822782.640 7  86355433.09845                  21088867.688
  21088873.254                          45.200          35.900
 127404519.983 6  99276187.06943                  24244249.258
  24244255.629                          37.800          19.300
 105277375.670 7  81882446.092 6                  19694301.063    19694300.176
  19694307.195                          42.300          40.200
 123306414.143 6  96082856.33743                  23464404.391
  23464410.219                          38.800          22.200
 108787567.230 7  84769573.54246                  20701577.977
  20701581.238                          45.700          40.100
 103473808.220 7  80479727.729 6                  19343330.852    19343329.277
  19343336.578                          46.500          40.200
 107637236.316 7  83873260.59646                  20482678.828
  20482684.766                          47.400          40.800
 123237708.277 6                  92028172.054 7  23451356.094
                  23451358.941          39.300                          42.400
 123413415.921 7                  92159415.756 8  23484780.992
                  23484785.305          46.200                          50.900
 113488117.878 7                  84747630.742 7  21596069.000
                  21596070.516          42.600                          45.900
 134571758.005 6                 100491920.585 7  25608153.094
                  25608159.781          38.900                          44.100
 141421606.791 5                 105607075.470 5  26911632.516
                  26911637.328          32.900                          35.500
 113949304.669 7                  85092029.215 8  21683832.328
                  21683837.113          45.900                          48.800
 119853877.896 7                  89501322.885 7  22807426.680
                  22807432.539          43.900                          47.600
 19  7  9 10 30  5.0000000  0 21G06G29R24R08R02G30R22G13G07R01G15G02
                                R23G05E12E04E11E36E19E14E09
 121660799.325 6  94800728.75943  90850695.172 7  23151291.023
  23151300.031    23151300.484          36.300          23.200          44.600
 117305871.014 7  91407330.85544                  22322596.453
  22322602.824                          42.600          29.900
 107937346.213 6  83951232.256 5                  20184830.078    20184828.574
  20184832.063                          38.600          32.200
 110594920.247 6  86018300.019 7                  20652813.297    20652812.598
  20652816.313                          41.100          42.600
 123804489.264 5  96292389.264 5                  23200906.336    23200906.379
  23200913.488                          34.000          35.600
 122439337.108 6  95407272.73543  91431977.450 7  23299416.484
  23299425.563    23299426.387          37.300          22.500          45.600
 124299902.847 5  96677716.496 6                  23285558.805    23285557.156
  23285564.125                          35.600          36.700
 110820395.819 7  86353573.23745                  21088413.273
  21088419.203                          45.400          35.500
 127404938.717 6  99276513.35543                  24244327.953
  24244335.172                          37.000          19.000
 105277172.113 7  81882287.789 6                  19694263.305    19694261.949
  19694269.031                          42.600          40.000
 123302861.188 6  96080087.81043                  23463728.766
  23463734.480                          38.900          22.500
 108788136.629 7  84770017.23046                  20701686.625
  20701689.844                          45.500          40.100
 103475395.242 7  80480962.072 6                  19343626.734    19343625.934
  19343633.473                          46.500          40.200
 107637240.260 7  83873263.67246                  20482679.922
  20482685.219                          47.100          40.600
 123240175.636 6                  92030014.574 7  23451825.375
                  23451828.504          39.700                          42.300
 123414119.017 7                  92159940.802 8  23484914.758
                  23484919.227          46.100                          50.600
 113488137.118 7                  84747645.104 7  21596072.742
                  21596074.211          42.700                          45.800
 134569390.015 6                 100490152.304 7  25607702.289
                  25607709.125          39.400                          43.800
 141424113.012 5                 105608947.002 6  26912109.578
                  26912114.301          32.800                          36.100
 113954414.325 7                  85095844.877 8  21684804.867
                  21684809.414          45.700                          48.800
 119852191.974 7                  89500063.927 7  22807105.789
                  22807111.734          44.200                          47.800
 19  7  9 10 30  6.0000000  0 21G06G29R24R08R02G30R22G13G07R01G15G02
                                R23G05E12E04E11E36E19E14E09
 121663723.569 5  94803007.37243  90852878.891 7  23151847.563
  23151856.734    23151856.824          35.800          23.200          44.300
 117304715.970 7  91406430.81745                  22322376.383
  22322382.395                          42.600          30.000
 107935082.045 6  83949471.222 5                  20184405.891    20184405.281
  20184408.402                          38.400          32.500
 110597369.091 6  86020204.679 7                  20653270.633    20653269.699
  20653273.664                          41.100          42.900
 123801532.361 5  96290089.460 5                  23200352.563    23200352.629
  23200359.457                          33.700          35.900
 122438172.401 6  95406365.17143  91431107.679 7  23299195.344
  23299204.023    23299204.586          37.700          21.700          45.600
 124304255.164 5  96681101.632 6                  23286374.555    23286372.602
  23286379.875                          35.800          36.600
 110818009.554 7  86351713.81045                  21087958.953
  21087965.094                          45.200          35.400
 127405358.008 6  99276840.06343                  24244408.656
  24244414.852                          37.200          19.900
 105276969.102 7  81882129.880 6                  19694224.734    19694224.457
  19694231.063                          42.500          40.000
 123299308.457 6  96077319.44643                  23463052.195
  23463058.281                          38.100          21.700
 108788706.539 7  84770461.31446                  20701794.805
  20701798.234                          45.400          39.700
 103476983.131 7  80482197.106 6                  19343923.688    19343922.582
  19343930.320                          46.400          40.100
 107637244.477 7  83873266.95746                  20482680.531
  20482686.184                          47.000          40.400
 123242643.305 6                  92031857.295 7  23452295.383
                  23452298.074          39.400                          42.600
 123414822.439 7                  92160466.072 8  23485048.789
                  23485053.020          46.200                          50.900
 113488156.802 7                  84747659.809 7  21596076.492
                  21596077.945          42.600                          46.000
 134567022.282 6                 100488384.187 7  25607251.844
                  25607258.637          39.100                          43.400
 141426619.239 5                 105610818.569 5  26912586.570
                  26912591.422          32.500                          35.500
 113959524.557 7                  85099660.965 8  21685777.234
                  21685781.934          45.400                          48.700
 119850506.383 7                  89498805.185 7  22806784.945
                  22806790.992          44.200                          47.800
 19  7  9 10 30  7.0000000  0 21G06G29R24R08R02G30R22G13G07R01G15G02
                                R23G05E12E04E11E36E19E14E09
 121666648.091 6  94805286.23643  90855062.782 7  23152403.727
  23152413.031    23152413.324          36.000          22.800          44.600
 117303561.494 7  91405531.22644                  22322157.070
  22322163.090                          42.700          29.700
 107932818.493 6  83947710.670 5                  20183982.750    20183981.879
  20183985.223                          38.600          32.400
 110599818.082 6  86022109.452 7                  20653727.344    20653727.066
  20653730.711                          41.000          42.300
 123798575.662 5  96287789.759 5                  23199799.641    23199798.180
  23199805.406                          34.200          35.600
 122437008.068 6  95405457.91043  91430238.237 7  23298973.641
  23298982.270    23298983.082          37.700          22.600          45.600
 124308607.572 5  96684486.881 6                  23287190.117    23287188.141
  23287194.820                          35.700          36.100
 110815623.722 7  86349854.72045                  21087505.164
  21087511.012                          45.000          35.800
 127405777.792 6  99277167.19243                  24244488.148
  24244494.734                          36.600          19.900
 105276766.485 7  81881972.272 6                  19694187.094    19694186.371
  19694193.309                          42.400          39.700
 123295755.879 6  96074551.22743                  23462376.078
  23462382.176                          38.300          22.200
 108789276.859 7  84770905.72746                  20701903.656
  20701906.660                          45.400          39.500
 103478571.792 7  80483432.722 6                  19344221.281    19344219.566
  19344227.648                          46.700          39.500
 107637248.918 7  83873270.41746                  20482681.219
  20482687.223                          46.700          40.200
 123245111.144 6                  92033700.181 7  23452764.977
                  23452767.688          39.100                          42.300
 123415526.064 7                  92160991.506 8  23485182.594
                  23485186.949          45.900                          50.800
 113488176.865 7                  84747674.779 7  21596080.273
                  21596081.727          42.600                          46.000
 134564654.681 6                 100486616.166 7  25606801.234
                  25606808.004          39.400                          43.600
 141429125.467 5                 105612690.089 5  26913063.641
                  26913068.613          32.200                          35.400
 113964635.260 7                  85103477.386 8  21686749.781
                  21686754.445          45.600                          48.700
 119848820.972 7                  89497546.611 7  22806464.578
                  22806470.324          44.500                          47.600
 19  7  9 10 30  8.0000000  0 21G06G29R24R08R02G30R22G13G07R01G15G02
                                R23G05E12E04E11E36E19E14E09
 121669572.854 6  94807565.27844  90857246.866 7  23152961.414
  23152969.809    23152969.668          36.400          24.700          44.600
 117302407.658 7  91404632.13344                  22321937.305
  22321943.648                          42.700          29.600
 107930555.708 6  83945950.765 5                  20183559.641    20183558.793
  20183562.520                          38.600          32.400
 110602267.266 6  86024014.398 7                  20654185.039    20654183.871
  20654188.109                          41.300          42.500
 123795619.263 5  96285490.327 6                  23199245.938    23199244.453
  23199251.344                          33.700          36.100
 122435844.238 6  95404551.04744  91429369.170 7  23298752.883
  23298760.754    23298761.703          38.600          25.000          45.800
 124312960.271 6  96687872.256 6                  23288006.164    23288003.789
  23288010.602                          36.100          36.700
 110813238.399 7  86347996.02545                  21087051.195
  21087057.125                          45.100          35.800
 127406198.076 6  99277494.65543                  24244569.281
  24244574.910                          37.100          19.900
 105276564.350 7  81881815.062 6                  19694149.133    19694148.738
  19694155.781                          42.300          40.200
 123292203.580 6  96071783.19343                  23461700.563
  23461706.641                          38.900          22.200
 108789847.682 7  84771350.52246                  20702012.375
  20702015.004                          45.700          39.900
 103480161.316 7  80484669.007 6                  19344517.805    19344516.980
  19344524.684                          46.800          39.800
 107637253.646 7  83873274.10046                  20482681.891
  20482688.000                          47.100          40.200
 123247579.264 6                  92035543.243 7  23453234.719
                  23453237.273          38.700                          42.200
 123416229.997 7                  92161517.160 8  23485316.492
                  23485320.805          46.000                          50.600
 113488197.343 7                  84747690.083 7  21596084.195
                  21596085.578          42.600                          45.900
 134562287.269 6                 100484848.294 7  25606350.734
                  25606357.605          39.300                          43.500
 141431631.666 5                 105614561.632 5  26913540.445
                  26913545.289          33.300                          35.500
 113969746.519 7                  85107294.222 8  21687722.469
                  21687727.012          45.700                          48.200
 119847135.867 7                  89496288.247 7  22806143.672
                  22806149.676          44.300                          47.400
 19  7  9 10 30  9.0000000  0 21G06G29R24R08R02G30R22G13G07R01G15G02
                                R23G05E12E04E11E36E19E14E09
 121672497.986 6  94809844.61044  90859431.197 7  23153517.461
  23153526.484    23153526.352          36.100          24.200          44.700
 117301254.530 7  91403733.58544                  22321717.727
  22321724.172                          42.400          29.400
 107928293.703 6  83944191.393 5                  20183136.867    20183135.387
  20183139.395                          38.600          32.200
 110604716.717 6  86025919.511 7                  20654641.633    20654641.684
  20654645.754                          40.400          42.900
 123792663.127 5  96283191.146 6                  23198690.578    23198690.055
  23198697.184                          34.300          36.300
 122434680.984 6  95403644.60943  91428500.481 7  23298531.055
  23298539.563    23298540.258          37.900          23.600          45.700
 124317313.153 5  96691257.816 6                  23288821.383    23288818.938
  23288825.891                          35.900          36.400
 110810853.629 7  86346137.75945                  21086597.383
  21086603.016                          45.000          35.800
 127406618.972 6  99277822.64943                  24244649.758
  24244655.004                          36.900          19.600
 105276362.724 6  81881658.257 6                  19694111.836    19694110.691
  19694117.797                          41.800          40.300
 123288651.528 6  96069015.34843                  23461024.672
  23461030.809                          39.400          22.000
 108790419.041 7  84771795.72946                  20702120.625
  20702123.789                          45.800          39.800
 103481751.735 7  80485906.006 6                  19344815.094    19344814.270
  19344821.930                          46.500          40.100
 107637258.687 7  83873278.03246                  20482683.023
  20482688.438                          47.500          40.500
 123250047.677 6                  92037386.539 7  23453703.859
                  23453706.953          39.600                          42.500
 123416934.220 7                  92162043.058 8  23485450.430
                  23485454.770          46.200                          50.500
 113488218.313 7                  84747705.740 7  21596088.141
                  21596089.680          42.700                          45.900
 134559920.092 6                 100483080.612 7  25605900.133
                  25605907.195          39.800                          43.600
 141434137.986 5                 105616433.223 5  26914017.273
                  26914022.441          32.800                          35.200
 113974858.344 7                  85111111.500 8  21688695.227
                  21688699.828          45.700                          48.400
 119845451.042 7                  89495030.108 7  22805823.008
                  22805829.047          44.200                          47.200
 19  7  9 10 30 10.0000000  0 21G06G29R24R08R02G30R22G13G07R01G15G02
                                R23G05E12E04E11E36E19E14E09
 121675423.406 5  94812124.12743  90861615.775 7  23154074.188
  23154083.035    23154082.996          35.900          23.800          44.300
 117300102.077 7  91402835.57744                  22321498.727
  22321504.652                          42.500          29.300
 107926032.413 6  83942432.615 5                  20182714.086    20182712.816
  20182716.375                          38.600          32.100
 110607166.406 6  86027824.815 7                  20655100.617    20655098.863
  20655103.012                          40.300          42.800
 123789707.268 5  96280892.143 6                  23198135.586    23198136.332
  23198143.605                          33.800          36.400
 122433518.232 6  95402738.56743  91427632.191 7  23298310.625
  23298318.047    23298318.973          37.900          23.600          46.000
 124321666.260 5  96694643.558 6                  23289636.500    23289634.383
  23289641.387                          35.700          36.600
 110808469.415 7  86344279.93745                  21086144.117
  21086149.688                          45.100          35.800
 127407040.426 6  99278151.05243                  24244729.078
  24244735.191                          36.300          19.600
 105276161.646 6  81881501.854 6                  19694075.133    19694073.027
  19694080.059                          41.800          40.000
 123285099.761 6  96066247.74043                  23460348.414
  23460355.008                          38.600          22.200
 108790990.898 7  84772241.32946                  20702229.125
  20702232.660                          45.700          39.600
 103483343.024 7  80487143.660 6                  19345113.211    19345111.777
  19345119.289                          46.400          40.100
 107637264.040 7  83873282.20046                  20482684.531
  20482690.238                          47.100          40.600
 123252516.398 6                  92039230.064 7  23454173.914
                  23454176.668          39.400                          42.700
 123417638.772 7                  92162569.180 8  23485584.633
                  23485588.883          46.400                          50.600
 113488239.712 7                  84747721.729 7  21596092.125
                  21596093.781          42.400                          45.900
 134557553.179 6                 100481313.096 7  25605450.000
                  25605456.758          39.700                          43.100
 141436644.335 5                 105618304.852 5  26914494.109
                  26914499.234          32.800                          35.400
 113979970.718 7                  85114929.200 8  21689667.758
                  21689672.563          45.600                          48.500
 119843766.548 7                  89493772.190 7  22805502.922
                  22805508.508          44.400                          47.200
 19  7  9 10 30 11.0000000  0 21G06G29R24R08R02G30R22G13G07R01G15G02
                                R23G05E12E04E11E36E19E14E09
 121678349.040 5  94814403.85343  90863800.491 7  23154630.914
  23154639.652    23154639.758          35.400          22.800          44.400
 117298950.187 7  91401938.00044                  22321279.836
  22321285.445                          42.700          29.300
 107923771.805 6  83940674.392 5                  20182290.992    20182290.477
  20182293.910                          38.900          32.400
 110609616.268 6  86029730.273 7                  20655556.875    20655556.176
  20655560.594                          40.400          42.700
 123786751.672 5  96278593.301 5                  23197582.797    23197582.320
  23197589.461                          33.900          35.400
 122432355.882 6  95401832.84143  91426764.214 7  23298088.406
  23298097.176    23298097.820          37.800          22.200          46.200
 124326019.461 6  96698029.395 6                  23290452.883    23290449.734
  23290457.027                          36.100          36.800
 110806085.600 7  86342422.41746                  21085690.352
  21085695.863                          45.300          36.000
 127407462.370 5  99278479.82243                  24244808.734
  24244815.730                          35.300          19.600
 105275960.922 6  81881345.752 6                  19694036.547    19694035.566
  19694042.297                          41.800          40.300
 123281548.165 6  96063480.25743                  23459672.609
  23459679.199                          39.400          22.600
 108791563.183 7  84772687.27046                  20702338.188
  20702341.418                          45.500          40.100
 103484935.094 7  80488381.964 6                  19345410.492    19345409.363
  19345417.043                          46.600          40.100
 107637269.597 7  83873286.53046                  20482685.461
  20482690.414                          47.500          40.400
 123254985.287 6                  92041073.741 7  23454643.922
                  23454646.516          39.300                          42.200
 123418343.537 7                  92163095.457 8  23485718.578
                  23485723.000          46.700                          50.700
 113488261.512 7                  84747737.986 7  21596096.625
                  21596097.797          42.300                          45.900
 134555186.371 6                 100479545.666 7  25604999.328
                  25605006.430          39.500                          43.200
 141439150.671 5                 105620176.425 5  26914971.102
                  26914975.973          32.600                          35.200
 113985083.594 7                  85118747.236 8  21690640.758
                  21690645.566          45.100                          48.300
 119842082.229 7                  89492514.434 7  22805182.438
                  22805187.922          44.600                          47.200
 19  7  9 10 30 12.0000000  0 21G06G29R24R08R02G30R22G13G07R01G15G02
                                R23G05E12E04E11E36E19E14E09
 121681274.953 5  94816683.79043  90865985.441 7  23155187.086
  23155196.234    23155196.480          35.000          22.200          45.000
 117297798.979 7  91401040.95844                  22321059.938
  22321066.441                          42.700          28.700
 107921511.945 6  83938916.700 5                  20181867.680    20181867.563
  20181871.125                          38.700          32.600
 110612066.369 6  86031635.902 7                  20656013.945    20656013.668
  20656018.266                          40.600          42.600
 123783796.353 5  96276294.725 5                  23197029.617    23197028.297
  23197035.988                          33.800          35.400
 122431194.012 6  95400927.49643  91425896.597 7  23297867.914
  23297876.188    23297876.914          37.300          22.900          46.200
 124330372.827 5  96701415.345 6                  23291267.578    23291265.133
  23291272.566                          35.900          36.100
 110803702.328 7  86340565.32345                  21085236.688
  21085242.652                          45.500          35.900
 127407884.842 5  99278809.03043                  24244889.531
  24244895.828                          35.100          18.600
 105275760.743 7  81881190.038 6                  19693998.633    19693998.051
  19694005.121                          42.000          39.600
 123277996.774 6  96060712.94843                  23458996.258
  23459003.398                          39.500          22.900
 108792135.960 7  84773133.59046                  20702447.125
  20702450.805                          45.800          40.400
 103486528.026 7  80489620.907 6                  19345707.906    19345707.129
  19345714.750                          46.600          40.300
 107637275.414 7  83873291.06046                  20482686.477
  20482691.840                          47.000          40.200
 123257454.498 6                  92042917.615 7  23455113.672
                  23455116.375          39.300                          42.600
 123419048.562 7                  92163621.958 8  23485853.094
                  23485857.223          45.900                          50.800
 113488283.690 7                  84747754.556 7  21596100.656
                  21596102.078          42.200                          45.900
 134552819.765 6                 100477778.404 7  25604549.094
                  25604556.047          39.700                          43.400
 141441656.985 5                 105622048.010 5  26915448.117
                  26915452.941          31.800                          35.400
 113990196.984 7                  85122565.686 8  21691613.828
                  21691618.555          45.500                          48.500
 119840398.203 7                  89491256.877 7  22804861.789
                  22804867.543          44.400                          47.200
 19  7  9 10 30 13.0000000  0 21G06G29R24R08R02G30R22G13G07R01G15G02
                                R23G05E12E04E11E36E19E14E09
 121684201.155 5  94818963.92343  90868170.590 7  23155743.820
  23155753.109    23155753.340          35.200          22.300          44.600
 117296648.409 7  91400144.40644                  22320841.273
  22320847.590                          42.100          28.900
 107919252.783 6  83937159.586 5                  20181445.977    20181445.297
  20181448.883                          38.400          31.800
 110614516.684 6  86033541.712 7                  20656471.781    20656471.340
  20656475.668                          40.500          42.600
 123780841.242 5  96273996.370 5                  23196475.188    23196474.688
  23196482.184                          34.000          35.700
 122430032.705 6  95400022.57943  91425029.353 7  23297647.000
  23297655.270    23297655.773          37.500          22.900          46.300
 124334726.463 5  96704801.542 6                  23292082.836    23292080.719
  23292087.949                          35.700          36.400
 110801319.560 7  86338708.62445                  21084783.141
  21084789.090                          45.700          35.700
 127408307.837 5  99279138.63443                  24244969.961
  24244976.734                          34.600          19.000
 105275561.014 7  81881034.712 6                  19693961.117    19693960.652
  19693967.410                          42.100          39.700
 123274445.662 6  96057945.83643                  23458321.156
  23458327.617                          39.200          22.300
 108792709.203 7  84773580.27546                  20702556.523
  20702559.762                          45.800          40.200
 103488121.828 7  80490860.552 6                  19346006.539    19346005.059
  19346012.730                          46.500          40.100
 107637281.527 7  83873295.83046                  20482687.914
  20482693.434                          47.500          40.200
 123259923.944 6                  92044761.672 7  23455583.438
                  23455586.363          39.500                          42.900
 123419753.909 7                  92164148.661 8  23485987.008
                  23485991.324          46.000                          50.700
 113488306.306 7                  84747771.460 7  21596105.039
                  21596106.309          42.300                          46.000
 134550453.341 6                 100476011.307 7  25604098.656
                  25604105.754          39.500                          43.500
 141444163.297 5                 105623919.624 5  26915925.234
                  26915929.941          32.300                          35.500
 113995310.917 7                  85126384.540 8  21692586.938
                  21692591.750          45.700                          48.100
 119838714.468 7                  89489999.531 7  22804541.383
                  22804547.207          44.800                          47.100
 19  7  9 10 30 14.0000000  0 20G06G29R24R08G30R22G13G07R01G15G02R23
                                G05E12E04E11E36E19E14E09
 121687127.634 5  94821244.31143  90870355.931 7  23156301.516
  23156310.184    23156310.262          35.000          22.900          44.300
 117295498.487 7  91399248.36544                  22320622.320
  22320628.867                          42.000          29.200
 107916994.340 6  83935403.017 5                  20181022.961    20181023.102
  20181026.430                          38.700          32.200
 110616967.209 6  86035447.652 7                  20656929.906    20656929.324
  20656933.500                          40.500          42.900
 122428871.803 6  95399117.97844  91424162.455 7  23297425.992
  23297434.793    23297434.793          37.500          25.800          46.500
 124339080.223 5  96708187.808 6                  23292899.188    23292896.461
  23292903.445                          35.600          36.700
 110798937.279 7  86336852.30345                  21084329.938
  21084335.613                          45.800          35.500
 127408731.421 5  99279468.71043                  24245050.773
  24245057.426                          34.800          19.600
 105275361.772 7  81880879.742 6                  19693924.164    19693923.207
  19693930.281                          42.500          39.900
 123270894.721 6  96055178.88143                  23457645.430
  23457652.016                          38.900          22.600
 108793282.911 7  84774027.31746                  20702665.477
  20702668.992                          45.600          40.300
 103489716.471 7  80492100.822 6                  19346304.422    19346303.316
  19346311.055                          47.000          40.200
 107637287.904 7  83873300.79946                  20482689.086
  20482694.586                          47.400          40.100
 123262393.628 6                  92046605.923 7  23456053.594
                  23456056.129          39.400                          42.800
 123420459.504 7                  92164675.571 8  23486121.234
                  23486125.699          46.000                          51.000
 113488329.354 7                  84747788.662 7  21596109.398
                  21596110.715          42.900                          45.900
 134548087.174 6                 100474244.321 7  25603648.414
                  25603655.445          39.900                          43.300
 141446669.663 5                 105625791.217 5  26916402.313
                  26916406.824          32.300                          35.000
 114000425.366 7                  85130203.765 7  21693560.359
                  21693565.082          45.800                          47.900
 119837030.956 7                  89488742.369 7  22804221.227
                  22804226.746          44.400                          47.800
 19  7  9 10 30 15.0000000  0 20G06G29R24R08G30R22G13G07R01G15G02R23
                                G05E12E04E11E36E19E14E09
 121690054.359 5  94823524.88543  90872541.513 7  23156858.164
  23156867.500    23156867.309          34.600          22.500          44.300
 117294349.214 7  91398352.83044                  22320403.695
  22320410.289                          42.000          28.900
 107914736.647 6  83933647.015 5                  20180601.266    20180601.031
  20180603.840                          38.400          32.500
 110619417.934 6  86037353.793 7                  20657386.992    20657387.090
  20657391.207                          40.900          43.000
 122427711.424 6  95398213.78843  91423295.949 7  23297204.625
  23297213.594    23297213.969          37.100          23.000          46.500
 124343434.257 5  96711574.227 6                  23293714.836    23293712.250
  23293718.953                          35.900          36.600
 110796555.534 7  86334996.39745                  21083876.672
  21083882.652                          45.700          35.500
 127409155.515 5  99279799.15443                  24245130.391
  24245137.719                          35.000          19.600
 105275163.035 7  81880725.149 6                  19693887.109    19693886.645
  19693893.457                          42.400          40.200
 123267344.066 6  96052412.14243                  23456970.000
  23456976.387                          39.400          22.200
 108793857.169 7  84774474.78946                  20702774.719
  20702778.258                          45.800          40.000
 103491312.022 7  80493341.787 6                  19346602.438    19346601.613
  19346609.238                          46.700          40.500
 107637294.583 7  83873306.00446                  20482690.516
  20482696.273                          47.600          40.000
 123264863.614 6                  92048450.374 7  23456523.844
                  23456526.195          39.800                          42.700
 123421165.396 7                  92165202.699 8  23486255.758
                  23486259.992          46.100                          51.100
 113488352.865 7                  84747806.210 7  21596113.852
                  21596115.285          42.700                          45.900
 134545721.184 6                 100472477.503 7  25603198.250
                  25603205.340          39.700                          43.600
 141449175.997 5                 105627662.896 5  26916878.828
                  26916883.992          32.000                          35.000
 114005540.372 7                  85134023.413 8  21694533.578
                  21694538.359          45.900                          48.400
 119835347.762 7                  89487485.430 7  22803900.570
                  22803906.555          44.400                          47.800
 19  7  9 10 30 16.0000000  0 20G06G29R24R08G30R22G13G07R01G15G02R23
                                G05E12E04E11E36E19E14E09
 121692981.456 5  94825805.73743  90874727.297 7  23157415.070
  23157424.008    23157424.520          35.100          22.500          44.600
 117293200.616 6  91397457.81344                  22320184.922
  22320191.617                          41.700          29.300
 107912479.677 6  83931891.629 5                  20180178.906    20180178.508
  20180181.855                          38.700          32.400
 110621868.895 6  86039260.094 7                  20657846.070    20657844.738
  20657848.707                          40.600          42.900
 122426551.548 6  95397309.98944  91422429.814 7  23296983.938
  23296993.012    23296993.188          37.000          24.000          46.400
 124347788.402 5  96714960.789 6                  23294528.555    23294528.199
  23294534.605                          35.100          36.500
 110794174.319 7  86333140.90545                  21083423.656
  21083429.441                          45.300          35.900
 127409580.162 5  99280130.06843                  24245212.055
  24245218.910                          34.700          19.900
 105274964.779 7  81880570.963 6                  19693850.391    19693849.129
  19693856.160                          42.300          40.100
 123263793.659 6  96049645.57943                  23456293.906
  23456300.496                          38.800          22.200
 108794431.892 7  84774922.62246                  20702884.273
  20702887.418                          45.800          40.300
 103492908.433 7  80494583.408 6                  19346900.430    19346899.910
  19346907.496                          46.400          40.000
 107637301.542 7  83873311.42846                  20482691.547
  20482697.000                          47.100          40.100
 123267333.846 6                  92050295.074 7  23456993.797
                  23456996.445          39.700                          43.000
 123421871.591 7                  92165730.050 8  23486390.219
                  23486394.430          45.700                          51.000
 113488376.774 7                  84747824.090 7  21596118.492
                  21596119.602          42.300                          45.900
 134543355.400 6                 100470710.857 7  25602747.852
                  25602755.063          39.700                          43.900
 141451682.470 5                 105629534.532 5  26917355.891
                  26917360.809          31.700                          35.000
 114010655.954 7                  85137843.487 8  21695507.281
                  21695511.980          45.700                          48.400
 119833664.830 7                  89486228.709 7  22803580.172
                  22803586.266          44.600                          47.600
 19  7  9 10 30 17.0000000  0 21G06G29R24R08R02G30R22G13G07R01G15G02
                                R23G05E12E04E11E36E19E14E09
 121695908.722 5  94828086.73143  90876913.274 7  23157971.852
  23157981.207    23157981.367          35.000          22.800          44.500
 117292052.614 7  91396563.26544                  22319966.734
  22319973.309                          42.200          29.400
 107910223.375 6  83930136.746 5                  20179757.172    20179756.324
  20179760.184                          38.600          32.200
 110624320.045 6  86041166.537 7                  20658302.305    20658302.613
  20658306.543                          40.600          42.600
 123769023.89315  96264805.09215                  23194260.820    23194259.992
  23194266.844                          34.800          35.900
 122425392.082 6  95396406.50944  91421563.988 7  23296763.523
  23296772.594    23296772.469          37.100          24.100          46.200
 124352142.768 5  96718347.500 6                  23295346.898    23295344.406
  23295350.500                          35.200          36.200
 110791793.543 7  86331285.75845                  21082970.430
  21082975.746                          45.300          35.600
 127410005.324 5  99280461.31743                  24245293.133
  24245299.711                          35.200          19.600
 105274766.933 7  81880417.073 6                  19693813.297    19693812.504
  19693819.324                          42.600          40.400
 123260243.421 6  96046879.15843                  23455618.297
  23455625.125                          38.900          22.500
 108795007.043 7  84775370.79146                  20702994.078
  20702996.895                          46.100          39.900
 103494505.619 7  80495825.695 6                  19347199.977    19347198.543
  19347205.781                          46.700          40.200
 107637308.722 7  83873317.02046                  20482692.906
  20482698.488                          47.000          39.900
 123269804.339 6                  92052139.889 7  23457464.172
                  23457466.367          39.800                          42.800
 123422577.993 7                  92166257.568 8  23486524.484
                  23486528.840          45.500                          50.200
 113488401.089 7                  84747842.226 7  21596123.188
                  21596124.355          42.300                          45.800
 134540989.760 6                 100468944.294 7  25602298.273
                  25602304.938          39.800                          43.800
 141454188.79015                 105631406.187 5  26917832.813
                  26917837.711          32.500                          35.400
 114015771.989 7                  85141663.901 8  21696481.023
                  21696485.375          46.000                          48.300
 119831982.119 7                  89484972.151 7  22803260.211
                  22803266.051          44.600                          47.500
 19  7  9 10 30 18.0000000  0 21G06G29R24R08R02G30R22G13G07R01G15G02
                                R23G05E12E04E11E36E19E14E09
 121698836.298 5  94830367.94143  90879099.438 7  23158529.031
  23158537.941    23158538.547          35.300          22.800          44.100
 117290905.248 7  91395669.22044                  22319747.906
  22319754.520                          42.200          29.200
 107907967.862 6  83928382.416 5                  20179335.695    20179334.848
  20179338.422                          38.700          32.800
 110626771.399 6  86043073.151 7                  20658760.641    20658760.504
  20658764.434                          40.600          42.700
 123766070.211 5  96262507.774 6                  23193707.711    23193706.273
  23193713.461                          34.400          36.500
 122424233.126 6  95395503.42543  91420698.528 7  23296542.773
  23296551.734    23296552.133          37.200          23.200          46.200
 124356497.263 5  96721734.370 6                  23296162.195    23296159.914
  23296165.855                          35.400          36.100
 110789413.282 7  86329431.01045                  21082517.531
  21082523.035                          45.400          35.700
 127410430.986 5  99280793.05843                  24245374.352
  24245380.641                          35.400          18.600
 105274569.543 7  81880263.560 6                  19693776.953    19693775.668
  19693781.992                          42.300          40.200
 123256693.454 6  96044112.94543                  23454942.391
  23454949.930                          38.200          22.800
 108795582.682 7  84775819.34746                  20703103.367
  20703106.539                          45.800          40.200
 103496103.666 7  80497068.609 6                  19347498.508    19347497.426
  19347504.574                          46.800          40.200
 107637316.186 7  83873322.83946                  20482694.305
  20482700.285                          47.200          39.800
 123272275.038 6                  92053984.924 7  23457934.219
                  23457936.543          39.300                          42.600
 123423284.698 7                  92166785.295 8  23486659.047
                  23486663.242          45.600                          50.200
 113488425.803 7                  84747860.681 7  21596127.500
                  21596129.203          42.500                          46.000
 134538624.318 6                 100467177.908 7  25601848.055
                  25601854.832          39.700                          43.500
 141456695.189 5                 105633277.832 5  26918309.891
                  26918314.230          31.800                          35.000
 114020888.554 7                  85145484.714 8  21697454.492
                  21697459.191          45.500                          48.200
 119830299.695 7                  89483715.775 7  22802940.156
                  22802946.004          44.700                          47.300
 19  7  9 10 30 19.0000000  0 21G06G29R24R08R02G30R22G13G07R01G15G02
                                R23G05E12E04E11E36E19E14E09
 121701764.209 5  94832649.42543  90881285.840 7  23159086.164
  23159095.016    23159095.785          35.000          22.800          44.400
 117289758.577 7  91394775.71544                  22319530.000
  22319536.238                          42.500          29.300
 107905713.113 6  83926628.738 5                  20178914.531    20178912.887
  20178916.539                          38.500          31.900
 110629223.017 6  86044979.953 7                  20659219.219    20659217.887
  20659222.211                          40.500          43.100
 123763116.859 5  96260210.725 6                  23193152.898    23193153.105
  23193159.945                          34.600          36.600
 122423074.704 6  95394600.76543  91419833.464 7  23296322.258
  23296331.559    23296331.691          36.900          23.600          45.800
 124360851.963 5  96725121.362 6                  23296976.844    23296975.691
  23296981.895                          35.700          36.100
 110787033.560 7  86327576.68345                  21082064.688
  21082070.402                          45.600          35.700
 127410857.258 5  99281125.21443                  24245455.500
  24245461.645                          35.400          18.300
 105274372.672 7  81880110.413 6                  19693739.031    19693738.520
  19693745.453                          42.600          40.300
 123253143.668 6  96041346.88743                  23454266.688
  23454274.023                          38.300          22.500
 108796158.860 7  84776268.31546                  20703212.641
  20703216.156                          45.400          40.300
 103497702.570 7  80498312.222 6                  19347798.055    19347796.129
  19347803.766                          47.000          40.200
 107637323.944 7  83873328.87746                  20482695.797
  20482701.641                          47.500          40.100
 123274746.049 6                  92055830.148 7  23458404.477
                  23458406.699          39.900                          42.400
 123423991.704 7                  92167313.250 8  23486793.633
                  23486797.828          45.600                          50.600
 113488451.008 7                  84747879.500 7  21596132.500
                  21596134.000          42.100                          46.000
 134536259.105 6                 100465411.687 7  25601397.719
                  25601404.762          39.500                          43.500
 141459201.632 5                 105635149.552 5  26918786.828
                  26918791.293          32.800                          35.500
 114026005.695 7                  85149305.960 8  21698428.258
                  21698432.887          45.500                          48.400
 119828617.570 7                  89482459.652 7  22802619.945
                  22802625.859          44.400                          47.300
 19  7  9 10 30 20.0000000  0 21G06G29R24R08R02G30R22G13G07R01G15G02
                                R23G05E12E04E11E36E19E14E09
 121704692.354 5  94834931.12443  90883472.460 7  23159643.234
  23159652.469    23159653.320          35.600          23.200          44.700
 117288612.535 7  91393882.68544                  22319311.773
  22319318.156                          42.700          29.800
 107903459.055 6  83924875.566 5                  20178492.375    20178491.574
  20178495.559                          38.800          32.100
 110631674.796 6  86046886.905 7                  20659676.203    20659675.574
  20659680.117                          40.600          43.100
 123760163.752 5  96257913.878 6                  23192598.172    23192599.551
  23192606.457                          34.400          36.000
 122421916.739 6  95393698.45244  91418968.751 7  23296102.273
  23296111.484    23296111.273          37.300          24.200          45.900
 124365206.863 6  96728508.534 5                  23297793.352    23297791.820
  23297797.496                          36.000          35.700
 110784654.328 7  86325722.73545                  21081611.695
  21081617.719                          45.700          35.600
 127411284.001 5  99281457.74043                  24245535.828
  24245542.492                          35.000          18.300
 105274176.235 7  81879957.655 6                  19693703.422    19693701.996
  19693708.973                          42.400          40.500
 123249594.147 6  96038581.04143                  23453591.547
  23453598.785                          38.100          22.600
 108796735.482 7  84776717.62546                  20703322.578
  20703326.078                          45.200          40.300
 103499302.312 7  80499556.460 6                  19348096.563    19348095.059
  19348102.633                          47.000          39.900
 107637331.983 8  83873335.14846                  20482697.336
  20482703.121                          48.000          40.300
 123277217.324 6                  92057675.592 7  23458874.773
                  23458877.121          39.700                          42.600
 123424698.977 7                  92167841.407 8  23486928.078
                  23486932.461          45.700                          50.700
 113488476.586 7                  84747898.619 7  21596137.289
                  21596138.668          42.400                          45.800
 134533894.106 6                 100463645.603 7  25600947.641
                  25600954.727          39.800                          43.600
 141461708.073 5                 105637021.258 5  26919263.664
                  26919268.375          32.200                          35.500
 114031123.357 7                  85153127.587 8  21699401.953
                  21699406.715          45.600                          48.300
 119826935.694 7                  89481203.701 7  22802299.883
                  22802305.805          44.700                          47.300
 19  7  9 10 30 21.0000000  0 21G06G29R24R08R02G30R22G13G07R01G15G02
                                R23G05E12E04E11E36E19E14E09
 121707620.764 5  94837212.99543  90885659.276 7  23160200.164
  23160209.766    23160210.313          35.400          23.000          44.600
 117287467.156 7  91392990.18644                  22319093.789
  22319100.313                          42.800          29.700
 107901205.779 6  83923123.020 5                  20178071.328    20178070.410
  20178073.668                          38.900          32.200
 110634126.807 6  86048794.017 7                  20660134.242    20660133.824
  20660138.172                          40.400          43.400
 123757210.946 5  96255617.222 5                  23192048.023    23192046.328
  23192052.930                          34.700          35.800
 122420759.314 6  95392796.55743  91418104.424 7  23295881.773
  23295891.520    23295891.180          37.100          22.900          46.000
 124369561.964 5  96731895.807 5                  23298609.742    23298607.883
  23298613.520                          35.300          35.900
 110782275.611 7  86323869.18745                  21081159.078
  21081164.910                          45.800          35.800
 127411711.358 5  99281790.72843                  24245617.109
  24245624.285                          34.800          19.000
 105273980.281 7  81879805.234 6                  19693666.570    19693665.309
  19693672.141                          42.700          40.600
 123246044.863 6  96035815.35243                  23452915.953
  23452923.344                          38.700          22.600
 108797312.590 7  84777167.32846                  20703432.797
  20703435.676                          45.400          39.700
 103500902.905 7  80500801.377 6                  19348395.945    19348394.512
  19348402.023                          46.700          40.000
 107637340.276 7  83873341.60846                  20482698.734
  20482705.008                          47.500          40.400
 123279688.861 6                  92059521.216 7  23459344.977
                  23459347.363          39.900                          42.600
 123425406.542 7                  92168369.784 8  23487062.742
                  23487067.023          46.000                          50.600
 113488502.624 7                  84747918.063 7  21596142.227
                  21596143.785          42.600                          45.900
 134531529.290 6                 100461879.670 7  25600497.586
                  25600504.797          39.400                          43.700
 141464214.517 5                 105638892.933 5  26919740.414
                  26919745.305          32.000                          35.300
 114036241.549 7                  85156949.613 8  21700375.883
                  21700380.699          45.200                          48.100
 119825254.105 7                  89479947.981 7  22801979.727
                  22801985.754          44.500                          47.500
 19  7  9 10 30 22.0000000  0 21G06G29R24R08R02G30R22G13G07R01G15G02
                                R23G05E12E04E11E36E19E14E09
 121710549.471 5  94839495.09843  90887846.298 7  23160758.078
  23160766.836    23160767.891          35.700          23.200          44.700
 117286322.402 7  91392098.17744                  22318876.352
  22318882.430                          42.700          29.100
 107898953.153 6  83921370.982 5                  20177650.273    20177648.816
  20177652.434                          39.200          32.200
 110636578.991 6  86050701.263 7                  20660592.000    20660591.863
  20660596.008                          40.500          43.600
 123754258.364 5  96253320.769 5                  23191494.047    23191493.008
  23191499.547                          34.300          35.500
 122419602.315 6  95391895.00543  91417240.425 7  23295662.086
  23295670.754    23295671.016          37.500          23.200          46.100
 124373917.244 5  96735283.226 6                  23299424.758    23299423.461
  23299429.137                          35.400          36.200
 110779897.416 7  86322016.04945                  21080706.297
  21080712.434                          45.300          35.500
 127412139.151 5  99282124.08043                  24245699.148
  24245705.906                          35.200          18.600
 105273784.806 7  81879653.223 6                  19693629.406    19693628.660
  19693635.625                          42.600          40.500
 123242495.767 6  96033049.82843                  23452240.688
  23452248.023                          37.800          23.400
 108797890.183 7  84777617.39646                  20703542.648
  20703545.723                          45.400          39.400
 103502504.339 7  80502046.911 6                  19348694.664    19348693.816
  19348701.191                          47.000          40.000
 107637348.840 7  83873348.28346                  20482701.063
  20482706.473                          47.200          39.900
 123282160.647 6                  92061367.040 7  23459815.531
                  23459817.727          40.200                          42.600
 123426114.363 7                  92168898.348 8  23487197.336
                  23487201.758          46.100                          50.500
 113488529.090 7                  84747937.808 7  21596147.414
                  21596148.891          42.500                          45.900
 134529164.653 6                 100460113.894 7  25600047.914
                  25600054.566          39.200                          43.700
 141466721.035 5                 105640764.667 5  26920217.602
                  26920222.344          32.300                          35.400
 114041360.262 7                  85160772.021 8  21701350.063
                  21701354.684          45.700                          48.500
 119823572.763 7                  89478692.431 7  22801659.633
                  22801665.816          44.700                          47.800
 19  7  9 10 30 23.0000000  0 21G06G29R24R08R02G30R22G13G07R01G15G02
                                R23G05E12E04E11E36E19E14E09
 121713478.416 5  94841777.38843  90890033.487 7  23161315.336
  23161324.680    23161325.238          35.700          23.300          45.200
 117285178.278 7  91391206.65344                  22318658.547
  22318664.574                          42.300          29.900
 107896701.234 6  83919619.468 5                  20177228.953    20177227.730
  20177231.344                          39.000          31.600
 110639031.359 6  86052608.691 7                  20661049.328    20661049.754
  20661053.949                          40.400          43.500
 123751306.041 5  96251024.536 5                  23190938.984    23190939.402
  23190946.566                          34.600          35.400
 122418445.793 6  95390993.81643  91416376.796 7  23295442.141
  23295450.711    23295450.949          37.200          23.500          46.300
 124378272.639 5  96738670.766 5                  23300240.133    23300239.215
  23300245.324                          35.700          35.800
 110777519.670 7  86320163.25745                  21080254.164
  21080259.895                          44.900          35.500
 127412567.552 5  99282457.92043                  24245780.258
  24245787.301                          35.700          19.300
 105273589.768 7  81879501.534 6                  19693592.523    19693592.293
  19693599.223                          42.700          40.500
 123238946.924 6  96030284.49843                  23451564.883
  23451572.770                          38.100          22.800
 108798468.201 7  84778067.80246                  20703652.461
  20703655.887                          45.400          39.500
 103504106.604 7  80503293.126 6                  19348994.516    19348993.504
  19349000.613                          47.000          40.100
 107637357.649 7  83873355.14346                  20482702.211
  20482708.090                          47.500          40.100
 123284632.673 6                  92063213.010 7  23460285.789
                  23460288.078          39.700                          42.700
 123426822.437 7                  92169427.117 8  23487332.086
                  23487336.535          46.200                          50.900
 113488555.944 7                  84747957.853 7  21596152.313
                  21596153.773          42.400                          45.900
 134526800.218 6                 100458348.238 7  25599598.000
                  25599604.734          39.700                          43.700
 141469227.459 5                 105642636.347 5  26920694.625
                  26920699.188          32.200                          35.400
 114046479.491 7                  85164594.821 8  21702324.297
                  21702328.898          45.500                          48.900
 119821891.661 7                  89477437.077 7  22801339.992
                  22801345.906          44.600                          47.500
 19  7  9 10 30 24.0000000  0 21G06G29R24R08R02G30R22G13G07R01G15G02
                                R23G05E12E04E11E36E19E14E09
 121716407.662 5  94844059.92243  90892220.913 7  23161872.492
  23161881.809    23161882.590          35.500          23.500          45.300
 117284034.801 7  91390315.63145                  22318440.813
  22318447.102                          42.800          30.100
 107894450.006 6  83917868.588 5                  20176807.211    20176806.789
  20176810.738                          39.000          32.100
 110641483.957 6  86054516.255 7                  20661507.742    20661507.723
  20661512.012                          40.100          43.700
 123748353.988 5  96248728.496 5                  23190386.328    23190386.676
  23190393.352                          34.600          35.800
 122417289.746 6  95390092.99843  91415513.525 7  23295221.688
  23295231.230    23295231.160          37.000          23.200          46.000
 124382628.272 6  96742058.466 5                  23301056.023    23301054.824
  23301061.305                          36.000          35.900
 110775142.456 7  86318310.89145                  21079801.914
  21079807.711                          45.000          35.700
 127412996.465 5  99282792.14043                  24245861.977
  24245868.594                          35.700          18.300
 105273395.268 7  81879350.219 6                  19693557.250    19693555.637
  19693562.543                          42.600          40.500
 123235398.283 6  96027519.32143                  23450889.703
  23450897.641                          38.100          21.500
 108799046.737 7  84778518.61346                  20703762.523
  20703765.836                          45.500          39.400
 103505709.723 7  80504540.013 6                  19349294.344    19349292.770
  19349300.461                          47.100          40.100
 107637366.716 7  83873362.21246                  20482704.016
  20482709.641                          47.700          40.200
 123287104.978 6                  92065059.185 7  23460756.461
                  23460758.516          39.800                          42.700
 123427530.799 7                  92169956.079 8  23487466.953
                  23487471.313          46.000                          51.200
 113488583.205 7                  84747978.214 7  21596157.523
                  21596159.145          42.800                          45.800
 134524435.958 6                 100456582.713 7  25599148.164
                  25599154.887          39.500                          43.700
 141471733.944 5                 105644508.102 5  26921171.461
                  26921176.238          32.300                          35.200
 114051599.245 7                  85168418.017 8  21703298.367
                  21703303.098          45.900                          48.600
 119820210.855 7                  89476181.913 7  22801019.984
                  22801026.070          44.300                          47.900
 19  7  9 10 30 25.0000000  0 21G06G29R24R08R02G30R22G13G07R01G15G02
                                R23G05E12E04E11E36E19E14E09
 121719337.221 5  94846342.68243  90894408.565 7  23162429.750
  23162439.207    23162440.270          35.000          22.600          45.200
 117282892.016 7  91389425.14644                  22318223.898
  22318229.734                          42.600          29.300
 107892199.578 6  83916118.205 5                  20176387.656    20176385.871
  20176390.176                          39.200          32.600
 110643936.864 6  86056424.054 7                  20661965.391    20661965.723
  20661969.902                          40.400          43.200
 123745402.277 5  96246432.713 5                  23189833.961    23189834.074
  23189839.750                          34.900          35.900
 122416134.242 6  95389192.61644  91414650.646 7  23295001.648
  23295011.027    23295011.297          36.900          24.000          46.100
 124386984.054 5  96745446.340 5                  23301872.227    23301871.145
  23301877.504                          35.100          35.900
 110772765.782 7  86316458.93845                  21079349.445
  21079355.285                          45.100          35.400
 127413425.909 5  99283126.77643                  24245943.727
  24245950.355                          35.400          18.300
 105273201.259 7  81879199.322 6                  19693519.844    19693519.637
  19693526.344                          42.400          40.200
 123231849.949 6  96024754.40843                  23450214.336
  23450222.336                          38.400          22.000
 108799625.807 7  84778969.82846                  20703873.016
  20703876.262                          45.500          39.600
 103507313.761 7  80505787.571 6                  19349593.422    19349592.738
  19349600.254                          46.800          40.500
 107637376.113 8  83873369.53746                  20482705.328
  20482711.340                          48.000          40.000
 123289577.559 6                  92066905.620 7  23461226.500
                  23461229.066          39.600                          42.300
 123428239.475 7                  92170485.293 8  23487601.703
                  23487606.121          46.000                          51.100
 113488610.931 7                  84747998.931 7  21596162.961
                  21596164.281          42.300                          45.900
 134522071.958 6                 100454817.383 7  25598698.133
                  25598704.973          39.900                          43.100
 141474240.531 5                 105646379.847 5  26921648.539
                  26921653.172          32.000                          35.200
 114056719.568 7                  85172241.645 8  21704272.828
                  21704277.477          45.700                          48.700
 119818530.344 7                  89474926.987 7  22800700.070
                  22800706.301          44.500                          47.900
 19  7  9 10 30 26.0000000  0 21G06G29R24R08R02G30R22G13G07R01G15G02
                                R23G05E12E04E11E36E19E14E09
 121722267.032 5  94848625.67143  90896596.403 7  23162987.539
  23162996.754    23162997.863          35.400          22.500          45.200
 117281749.800 7  91388535.10745                  22318006.289
  22318012.602                          42.500          30.000
 107889949.815 6  83914368.403 5                  20175965.008    20175965.336
  20175969.047                          38.700          32.100
 110646389.945 6  86058332.024 7                  20662424.359    20662423.730
  20662428.145                          40.400          43.100
 123742450.754 5  96244137.074 6                  23189282.156    23189280.672
  23189286.824                          34.600          36.000
 122414979.138 6  95388292.51543  91413788.081 7  23294782.289
  23294791.371    23294791.293          36.800          23.300          46.000
 124391340.064 5  96748834.328 5                  23302688.367    23302687.070
  23302693.305                          35.700          35.600
 110770389.543 7  86314607.32145                  21078897.344
  21078903.492                          45.700          35.800
 127413855.868 5  99283461.80143                  24246025.422
  24246032.156                          35.200          19.000
 105273007.685 7  81879048.771 6                  19693483.227    19693483.277
  19693489.945                          42.600          40.500
 123228301.757 6  96021989.56643                  23449539.250
  23449547.293                          38.100          21.300
 108800205.266 7  84779421.35746                  20703982.945
  20703986.258                          45.500          40.200
 103508918.559 7  80507035.781 6                  19349893.781    19349892.887
  19349900.031                          46.600          40.200
 107637385.729 8  83873377.02746                  20482707.406
  20482713.426                          48.300          40.400
 123292050.342 6                  92068752.179 7  23461697.359
                  23461699.598          39.800                          42.200
 123428948.371 7                  92171014.658 8  23487736.727
                  23487741.063          46.200                          50.900
 113488639.039 7                  84748019.919 7  21596168.406
                  21596169.613          42.600                          46.000
 134519708.103 6                 100453052.162 7  25598248.391
                  25598255.223          39.800                          43.200
 141476746.993 5                 105648251.584 5  26922125.492
                  26922130.285          31.800                          35.800
 114061840.371 7                  85176065.611 8  21705247.188
                  21705252.051          45.700                          48.700
 119816850.057 7                  89473672.235 8  22800380.617
                  22800386.434          44.400                          48.000
 19  7  9 10 30 27.0000000  0 21G06G29R24R08R02G30R22G13G07R01G15G02
                                R23G05E12E04E11E36E19E14E09
 121725197.089 5  94850908.82643  90898784.438 7  23163545.406
  23163554.430    23163555.539          35.400          23.000          45.400
 117280608.254 7  91387645.60444                  22317788.500
  22317795.438                          42.500          29.600
 107887700.812 6  83912619.121 5                  20175545.422    20175544.789
  20175548.480                          38.800          32.300
 110648843.229 6  86060240.132 7                  20662883.375    20662882.137
  20662886.195                          40.500          42.600
 123739499.534 5  96241841.706 5                  23188728.320    23188727.234
  23188733.625                          35.000          35.600
 122413824.572 6  95387392.87043  91412925.893 7  23294562.469
  23294571.785    23294571.598          37.800          23.500          46.000
 124395696.224 5  96752222.458 5                  23303505.133    23303503.063
  23303509.602                          35.300          35.700
 110768013.835 7  86312756.11946                  21078445.508
  21078451.254                          46.200          36.200
 127414286.397 5  99283797.28943                  24246107.867
  24246113.844                          35.900          18.600
 105272814.609 7  81878898.597 6                  19693448.250    19693446.824
  19693454.398                          42.400          40.300
 123224753.813 6  96019224.95243                  23448864.164
  23448871.781                          38.300          22.500
 108800785.249 7  84779873.29346                  20704093.492
  20704096.293                          45.700          40.300
 103510524.219 7  80508284.606 6                  19350193.773    19350192.879
  19350200.242                          46.800          40.000
 107637395.616 8  83873384.73646                  20482709.492
  20482715.184                          48.300          40.000
 123294523.381 6                  92070598.944 7  23462168.000
                  23462170.359          39.800                          42.100
 123429657.555 7                  92171544.257 8  23487871.906
                  23487876.031          46.600                          50.700
 113488667.596 7                  84748041.246 7  21596173.703
                  21596175.133          42.400                          45.900
 134517344.450 6                 100451287.096 7  25597798.328
                  25597805.434          39.200                          43.500
 141479253.501 5                 105650123.338 5  26922602.766
                  26922607.383          31.500                          35.400
 114066961.715 7                  85179889.990 8  21706221.789
                  21706226.613          45.500                          48.300
 119815170.028 7                  89472417.672 7  22800060.625
                  22800066.902          44.600                          47.700
 19  7  9 10 30 28.0000000  0 21G06G29R24R08R02G30R22G13G07R01G15G02
                                R23G05E12E04E11E36E19E14E09
 121728127.456 5  94853192.23943  90900972.695 7  23164103.547
  23164112.078    23164113.238          35.000          22.900          45.400
 117279467.369 7  91386756.59744                  22317571.781
  22317578.238                          42.500          29.400
 107885452.553 6  83910870.488 5                  20175124.766    20175124.320
  20175128.324                          38.400          32.600
 110651296.727 6  86062148.398 7                  20663341.313    20663339.676
  20663344.207                          40.500          42.900
 123736548.626 5  96239546.516 6                  23188175.195    23188174.508
  23188181.113                          34.900          36.000
 122412670.472 6  95386493.55744  91412064.067 7  23294342.672
  23294351.813    23294352.016          37.500          24.100          45.800
 124400052.585 5  96755610.731 5                  23304321.578    23304319.156
  23304325.234                          35.300          35.300
 110765638.624 7  86310905.30346                  21077993.266
  21077999.117                          46.000          36.000
 127414717.433 5  99284133.13443                  24246189.320
  24246196.168                          35.500          18.300
 105272621.989 7  81878748.791 6                  19693411.750    19693411.355
  19693417.875                          42.400          40.200
 123221206.130 6  96016460.51343                  23448189.344
  23448196.430                          38.200          21.700
 108801365.705 7  84780325.60146                  20704203.938
  20704207.008                          45.300          40.200
 103512130.738 7  80509534.131 6                  19350494.133    19350493.285
  19350500.703                          46.700          40.100
 107637405.784 7  83873392.65546                  20482711.547
  20482716.973                          47.800          40.400
 123296996.733 6                  92072445.915 7  23462638.547
                  23462641.129          40.000                          42.100
 123430367.018 7                  92172074.053 8  23488006.641
                  23488010.984          46.600                          50.700
 113488696.576 7                  84748062.878 7  21596179.352
                  21596180.586          42.500                          45.900
 134514981.006 6                 100449522.173 7  25597348.906
                  25597355.480          39.300                          43.400
 141481760.038 5                 105651995.091 5  26923079.305
                  26923084.473          32.800                          35.500
 114072083.597 7                  85183714.771 8  21707196.492
                  21707201.297          45.400                          48.700
 119813490.322 7                  89471163.325 7  22799741.188
                  22799747.156          44.600                          47.500
 19  7  9 10 30 29.0000000  0 21G06G29R24R08R02G30R22G13G07R01G15G02
                                R23G05E12E04E11E36E19E14E09
 121731058.081 5  94855475.83643  90903161.158 7  23164660.570
  23164669.602    23164671.031          34.900          22.200          45.300
 117278327.162 7  91385868.11344                  22317354.609
  22317361.426                          42.900          28.600
 107883205.027 6  83909122.470 5                  20174705.148    20174704.043
  20174707.742                          38.700          32.000
 110653750.442 6  86064056.830 7                  20663799.391    20663798.223
  20663802.527                          40.400          43.000
 123733597.950 5  96237251.601 5                  23187621.656    23187621.535
  23187627.953                          34.500          35.600
 122411516.895 6  95385594.66943  91411202.627 7  23294122.563
  23294132.566    23294132.500          37.700          22.500          45.900
 124404409.179 5  96758999.185 5                  23305137.008    23305135.973
  23305141.395                          35.200          35.200
 110763263.951 7  86309054.91446                  21077541.391
  21077547.051                          46.000          36.100
 127415149.047 5  99284469.46043                  24246271.641
  24246278.258                          35.800          19.300
 105272429.877 7  81878599.387 6                  19693375.563    19693375.074
  19693382.027                          42.700          40.600
 123217658.696 6  96013696.29043                  23447513.992
  23447522.008                          38.200          21.500
 108801946.686 7  84780778.30746                  20704314.281
  20704317.883                          45.500          39.700
 103513738.138 7  80510784.308 6                  19350794.250    19350793.871
  19350800.984                          46.700          40.000
 107637416.251 7  83873400.80746                  20482713.719
  20482719.000                          47.500          39.900
 123299470.351 6                  92074293.081 7  23463109.102
                  23463111.828          39.900                          42.500
 123431076.806 7                  92172604.079 8  23488141.813
                  23488146.078          46.400                          50.500
 113488726.018 7                  84748084.864 7  21596184.531
                  21596186.160          42.800                          45.900
 134512617.736 6                 100447757.443 7  25596899.125
                  25596905.969          39.500                          43.600
 141484266.635 5                 105653866.892 5  26923556.320
                  26923561.418          32.500                          35.500
 114077206.025 7                  85187539.964 8  21708171.172
                  21708176.012          45.300                          48.600
 119811810.864 7                  89469909.196 7  22799421.625
                  22799427.609          44.100                          47.500
 19  7  9 10 30 30.0000000  0 21G06G29R24R08R02G30R22G13G07R01G15G02
                                R23G05E12E04E11E36E19E14E09
 121733989.040 5  94857759.69543  90905349.856 7  23165218.586
  23165227.574    23165228.625          34.800          23.900          45.600
 117277187.623 7  91384980.16444                  22317137.953
  22317144.316                          42.600          29.300
 107880958.251 6  83907374.977 5                  20174285.445    20174283.707
  20174287.578                          38.900          31.900
 110656204.353 6  86065965.438 7                  20664257.117    20664256.277
  20664260.676                          40.500          42.700
 123730647.651 5  96234956.901 5                  23187069.422    23187068.336
  23187074.785                          34.500          35.800
 122410363.812 6  95384696.17344  91410341.566 7  23293903.453
  23293913.813    23293913.207          37.300          24.300          46.300
 124408765.919 5  96762387.769 5                  23305952.547    23305951.934
  23305957.387                          34.800          35.400
 110760889.814 7  86307204.94045                  21077089.695
  21077095.391                          46.200          35.700
 127415581.216 6  99284806.24343                  24246354.125
  24246360.398                          36.600          19.300
 105272238.217 7  81878450.319 6                  19693340.375    19693339.535
  19693346.211                          42.400          40.900
 123214111.499 6  96010932.25743                  23446839.453
  23446846.633                          38.700          22.000
 108802528.151 7  84781231.39846                  20704424.750
  20704428.500                          45.600          39.500
 103515346.410 7  80512035.203 6                  19351095.055    19351094.395
  19351101.824                          46.800          39.900
 107637427.016 7  83873409.20246                  20482715.625
  20482721.109                          47.400          40.100
 123301944.276 6                  92076140.500 7  23463580.227
                  23463582.449          40.000                          42.500
 123431786.885 7                  92173134.330 8  23488276.953
                  23488281.191          46.300                          50.700
 113488755.873 7                  84748107.159 7  21596190.555
                  21596191.879          42.700                          45.800
 134510254.746 6                 100445992.858 7  25596449.367
                  25596456.328          39.100                          43.200
 141486773.278 5                 105655738.742 5  26924032.977
                  26924038.313          32.200                          35.700
 114082328.998 7                  85191365.558 8  21709146.078
                  21709150.793          45.600                          48.600
 119810131.709 7                  89468655.280 7  22799101.992
                  22799107.984          44.100                          47.400
 19  7  9 10 30 31.0000000  0 21G06G29R24R08R02G30R22G13G07R01G15G02
                                R23G05E12E04E11E36E19E14E09
 121736920.228 5  94860043.73143  90907538.730 7  23165776.031
  23165785.504    23165786.461          35.100          22.800          45.100
 117276048.673 7  91384092.67344                  22316921.336
  22316927.824                          42.600          29.600
 107878712.171 6  83905628.035 5                  20173864.836    20173863.754
  20173867.668                          38.300          32.300
 110658658.458 6  86067874.183 7                  20664716.344    20664715.059
  20664718.816                          40.700          42.900
 123727697.545 5  96232662.356 5                  23186515.852    23186515.660
  23186522.199                          34.700          35.600
 122409211.166 6  95383798.01044  91409480.840 7  23293684.172
  23293693.879    23293693.797          37.100          24.100          46.500
 124413122.830 5  96765776.476 5                  23306769.594    23306768.109
  23306773.484                          34.900          35.600
 110758516.088 7  86305355.28345                  21076637.844
  21076643.688                          45.700          35.500
 127416013.875 6  99285143.37843                  24246436.406
  24246442.945                          36.800          19.300
 105272047.010 7  81878301.580 6                  19693304.727    19693303.582
  19693310.152                          42.600          40.900
 123210564.484 6  96008168.35143                  23446164.281
  23446171.934                          38.800          22.900
 108803110.049 7  84781684.82746                  20704535.742
  20704539.348                          45.400          39.400
 103516955.488 7  80513286.700 6                  19351396.891    19351395.246
  19351402.656                          46.800          39.900
 107637437.977 7  83873417.74346                  20482717.242
  20482723.137                          47.700          39.500
 123304418.356 6                  92077988.034 7  23464050.703
                  23464053.469          39.700                          42.200
 123432497.175 7                  92173664.745 8  23488412.078
                  23488416.340          46.100                          50.600
 113488786.137 7                  84748129.742 7  21596196.211
                  21596197.770          42.600                          46.000
 134507891.886 6                 100444228.382 7  25595999.820
                  25596006.656          38.700                          43.000
 141489279.834 5                 105657610.545 5  26924509.938
                  26924515.215          32.300                          35.800
 114087452.457 7                  85195191.521 8  21710121.383
                  21710125.902          45.400                          48.900
 119808452.757 7                  89467401.528 7  22798782.352
                  22798788.586          44.400                          47.200
 19  7  9 10 30 32.0000000  0 21G06G29R24R08R02G30R22G13G07R01G15G02
                                R23G05E12E04E11E36E19E14E09
 121739851.599 5  94862327.93343  90909727.730 7  23166334.375
  23166343.563    23166344.371          35.600          23.000          45.300
 117274910.254 7  91383205.59744                  22316704.656
  22316710.992                          42.600          29.100
 107876466.690 6  83903881.537 5                  20173444.164    20173444.047
  20173447.840                          38.900          32.100
 110661112.622 6  86069782.984 7                  20665174.648    20665173.316
  20665177.332                          40.500          43.000
 123724747.610 5  96230367.970 5                  23185962.930    23185962.477
  23185969.039                          34.500          35.900
 122408058.903 6  95382900.12744  91408620.380 7  23293465.102
  23293474.969    23293474.488          37.400          24.200          46.400
 124417479.755 5  96769165.204 5                  23307585.492    23307583.750
  23307590.211                          34.800          35.400
 110756142.813 7  86303505.97345                  21076186.430
  21076192.418                          45.700          35.500
 127416446.947 6  99285480.84043                  24246518.453
  24246525.281                          37.400          20.100
 105271856.129 7  81878153.135 6                  19693269.156    19693267.824
  19693274.148                          42.300          40.500
 123207017.612 6  96005404.54243                  23445489.719
  23445497.301                          38.700          23.400
 108803692.337 7  84782138.55946                  20704646.188
  20704649.820                          45.400          39.800
 103518565.283 7  80514538.777 6                  19351696.969    19351696.262
  19351703.527                          46.800          39.900
 107637449.112 7  83873426.41546                  20482719.445
  20482725.340                          47.800          40.200
 123306892.605 6                  92079835.695 7  23464521.641
                  23464524.375          39.500                          42.600
 123433207.648 7                  92174195.285 8  23488547.070
                  23488551.516          46.200                          50.400
 113488816.650 7                  84748152.571 7  21596202.070
                  21596203.613          42.600                          45.900
 134505529.120 6                 100442463.979 7  25595550.125
                  25595556.973          39.300                          43.200
 141491786.308 5                 105659482.289 5  26924987.367
                  26924992.355          32.000                          35.200
 114092576.343 7                  85199017.797 8  21711096.328
                  21711100.875          45.100                          48.900
 119806773.994 7                  89466147.891 7  22798462.797
                  22798469.098          44.300                          47.400
 19  7  9 10 30 33.0000000  0 21G06G29R24R08R02G30R22G13G07R01G15G02
                                R23G05E12E04E11E36E19E14E09
 121742783.286 5  94864612.35843  90911916.980 7  23166892.219
  23166901.445    23166902.461          35.800          23.300          45.400
 117273772.574 7  91382319.09045                  22316487.703
  22316494.570                          42.500          30.000
 107874222.016 6  83902135.664 5                  20173024.953    20173024.105
  20173028.027                          38.900          32.800
 110663567.103 6  86071692.038 7                  20665632.539    20665632.098
  20665635.465                          40.800          43.200
 123721797.982 5  96228073.856 5                  23185412.336    23185409.914
  23185416.121                          34.700          35.100
 122406907.238 6  95382002.73644  91407760.349 7  23293246.039
  23293255.207    23293255.293          37.500          24.900          46.300
 124421836.976 5  96772554.181 5                  23308402.039    23308400.320
  23308406.184                          35.100          35.600
 110753770.106 7  86301657.10945                  21075734.703
  21075740.625                          45.400          35.800
 127416880.652 6  99285818.79743                  24246601.313
  24246608.039                          37.500          20.100
 105271665.862 7  81878005.114 6                  19693232.648    19693232.090
  19693239.055                          42.400          40.800
 123203471.038 6  96002640.97143                  23444815.461
  23444821.977                          39.400          22.600
 108804275.171 7  84782592.71446                  20704758.141
  20704761.129                          45.200          39.600
 103520175.989 7  80515791.549 6                  19351998.039    19351997.145
  19352004.824                          46.700          39.800
 107637460.598 7  83873435.36846                  20482721.656
  20482727.234                          47.900          40.200
 123309367.219 6                  92081683.607 7  23464992.477
                  23464995.422          39.400                          42.600
 123433918.481 7                  92174726.105 8  23488682.633
                  23488686.793          46.100                          50.500
 113488847.731 7                  84748175.769 7  21596207.734
                  21596209.516          42.800                          45.900
 134503166.626 6                 100440699.775 7  25595100.305
                  25595107.430          39.100                          43.400
 141494292.913 5                 105661354.043 5  26925464.453
                  26925469.137          32.600                          35.200
 114097700.827 7                  85202844.524 8  21712071.656
                  21712076.047          45.200                          48.900
 119805095.584 7                  89464894.536 7  22798143.648
                  22798149.695          44.100                          47.600
 19  7  9 10 30 34.0000000  0 21G06G29R24R08R02G30R22G13G07R01G15G02
                                R23G05E12E04E11E36E19E14E09
 121745715.351 6  94866897.07243  90914106.507 7  23167450.117
  23167459.223    23167460.273          36.300          22.200          45.700
 117272635.605 7  91381433.13844                  22316271.758
  22316278.141                          42.500          29.600
 107871978.108 6  83900390.427 5                  20172605.430    20172604.441
  20172608.113                          38.600          32.400
 110666021.879 6  86073601.297 7                  20666090.797    20666090.332
  20666093.965                          40.700          43.300
 123718848.709 5  96225779.927 5                  23184859.297    23184857.156
  23184863.285                          34.700          35.400
 122405756.107 6  95381105.75543  91406900.738 7  23293026.789
  23293036.652    23293036.230          37.500          23.000          46.300
 124426194.482 5  96775943.317 5                  23309218.250    23309216.367
  23309223.039                          35.700          35.300
 110751397.953 7  86299808.68045                  21075283.242
  21075288.953                          45.600          35.500
 127417314.938 6  99286157.19243                  24246684.578
  24246690.684                          37.700          20.100
 105271476.095 7  81877857.529 6                  19693197.305    19693196.652
  19693203.570                          42.200          40.900
 123199924.730 6  95999877.60744                  23444140.586
  23444147.375                          39.400          24.000
 108804858.553 7  84783047.29846                  20704868.047
  20704872.016                          45.400          39.800
 103521787.601 7  80517045.010 6                  19352299.492    19352298.574
  19352305.750                          47.000          39.700
 107637472.430 7  83873444.59246                  20482724.422
  20482729.695                          47.800          40.500
 123311842.158 6                  92083531.771 7  23465463.305
                  23465466.273          39.600                          42.500
 123434629.641 7                  92175257.164 8  23488817.813
                  23488822.066          45.900                          50.700
 113488879.321 7                  84748199.341 7  21596213.938
                  21596215.375          42.600                          45.900
 134500804.390 6                 100438935.772 7  25594651.180
                  25594658.012          39.300                          43.600
 141496799.572 5                 105663225.941 5  26925941.188
                  26925946.359          32.000                          35.100
 114102825.902 7                  85206671.691 8  21713046.742
                  21713051.332          45.600                          48.700
 119803417.472 7                  89463641.399 7  22797824.094
                  22797830.383          44.400                          47.600
 19  7  9 10 30 35.0000000  0 21G06G29R24R08R02G30R22G13G07R01G15G02
                                R23G05E12E04E11E36E19E14E09
 121748647.638 5  94869181.99443  90916296.180 7  23168007.414
  23168016.938    23168018.117          35.600          22.600          45.300
 117271499.222 7  91380547.64144                  22316055.328
  22316062.348                          42.500          29.900
 107869734.879 6  83898645.690 5                  20172185.375    20172184.859
  20172188.453                          38.300          32.600
 110668476.844 6  86075510.716 7                  20666548.625    20666548.488
  20666552.508                          40.500          43.400
 123715899.619 5  96223486.247 5                  23184305.531    23184304.563
  23184310.938                          34.200          35.100
 122404605.372 6  95380209.08343  91406041.436 7  23292807.680
  23292817.387    23292817.129          37.200          23.300          46.400
 124430552.118 5  96779332.586 5                  23310034.617    23310033.063
  23310038.930                          35.300          35.400
 110749026.267 7  86297960.61346                  21074832.164
  21074838.105                          46.100          36.000
 127417749.729 6  99286495.96443                  24246767.500
  24246773.438                          37.700          19.900
 105271286.752 7  81877710.272 6                  19693162.547    19693161.121
  19693168.082                          42.300          40.500
 123196378.650 6  95997114.41743                  23443465.484
  23443472.535                          39.100          23.000
 108805442.348 7  84783502.19946                  20704979.461
  20704983.082                          45.700          39.400
 103523399.978 7  80518299.073 6                  19352600.508    19352599.801
  19352607.621                          46.800          39.900
 107637484.469 8  83873453.96646                  20482726.539
  20482732.113                          48.300          40.200
 123314317.281 6                  92085380.080 7  23465934.500
                  23465937.449          39.500                          42.700
 123435341.023 7                  92175788.397 8  23488953.195
                  23488957.453          46.100                          50.900
 113488911.252 7                  84748223.196 7  21596220.039
                  21596221.516          42.400                          45.900
 134498442.291 6                 100437171.885 7  25594201.375
                  25594208.559          39.900                          43.700
 141499306.174 5                 105665097.755 5  26926418.391
                  26926423.168          32.200                          35.400
 114107951.467 7                  85210499.216 8  21714022.164
                  21714026.719          45.900                          48.300
 119801739.605 7                  89462388.447 7  22797504.961
                  22797510.918          44.700                          47.400
 19  7  9 10 30 36.0000000  0 21G06G29R24R08R02G30R22G13G07R01G15G02
                                R23G05E12E04E11E36E19E14E09
 121751580.192 6  94871467.07643  90918486.107 7  23168565.625
  23168575.352    23168576.289          36.200          23.500          45.400
 117270363.529 7  91379662.68844                  22315838.992
  22315845.809                          42.600          29.500
 107867492.436 6  83896901.576 5                  20171766.836    20171765.590
  20171768.758                          39.000          32.200
 110670931.998 6  86077420.261 7                  20667007.852    20667007.246
  20667011.102                          41.200          43.700
 123712950.907 5  96221192.752 5                  23183752.953    23183752.242
  23183757.820                          34.300          35.200
 122403455.219 6  95379312.86244  91405182.545 7  23292589.375
  23292598.406    23292598.082          38.200          24.600          46.600
 124434909.943 5  96782722.006 5                  23310851.242    23310849.195
  23310855.629                          34.700          35.500
 110746655.118 7  86296112.96446                  21074380.672
  21074386.492                          46.000          36.100
 127418185.068 6  99286835.20743                  24246850.344
  24246856.168                          38.200          20.400
 105271097.929 7  81877563.411 6                  19693127.141    19693125.949
  19693132.555                          42.800          40.200
 123192832.799 6  95994351.43043                  23442791.000
  23442797.906                          39.400          22.200
 108806026.682 7  84783957.52446                  20705090.281
  20705094.121                          45.400          39.100
 103525013.248 7  80519553.850 6                  19352902.391    19352901.309
  19352909.301                          47.100          39.900
 107637496.800 7  83873463.58146                  20482728.617
  20482734.094                          47.800          40.200
 123316792.674 6                  92087228.596 7  23466405.609
                  23466408.371          39.400                          42.600
 123436052.752 7                  92176319.863 8  23489088.672
                  23489092.961          46.000                          50.800
 113488943.617 7                  84748247.362 7  21596225.992
                  21596227.688          42.300                          46.000
 134496080.444 6                 100435408.158 7  25593752.289
                  25593759.043          39.600                          43.600
 141501812.886 5                 105666969.591 5  26926895.336
                  26926900.262          32.000                          35.000
 114113077.570 7                  85214327.150 8  21714997.406
                  21715002.133          45.900                          48.000
 119800062.025 7                  89461135.703 7  22797185.750
                  22797191.844          44.800                          47.500
 19  7  9 10 30 37.0000000  0 21G06G29R24R08R02G30R22G13G07R01G15G02
                                R23G05E12E04E11E36E19E14E09
 121754513.021 6  94873752.42543  90920676.199 7  23169124.219
  23169133.738    23169134.215          36.300          23.600          45.200
 117269228.457 7  91378778.21144                  22315623.234
  22315630.180                          42.500          29.800
 107865250.676 6  83895157.937 5                  20171347.898    20171346.465
  20171349.805                          38.900          32.200
 110673387.322 6  86079329.962 7                  20667466.914    20667465.348
  20667469.438                          40.900          43.400
 123710002.354 5  96218899.432 5                  23183200.109    23183199.422
  23183205.793                          34.200          35.400
 122402305.494 6  95378416.96944  91404323.979 7  23292369.906
  23292379.316    23292379.434          38.200          25.200          46.200
 124439267.906 5  96786111.583 5                  23311666.750    23311665.453
  23311671.867                          35.000          35.400
 110744284.446 7  86294265.69345                  21073929.414
  21073935.367                          46.000          35.900
 127418620.960 6  99287174.85843                  24246933.461
  24246938.902                          38.300          19.300
 105270909.527 7  81877416.895 6                  19693092.133    19693090.684
  19693097.453                          43.000          40.100
 123189287.172 6  95991588.61443                  23442116.156
  23442123.082                          39.500          22.600
 108806611.455 7  84784413.19146                  20705201.938
  20705205.301                          45.900          39.500
 103526627.346 7  80520809.251 6                  19353204.227    19353203.051
  19353210.629                          47.000          38.800
 107637509.390 7  83873473.39146                  20482730.813
  20482736.633                          47.400          39.900
 123319268.340 6                  92089077.301 7  23466876.594
                  23466879.512          40.000                          42.600
 123436764.673 7                  92176851.516 8  23489224.094
                  23489228.402          45.700                          50.500
 113488976.375 7                  84748271.828 7  21596232.281
                  21596233.902          42.600                          45.900
 134493718.763 6                 100433644.553 7  25593302.453
                  25593309.570          39.600                          43.400
 141504319.521 5                 105668841.472 5  26927372.711
                  26927377.270          32.200                          35.300
 114118204.164 7                  85218155.456 8  21715973.016
                  21715977.676          45.300                          48.100
 119798384.702 7                  89459883.157 7  22796866.555
                  22796872.629          44.400                          47.500
 19  7  9 10 30 38.0000000  0 21G06G29R24R08R02G30R22G13G07R01G15G02
                                R23G05E12E04E11E36E19E14E09
 121757446.078 6  94876037.89943  90922866.459 7  23169681.789
  23169692.051    23169692.520          36.500          23.800          45.200
 117268093.943 7  91377894.17745                  22315407.641
  22315413.898                          42.200          30.200
 107863009.623 6  83893414.904 5                  20170927.813    20170927.203
  20170930.809                          38.800          32.400
 110675842.793 6  86081239.791 7                  20667924.719    20667923.973
  20667928.066                          40.800          43.600
 123707054.047 5  96216606.324 5                  23182647.781    23182647.047
  23182652.730                          34.100          35.100
 122401156.126 6  95377521.36244  91403465.729 7  23292151.758
  23292160.574    23292160.621          38.300          24.200          46.300
 124443626.012 5  96789501.198 5                  23312482.852    23312481.934
  23312488.160                          35.600          35.100
 110741914.192 7  86292418.73746                  21073478.883
  21073484.586                          46.200          36.700
 127419057.245 6  99287514.81843                  24247015.305
  24247022.039                          38.300          19.600
 105270721.565 7  81877270.678 6                  19693057.070    19693055.832
  19693062.266                          43.200          40.300
 123185741.677 6  95988825.90043                  23441441.508
  23441448.797                          39.500          22.900
 108807196.637 7  84784869.18046                  20705313.320
  20705316.668                          46.100          39.900
 103528242.237 7  80522065.286 6                  19353505.680    19353504.832
  19353513.027                          46.600          39.500
 107637522.167 7  83873483.34346                  20482733.758
  20482739.250                          47.600          40.400
 123321744.151 6                  92090926.131 7  23467348.047
                  23467350.406          39.500                          42.700
 123437476.813 7                  92177383.301 8  23489359.500
                  23489363.902          46.100                          50.200
 113489009.507 7                  84748296.563 7  21596238.813
                  21596240.207          42.500                          45.900
 134491357.198 6                 100431881.051 7  25592853.539
                  25592860.063          39.600                          43.600
 141506826.135 5                 105670713.244 5  26927849.414
                  26927854.332          33.000                          35.200
 114123331.249 7                  85221984.100 8  21716948.664
                  21716953.473          45.400                          48.300
 119796707.525 7                  89458630.737 7  22796547.531
                  22796553.574          44.200                          47.900
 19  7  9 10 30 39.0000000  0 21G06G29R24R08R02G30R22G13G07R01G15G02
                                R23G05E12E04E11E36E19E14E09
 121760379.482 6  94878323.68343  90925056.996 7  23170240.016
  23170250.113    23170250.730          36.200          22.900          45.200
 117266960.187 7  91377010.73844                  22315191.500
  22315198.117                          42.700          29.800
 107860769.396 6  83891672.494 5                  20170509.523    20170508.113
  20170511.914                          39.500          32.100
 110678298.590 6  86083149.855 7                  20668383.352    20668382.605
  20668386.598                          40.500          43.700
 123704106.155 5  96214313.540 5                  23182094.766    23182094.078
  23182100.926                          34.100          35.600
 122400007.421 6  95376626.27543  91402607.906 7  23291932.984
  23291942.461    23291941.992          38.400          23.000          46.100
 124447984.440 5  96792891.028 5                  23313298.398    23313298.418
  23313304.219                          35.400          35.100
 110739544.594 7  86290572.29845                  21073027.383
  21073033.453                          46.100          35.700
 127419494.193 6  99287855.30743                  24247098.961
  24247105.289                          38.400          19.600
 105270534.174 7  81877124.933 6                  19693021.453    19693020.566
  19693026.910                          43.100          40.100
 123182196.548 6  95986063.45543                  23440766.133
  23440773.965                          39.700          22.500
 108807782.410 7  84785325.62746                  20705425.078
  20705428.387                          46.000          39.700
 103529858.072 7  80523322.056 6                  19353808.414    19353807.051
  19353814.793                          46.700          39.700
 107637535.311 7  83873493.58946                  20482736.102
  20482742.004                          47.900          40.000
 123324220.372 6                  92092775.242 7  23467819.133
                  23467821.855          39.300                          42.000
 123438189.363 7                  92177915.391 8  23489495.070
                  23489499.488          46.200                          50.200
 113489043.169 7                  84748321.691 7  21596245.414
                  21596246.641          43.000                          45.800
 134488995.960 6                 100430117.784 7  25592403.641
                  25592410.957          39.700                          43.800
 141509332.818 5                 105672585.150 5  26928326.359
                  26928331.035          32.500                          35.800
 114128458.932 7                  85225813.221 8  21717924.359
                  21717929.156          45.500                          48.400
 119795030.760 7                  89457378.618 7  22796228.594
                  22796234.387          44.100                          47.800
 19  7  9 10 30 40.0000000  0 21G06G29R24R08R02G30R22G13G07R01G15G02
                                R23G05E12E04E11E36E19E14E09
 121763313.161 6  94880609.63544  90927247.724 7  23170798.898
  23170808.047    23170809.008          36.500          24.500          45.100
 117265827.037 7  91376127.75245                  22314976.063
  22314982.809                          42.400          30.400
 107858529.847 6  83889930.671 5                  20170089.766    20170089.203
  20170093.047                          38.800          32.300
 110680754.584 6  86085060.075 7                  20668841.383    20668841.457
  20668845.184                          40.400          43.500
 123701158.525 5  96212020.965 5                  23181542.141    23181542.020
  23181548.230                          34.300          35.400
 122398859.169 6  95375731.53643  91401750.427 7  23291714.953
  23291723.488    23291723.539          37.900          23.900          45.700
 124452342.962 5  96796280.996 5                  23314114.820    23314115.168
  23314121.336                          34.800          35.400
 110737175.448 7  86288726.21545                  21072576.945
  21072582.828                          45.800          35.800
 127419931.663 6  99288196.18543                  24247182.797
  24247188.215                          37.900          19.900
 105270347.201 7  81876979.511 6                  19692986.125    19692985.379
  19692992.270                          42.600          40.300
 123178651.607 6  95983301.15643                  23440092.109
  23440099.141                          39.400          22.500
 108808368.612 7  84785782.40846                  20705536.719
  20705539.762                          46.000          40.000
 103531474.729 7  80524579.438 6                  19354110.031    19354109.207
  19354117.164                          46.700          40.400
 107637548.712 7  83873504.02946                  20482738.828
  20482743.863                          46.900          39.900
 123326696.797 6                  92094624.523 7  23468290.453
                  23468293.129          39.400                          42.200
 123438902.125 7                  92178447.670 8  23489630.711
                  23489635.133          46.300                          50.200
 113489077.223 7                  84748347.128 7  21596251.617
                  21596253.000          42.900                          46.200
 134486634.842 6                 100428354.617 7  25591954.555
                  25591961.488          39.800                          44.100
 141511839.612 5                 105674457.034 5  26928803.164
                  26928808.090          32.300                          35.500
 114133587.112 7                  85229642.721 8  21718900.242
                  21718905.027          45.700                          48.400
 119793354.239 7                  89456126.654 8  22795909.688
                  22795915.348          44.200                          48.100
 19  7  9 10 30 41.0000000  0 21G06G29R24R08R02G30R22G13G07R01G15G02
                                R23G05E12E04E11E36E19E14E09
 121766247.108 6  94882895.84144  90929438.657 7  23171357.539
  23171366.715    23171367.250          36.300          24.600          45.100
 117264694.574 7  91375245.32044                  22314760.250
  22314767.363                          42.500          29.900
 107856291.033 6  83888189.349 5                  20169670.469    20169670.516
  20169674.336                          38.700          32.500
 110683210.833 6  86086970.488 7                  20669300.336    20669300.199
  20669303.973                          40.500          43.700
 123698211.250 5  96209728.592 5                  23180990.305    23180989.688
  23180995.945                          34.600          35.400
 122397711.397 6  95374837.15344  91400893.340 7  23291495.891
  23291505.219    23291505.113          37.900          24.200          45.700
 124456701.657 5  96799671.115 5                  23314931.922    23314931.824
  23314937.875                          35.000          35.400
 110734806.819 7  86286880.52945                  21072126.164
  21072132.109                          45.500          35.200
 127420369.692 6  99288537.50243                  24247266.500
  24247271.938                          38.200          19.900
 105270160.748 7  81876834.473 6                  19692951.203    19692950.738
  19692957.227                          42.000          40.500
 123175106.927 6  95980539.08743                  23439418.141
  23439424.629                          39.900          21.700
 108808955.331 7  84786239.58546                  20705648.141
  20705651.375                          45.400          40.100
 103533092.255 7  80525837.512 6                  19354412.477    19354411.371
  19354419.219                          46.300          40.400
 107637562.370 7  83873514.67146                  20482741.391
  20482746.879                          47.200          40.200
 123329173.489 6                  92096474.000 7  23468761.406
                  23468764.527          39.400                          42.400
 123439615.195 7                  92178980.154 8  23489766.477
                  23489770.781          45.700                          50.500
 113489111.727 7                  84748372.892 7  21596258.352
                  21596259.695          42.900                          45.900
 134484273.971 6                 100426591.634 7  25591505.305
                  25591512.148          39.400                          43.900
 141514346.236 5                 105676328.977 5  26929279.898
                  26929285.199          31.500                          35.300
 114138715.853 7                  85233472.618 8  21719876.266
                  21719880.891          45.900                          48.700
 119791677.993 7                  89454874.918 7  22795590.453
                  22795596.313          44.000                          47.800
 19  7  9 10 30 42.0000000  0 21G06G29R24R08R02G30R22G13G07R01G15G02
                                R23G05E12E04E11E36E19E14E09
 121769181.274 6  94885182.20443  90931629.774 7  23171915.852
  23171924.723    23171925.750          36.600          23.900          45.200
 117263562.681 7  91374363.32944                  22314545.719
  22314551.859                          43.000          29.900
 107854052.904 6  83886448.541 5                  20169252.320    20169252.086
  20169255.461                          38.700          32.100
 110685667.238 6  86088881.014 7                  20669759.523    20669758.965
  20669762.871                          40.600          43.600
 123695264.166 5  96207436.388 5                  23180439.000    23180437.867
  23180443.445                          34.000          35.100
 122396564.055 6  95373943.12144  91400036.572 7  23291277.672
  23291286.770    23291286.746          38.300          24.700          45.900
 124461060.475 5  96803061.330 5                  23315748.609    23315748.137
  23315754.094                          35.200          35.900
 110732438.672 7  86285035.22346                  21071675.164
  21071681.543                          45.300          36.100
 127420808.204 6  99288879.20943                  24247349.453
  24247354.758                          37.700          19.600
 105269974.670 7  81876689.773 6                  19692917.469    19692915.902
  19692922.344                          42.400          40.400
 123171562.406 6  95977777.12543                  23438742.953
  23438750.578                          39.500          22.500
 108809542.510 7  84786697.13446                  20705759.578
  20705763.352                          45.400          40.200
 103534710.555 7  80527096.212 6                  19354714.766    19354713.988
  19354722.066                          46.400          40.200
 107637576.280 7  83873525.51446                  20482744.031
  20482749.281                          47.400          40.200
 123331650.433 6                  92098323.666 7  23469232.734
                  23469235.547          39.200                          42.800
 123440328.496 7                  92179512.810 8  23489902.320
                  23489906.621          45.500                          50.600
 113489146.594 7                  84748398.918 7  21596264.953
                  21596266.309          42.800                          46.100
 134481913.273 6                 100424828.761 7  25591055.969
                  25591062.996          39.700                          43.600
 141516852.954 5                 105678200.819 5  26929757.094
                  26929762.070          31.800                          35.500
 114143845.054 7                  85237302.866 8  21720852.305
                  21720856.980          46.000                          48.800
 119790001.980 7                  89453623.333 7  22795271.484
                  22795277.383          43.900                          47.900
 19  7  9 10 30 43.0000000  0 21G06G29R24R08R02G30R22G13G07R01G15G02
                                R23G05E12E04E11E36E19E14E09
 121772115.793 6  94887468.87143  90933821.123 7  23172474.125
  23172483.148    23172484.344          36.600          23.500          45.300
 117262431.498 7  91373481.89144                  22314330.125
  22314336.402                          42.600          29.700
 107851815.547 6  83884708.396 5                  20168833.859    20168833.766
  20168837.355                          38.900          32.600
 110688123.872 6  86090791.738 7                  20670218.219    20670217.871
  20670221.441                          40.500          43.200
 123692317.355 5  96205144.451 5                  23179885.039    23179885.738
  23179891.449                          34.600          35.100
 122395417.268 6  95373049.50344  91399180.194 7  23291060.148
  23291068.711    23291068.406          38.100          24.700          46.000
 124465419.596 5  96806451.752 6                  23316566.164    23316564.586
  23316570.504                          35.500          36.000
 110730071.045 7  86283190.31646                  21071225.031
  21071230.863                          45.200          36.200
 127421247.248 6  99289221.30843                  24247432.547
  24247438.309                          37.100          18.600
 105269789.144 7  81876545.465 6                  19692882.109    19692881.199
  19692887.570                          42.500          40.500
 123168018.199 6  95975015.40743                  23438068.961
  23438076.340                          39.500          23.000
 108810130.157 7  84787155.03846                  20705871.695
  20705875.105                          45.500          39.900
 103536329.739 7  80528355.556 6                  19355017.766    19355016.613
  19355024.527                          46.600          40.100
 107637590.478 7  83873536.57746                  20482746.523
  20482752.168                          47.300          39.800
 123334127.627 6                  92100173.519 7  23469704.016
                  23469707.227          39.700                          42.700
 123441042.124 7                  92180045.706 8  23490038.164
                  23490042.285          45.600                          50.600
 113489181.893 7                  84748425.292 7  21596271.641
                  21596273.023          42.300                          46.200
 134479552.773 6                 100423066.062 7  25590606.727
                  25590613.832          39.600                          43.200
 141519359.70615                 105680072.759 5  26930234.266
                  26930239.027          32.000                          35.500
 114148974.821 7                  85241133.528 8  21721828.445
                  21721833.199          45.700                          48.800
 119788326.247 7                  89452371.992 7  22794952.883
                  22794958.500          43.700                          47.800
 19  7  9 10 30 44.0000000  0 21G06G29R24R08R02G30R22G13G07R01G15G02
                                R23G05E12E04E11E36E19E14E09
 121775050.546 6  94889755.67744  90936012.666 7  23173033.055
  23173042.098    23173042.813          36.300          24.400          45.300
 117261300.941 7  91372600.92444                  22314115.172
  22314121.715                          42.500          29.100
 107849578.863 6  83882968.762 5                  20168415.875    20168415.664
  20168419.340                          38.700          32.800
 110690580.657 6  86092702.591 7                  20670676.055    20670676.293
  20670679.996                          40.800          43.400
 123689370.808 5  96202852.696 5                  23179333.070    23179333.605
  23179339.137                          34.700          35.100
 122394270.967 6  95372156.28144  91398324.175 7  23290841.164
  23290849.855    23290850.266          37.900          24.100          46.200
 124469778.890 5  96809842.294 6                  23317381.961    23317381.113
  23317387.578                          35.300          36.000
 110727703.929 7  86281345.80746                  21070774.617
  21070780.480                          45.300          36.100
 127421686.834 6  99289563.84843                  24247515.547
  24247522.102                          36.700          18.300
 105269604.067 7  81876401.510 6                  19692847.320    19692846.387
  19692853.016                          42.300          40.400
 123164474.163 6  95972253.81944                  23437394.633
  23437401.836                          39.800          25.100
 108810718.313 7  84787613.33946                  20705983.508
  20705986.938                          45.200          39.900
 103537949.732 7  80529615.566 6                  19355320.297    19355319.754
  19355327.703                          46.700          40.400
 107637604.947 7  83873547.85046                  20482749.328
  20482754.973                          47.600          40.100
 123336605.081 6                  92102023.571 7  23470175.781
                  23470178.672          39.400                          43.300
 123441755.977 7                  92180578.798 8  23490173.781
                  23490178.141          45.300                          50.300
 113489217.625 7                  84748451.980 7  21596278.523
                  21596279.750          42.800                          45.900
 134477192.473 6                 100421303.490 7  25590157.602
                  25590164.602          39.600                          43.700
 141521866.467 5                 105681944.646 5  26930711.578
                  26930716.133          31.800                          35.700
 114154105.103 7                  85244964.594 8  21722804.539
                  21722809.402          45.700                          48.700
 119786650.792 7                  89451120.844 7  22794633.711
                  22794639.645          43.900                          47.800
 19  7  9 10 30 45.0000000  0 21G06G29R24R08R02G30R22G13G07R01G15G02
                                R23G05E12E04E11E36E19E14E09
 121777985.624 6  94892042.73444  90938204.449 7  23173591.563
  23173600.504    23173601.336          36.800          24.200          45.500
 117260171.065 7  91371720.50244                  22313900.055
  22313906.809                          42.400          29.700
 107847342.998 6  83881229.787 5                  20167997.805    20167997.688
  20168000.984                          38.700          32.600
 110693037.713 6  86094613.615 7                  20671134.664    20671135.137
  20671139.031                          40.800          43.200
 123686424.556 5  96200561.210 5                  23178781.594    23178781.473
  23178787.109                          34.700          35.000
 122393125.146 6  95371263.45144  91397468.543 7  23290622.445
  23290632.117    23290632.246          37.700          24.700          46.300
 124474138.304 5  96813233.005 5                  23318198.516    23318198.066
  23318203.996                          34.800          35.600
 110725337.342 7  86279501.72046                  21070324.461
  21070330.074                          45.500          36.500
 127422127.030 6  99289906.85143                  24247599.617
  24247605.777                          36.600          18.300
 105269419.519 7  81876257.974 6                  19692812.555    19692811.902
  19692818.832                          42.300          40.500
 123160930.419 6  95969492.45643                  23436720.156
  23436727.469                          39.700          23.500
 108811306.977 7  84788072.04246                  20706096.047
  20706098.973                          45.400          40.600
 103539570.643 7  80530876.268 6                  19355623.461    19355622.848
  19355630.477                          46.600          40.500
 107637619.708 7  83873559.35646                  20482752.547
  20482757.883                          47.500          40.400
 123339082.859 6                  92103873.864 7  23470647.336
                  23470649.977          39.000                          42.900
 123442470.173 7                  92181112.120 8  23490309.797
                  23490314.086          45.600                          50.400
 113489253.842 7                  84748479.023 7  21596285.242
                  21596286.746          42.600                          46.200
 134474832.406 6                 100419541.115 7  25589708.555
                  25589715.387          39.400                          43.400
 141524373.264 5                 105683816.654 5  26931188.852
                  26931193.473          31.800                          35.400
 114159235.940 7                  85248796.069 8  21723780.828
                  21723785.719          45.100                          48.700
 119784975.647 7                  89449869.913 8  22794314.961
                  22794320.883          44.300                          48.100
 19  7  9 10 30 46.0000000  0 21G06G29R24R08R02G30R22G13G07R01G15G02
                                R23G05E12E04E11E36E19E14E09
 121780920.932 5  94894330.00444  90940396.385 7  23174150.000
  23174159.117    23174159.875          35.900          24.800          45.400
 117259041.792 7  91370840.55744                  22313684.672
  22313691.750                          42.500          29.400
 107845107.768 6  83879491.285 5                  20167580.750    20167579.340
  20167582.977                          38.700          32.600
 110695494.922 6  86096524.780 7                  20671593.352    20671594.156
  20671597.945                          40.600          43.100
 123683478.551 5  96198269.816 5                  23178229.305    23178229.559
  23178235.086                          34.700          34.900
 122391979.784 6  95370370.96444  91396613.244 7  23290405.094
  23290414.188    23290414.258          37.600          24.100          46.000
 124478497.968 5  96816623.812 5                  23319014.633    23319015.098
  23319020.449                          35.300          35.300
 110722971.215 7  86277657.98645                  21069874.047
  21069879.715                          45.100          35.700
 127422567.698 6  99290250.25443                  24247683.742
  24247689.688                          36.600          18.300
 105269235.373 7  81876114.751 6                  19692778.500    19692777.332
  19692784.375                          42.600          40.300
 123157386.843 6  95966731.23244                  23436045.711
  23436053.438                          39.900          24.400
 108811896.072 7  84788531.07446                  20706207.602
  20706211.176                          45.200          40.200
 103541192.332 7  80532137.580 6                  19355927.109    19355926.215
  19355933.410                          46.400          40.200
 107637634.697 7  83873571.03946                  20482755.039
  20482760.750                          47.900          40.400
 123341560.807 6                  92105724.287 7  23471118.602
                  23471121.457          39.400                          42.600
 123443184.597 7                  92181645.612 8  23490445.688
                  23490449.973          45.700                          50.700
 113489290.430 7                  84748506.338 7  21596292.055
                  21596293.738          42.700                          46.100
 134472472.471 6                 100417778.839 7  25589259.672
                  25589266.430          39.800                          43.500
 141526880.033 5                 105685688.614 5  26931665.539
                  26931670.293          30.900                          35.200
 114164367.264 7                  85252627.896 8  21724757.367
                  21724762.215          45.500                          48.800
 119783300.710 7                  89448619.147 7  22793996.258
                  22794002.102          44.500                          47.800
 19  7  9 10 30 47.0000000  0 21G06G29R24R08R02G30R22G13G07R01G15G02
                                R23G05E12E04E11E36E19E14E09
 121783856.524 6  94896617.47244  90942588.554 7  23174707.938
  23174717.629    23174718.473          36.000          25.000          45.800
 117257913.168 7  91369961.11044                  22313469.758
  22313476.988                          42.000          29.800
 107842873.343 6  83877753.380 5                  20167162.789    20167161.660
  20167165.406                          38.600          31.500
 110697952.402 6  86098436.144 7                  20672053.320    20672052.973
  20672056.887                          40.500          42.500
 123680532.827 5  96195978.725 5                  23177676.961    23177677.262
  23177683.246                          34.300          35.000
 122390834.922 6  95369478.87844  91395758.312 7  23290187.281
  23290196.148    23290196.152          37.800          25.700          46.300
 124482857.744 5  96820014.744 5                  23319831.242    23319831.848
  23319837.328                          35.400          35.600
 110720605.619 7  86275814.66546                  21069423.844
  21069429.715                          45.600          36.000
 127423008.895 6  99290594.05843                  24247767.445
  24247773.238                          37.000          18.600
 105269051.727 7  81875971.923 6                  19692744.195    19692743.145
  19692749.723                          42.500          40.200
 123153843.521 6  95963970.19844                  23435371.281
  23435378.914                          40.500          24.800
 108812485.675 7  84788990.50546                  20706319.914
  20706323.156                          45.000          40.000
 103542814.906 7  80533399.593 6                  19356230.664    19356229.395
  19356237.055                          46.600          40.100
 107637649.996 7  83873582.95846                  20482757.977
  20482763.723                          47.800          40.400
 123344039.041 6                  92107574.917 7  23471590.250
                  23471593.293          39.300                          42.700
 123443899.311 7                  92182179.320 8  23490581.672
                  23490586.063          45.500                          50.700
 113489327.461 7                  84748533.997 7  21596299.016
                  21596300.785          42.800                          46.000
 134470112.779 6                 100416016.736 7  25588810.242
                  25588817.207          39.000                          43.500
 141529386.817 5                 105687560.547 5  26932142.672
                  26932147.512          31.800                          34.800
 114169499.142 7                  85256460.120 8  21725733.969
                  21725738.816          45.600                          48.700
 119781626.065 7                  89447368.600 8  22793677.719
                  22793683.574          44.300                          48.000
 19  7  9 10 30 48.0000000  0 21G06G29R24R08R02G30R22G13G07R01G15G02
                                R23G05E12E04E11E36E19E14E09
 121786792.385 6  94898905.15744  90944780.918 7  23175266.906
  23175276.383    23175277.258          36.200          24.300          45.800
 117256785.230 7  91369082.19845                  22313255.352
  22313262.211                          42.000          30.500
 107840639.603 6  83876015.989 5                  20166745.797    20166743.543
  20166747.660                          38.400          31.800
 110700410.069 6  86100347.681 7                  20672512.180    20672511.949
  20672515.906                          40.700          42.600
 123677587.341 5  96193687.792 5                  23177123.961    23177124.777
  23177131.605                          34.700          35.400
 122389690.541 6  95368587.13343  91394903.743 7  23289969.813
  23289978.594    23289978.289          37.500          23.000          46.000
 124487217.752 5  96823405.845 5                  23320649.227    23320648.168
  23320653.707                          35.400          35.300
 110718240.507 7  86273971.71846                  21068973.492
  21068979.660                          45.700          36.200
 127423450.627 6  99290938.24543                  24247852.430
  24247857.691                          36.900          19.000
 105268868.563 7  81875829.470 6                  19692709.328    19692708.840
  19692715.566                          42.400          40.400
 123150300.427 6  95961209.35743                  23434697.781
  23434704.590                          40.600          23.900
 108813075.740 7  84789450.29446                  20706432.227
  20706435.273                          44.900          40.100
 103544438.316 7  80534662.233 6                  19356534.375    19356532.918
  19356540.234                          46.800          40.600
 107637665.517 7  83873595.04946                  20482761.023
  20482766.605                          47.700          40.300
 123346517.527 6                  92109425.703 7  23472062.047
                  23472064.777          39.300                          42.600
 123444614.279 7                  92182713.238 8  23490717.734
                  23490722.023          45.600                          50.300
 113489364.871 7                  84748561.942 7  21596306.102
                  21596308.031          42.400                          45.900
 134467753.277 6                 100414254.760 7  25588361.625
                  25588368.316          38.900                          43.600
 141531893.648 5                 105689432.531 5  26932619.727
                  26932624.676          31.500                          35.100
 114174631.512 7                  85260292.747 8  21726710.625
                  21726715.402          45.800                          48.500
 119779951.659 7                  89446118.240 7  22793359.094
                  22793364.809          44.200                          47.700
 19  7  9 10 30 49.0000000  0 21G06G29R24R08R02G30R22G13G07R01G15G02
                                R23G05E12E04E11E36E19E14E09
 121789728.542 6  94901193.08044  90946973.477 7  23175825.867
  23175834.770    23175836.059          36.000          24.600          45.600
 117255657.887 7  91368203.74644                  22313041.063
  22313047.730                          42.700          29.100
 107838406.573 6  83874279.207 5                  20166327.289    20166326.160
  20166329.625                          38.600          31.800
 110702867.946 6  86102259.344 7                  20672972.344    20672970.941
  20672974.676                          40.800          42.600
 123674642.107 5  96191397.082 5                  23176573.609    23176572.734
  23176579.180                          34.500          35.100
 122388546.619 6  95367695.77843  91394049.529 7  23289752.188
  23289761.004    23289760.605          37.400          23.500          46.000
 124491577.890 5  96826797.076 5                  23321466.219    23321465.137
  23321470.910                          35.600          34.900
 110715875.904 7  86272129.17345                  21068523.563
  21068529.723                          45.100          35.900
 127423892.903 6  99291282.88143                  24247936.258
  24247941.598                          36.900          18.600
 105268685.849 7  81875687.342 6                  19692675.617    19692674.684
  19692681.348                          42.300          40.600
 123146757.553 6  95958448.68343                  23434023.219
  23434030.078                          41.200          23.400
 108813666.282 7  84789910.45546                  20706544.555
  20706547.887                          45.200          40.200
 103546062.569 7  80535925.539 6                  19356837.477    19356836.535
  19356844.035                          46.600          40.500
 107637681.300 7  83873607.35046                  20482764.109
  20482769.250                          47.700          39.700
 123348996.282 6                  92111276.719 7  23472533.789
                  23472536.461          39.600                          42.400
 123445329.525 7                  92183247.350 8  23490853.828
                  23490858.113          45.900                          50.300
 113489402.730 7                  84748590.191 7  21596313.617
                  21596315.203          42.400                          46.000
 134465393.957 6                 100412492.927 7  25587912.570
                  25587919.262          39.600                          43.900
 141534400.436 5                 105691304.434 5  26933096.273
                  26933101.422          31.300                          35.100
 114179764.390 7                  85264125.753 8  21727687.469
                  21727692.285          45.800                          48.500
 119778277.535 7                  89444868.078 7  22793040.547
                  22793046.258          44.500                          47.500
 19  7  9 10 30 50.0000000  0 21G06G29R24R08R02G30R22G13G07R01G15G02
                                R23G05E12E04E11E36E19E14E09
 121792664.954 6  94903481.16943  90949166.261 7  23176385.391
  23176393.625    23176395.016          36.800          23.900          45.600
 117254531.190 7  91367325.80845                  22312826.406
  22312833.355                          42.700          30.000
 107836174.274 6  83872542.996 5                  20165909.773    20165909.352
  20165912.289                          38.600          32.700
 110705326.047 6  86104171.212 7                  20673431.172    20673430.262
  20673433.711                          41.000          42.600
 123671697.239 5  96189106.619 5                  23176020.523    23176020.871
  23176027.406                          34.300          35.400
 122387403.200 6  95366804.81543  91393195.670 7  23289533.930
  23289543.008    23289542.949          37.200          23.300          46.100
 124495938.174 5  96830188.438 5                  23322283.273    23322282.121
  23322287.527                          35.900          35.100
 110713511.807 7  86270287.01946                  21068074.141
  21068079.965                          45.100          36.100
 127424335.732 6  99291627.91743                  24248020.445
  24248025.852                          36.300          19.000
 105268503.609 7  81875545.629 6                  19692640.578    19692640.629
  19692647.336                          42.700          40.400
 123143214.929 6  95955688.19344                  23433348.930
  23433356.133                          40.500          24.200
 108814257.318 7  84790371.00946                  20706656.961
  20706660.152                          45.200          39.800
 103547687.668 7  80537189.512 6                  19357141.156    19357140.238
  19357147.945                          46.800          40.600
 107637697.389 7  83873619.89246                  20482766.891
  20482772.328                          47.300          39.900
 123351475.267 6                  92113127.946 7  23473005.430
                  23473008.234          39.300                          42.300
 123446045.047 7                  92183781.656 8  23490990.148
                  23490994.207          45.900                          50.300
 113489440.991 7                  84748618.772 7  21596320.656
                  21596322.473          42.600                          45.900
 134463034.815 6                 100410731.250 7  25587463.555
                  25587470.387          39.000                          43.500
 141536907.285 5                 105693176.445 5  26933573.711
                  26933578.449          31.700                          35.200
 114184897.806 7                  85267959.145 8  21728664.539
                  21728669.086          45.700                          48.800
 119776603.670 7                  89443618.124 7  22792722.094
                  22792727.863          44.700                          47.300
 19  7  9 10 30 51.0000000  0 21G06G29R24R08R02G30R22G13G07R01G15G02
                                R23G05E12E04E11E36E19E14E09
 121795601.650 6  94905769.50344  90951359.262 7  23176943.844
  23176952.441    23176954.070          36.400          25.000          45.500
 117253405.188 7  91366448.41045                  22312612.281
  22312618.918                          42.200          30.500
 107833942.774 6  83870807.384 5                  20165492.086    20165491.664
  20165495.078                          38.500          32.400
 110707784.358 6  86106083.222 7                  20673890.172    20673889.215
  20673892.863                          40.600          42.700
 123668752.628 5  96186816.348 5                  23175469.156    23175469.551
  23175475.648                          34.100          35.400
 122386260.295 6  95365914.21743  91392342.199 7  23289316.906
  23289325.344    23289325.145          37.400          22.800          46.000
 124500298.740 5  96833579.970 5                  23323099.820    23323098.832
  23323104.645                          35.400          34.700
 110711148.220 7  86268445.26045                  21067624.273
  21067629.973                          44.900          35.800
 127424779.093 6  99291973.38742                  24248104.227
  24248110.387                          36.600          17.800
 105268321.867 7  81875404.242 6                  19692607.047    19692606.699
  19692613.277                          42.500          40.100
 123139672.537 6  95952927.87443                  23432675.156
  23432682.113                          40.600          23.800
 108814848.839 7  84790831.93446                  20706769.891
  20706772.848                          45.100          39.600
 103549313.628 7  80538454.133 6                  19357445.422    19357444.176
  19357451.734                          47.000          41.000
 107637713.734 7  83873632.62846                  20482770.141
  20482775.785                          47.500          40.100
 123353954.547 6                  92114979.354 7  23473477.203
                  23473480.105          38.900                          42.500
 123446760.867 7                  92184316.196 8  23491126.273
                  23491130.551          45.900                          50.300
 113489479.709 7                  84748647.695 7  21596328.180
                  21596329.875          42.400                          45.900
 134460675.946 6                 100408969.729 7  25587014.836
                  25587021.320          39.100                          43.900
 141539414.09815                 105695048.435 5  26934051.406
                  26934055.230          31.800                          35.700
 114190031.767 7                  85271792.938 8  21729641.344
                  21729645.996          45.400                          48.500
 119774930.107 7                  89442368.383 7  22792403.297
                  22792409.281          44.500                          47.400
 19  7  9 10 30 52.0000000  0 21G06G29R24R08R02G30R22G13G07R01G15G02
                                R23G05E12E04E11E36E19E14E09
 121798538.615 6  94908058.06244  90953552.446 7  23177501.773
  23177511.715    23177512.730          36.100          25.600          45.500
 117252279.785 7  91365571.47644                  22312398.055
  22312404.664                          42.500          29.900
 107831711.955 6  83869072.288 5                  20165074.914    20165074.516
  20165077.441                          38.400          32.200
 110710242.806 6  86107995.331 7                  20674348.164    20674348.355
  20674351.977                          40.800          42.600
 123665808.281 5  96184526.284 5                  23174918.586    23174917.688
  23174923.977                          34.400          35.800
 122385117.872 6  95365024.02043  91391489.087 7  23289099.836
  23289107.684    23289107.734          37.300          23.300          45.800
 124504659.379 5  96836971.588 5                  23323915.289    23323915.918
  23323920.969                          35.400          34.900
 110708785.141 7  86266603.89945                  21067174.172
  21067180.262                          45.100          35.900
 127425222.984 6  99292319.28643                  24248188.539
  24248195.020                          36.800          19.000
 105268140.553 7  81875263.251 6                  19692573.516    19692572.770
  19692579.488                          42.500          39.800
 123136130.364 6  95950167.74243                  23432000.906
  23432008.098                          40.800          22.900
 108815440.833 7  84791293.22746                  20706882.398
  20706885.523                          45.100          39.900
 103550940.421 7  80539719.432 6                  19357748.922    19357748.262
  19357755.805                          46.900          40.800
 107637730.342 7  83873645.56846                  20482773.195
  20482778.711                          47.600          39.800
 123356434.071 6                  92116830.946 7  23473949.039
                  23473951.836          38.900                          42.600
 123447476.928 7                  92184850.925 8  23491262.484
                  23491266.777          45.900                          50.500
 113489518.831 7                  84748676.912 7  21596335.570
                  21596337.000          42.500                          45.900
 134458317.217 6                 100407208.357 7  25586565.969
                  25586572.465          39.000                          44.000
 141541920.964 5                 105696920.456 5  26934528.492
                  26934532.320          32.300                          35.300
 114195166.237 7                  85275627.115 8  21730618.305
                  21730623.156          45.300                          48.800
 119773256.789 7                  89441118.818 7  22792084.922
                  22792090.906          44.700                          47.800
 19  7  9 10 30 53.0000000  0 21G06G29R24R08R02G30R22G13G07R01G15G02
                                R23G05E12E04E11E36E19E14E09
 121801475.872 5  94910346.83744  90955745.873 7  23178061.422
  23178070.465    23178071.680          35.900          25.500          45.800
 117251155.091 7  91364695.08645                  22312184.102
  22312190.934                          42.400          30.200
 107829481.908 6  83867337.757 5                  20164659.539    20164657.613
  20164660.645                          38.600          32.600
 110712701.504 6  86109907.669 7                  20674807.008    20674807.480
  20674810.938                          40.500          42.600
 123662864.246 5  96182236.505 6                  23174366.508    23174365.492
  23174372.781                          34.700          36.100
 122383975.947 6  95364134.21344  91390636.352 7  23288883.047
  23288890.566    23288890.566          37.400          24.700          45.700
 124509020.306 5  96840363.419 5                  23324732.586    23324732.348
  23324738.230                          35.300          34.700
 110706422.610 7  86264762.97346                  21066724.906
  21066730.848                          45.200          36.100
 127425667.402 6  99292665.57543                  24248273.266
  24248279.910                          36.700          18.300
 105267959.779 7  81875122.627 6                  19692540.445    19692539.066
  19692545.496                          42.600          40.000
 123132588.470 6  95947407.82343                  23431327.047
  23431333.879                          40.900          22.800
 108816033.345 7  84791754.92046                  20706994.555
  20706998.059                          44.900          40.100
 103552568.095 7  80540985.389 6                  19358053.328    19358052.738
  19358060.156                          47.200          40.800
 107637747.259 7  83873658.74346                  20482776.609
  20482781.930                          47.800          40.200
 123358913.892 6                  92118682.732 7  23474420.992
                  23474423.859          39.300                          42.300
 123448193.329 7                  92185385.891 8  23491398.656
                  23491403.105          46.600                          50.300
 113489558.427 7                  84748706.470 7  21596343.328
                  21596344.695          42.800                          45.900
 134455958.762 6                 100405447.140 7  25586117.133
                  25586123.715          39.100                          43.500
 141544427.893 5                 105698792.484 5  26935005.438
                  26935009.613          31.800                          35.400
 114200301.247 7                  85279461.706 8  21731595.383
                  21731600.250          45.100                          48.700
 119771583.777 7                  89439869.492 7  22791766.727
                  22791772.512          44.800                          47.900
 19  7  9 10 30 54.0000000  0 21G06G29R24R08R02G30R22G13G07R01G15G02
                                R23G05E12E04E11E36E19E14E09
 121804413.392 5  94912635.81744  90957939.458 7  23178619.820
  23178629.805    23178630.891          35.900          24.300          46.300
 117250030.987 7  91363819.15545                  22311970.242
  22311976.945                          42.600          30.400
 107827252.559 6  83865603.870 5                  20164242.031    20164240.621
  20164243.746                          38.200          32.500
 110715160.412 6  86111820.148 7                  20675266.531    20675266.395
  20675270.496                          40.400          43.000
 123659920.405 5  96179946.877 6                  23173813.609    23173814.027
  23173821.160                          34.700          36.200
 122382834.471 6  95363244.74644  91389783.960 7  23288665.602
  23288673.762    23288673.016          37.000          24.600          45.400
 124513381.396 5  96843755.314 5                  23325550.672    23325549.375
  23325555.094                          34.900          35.100
 110704060.537 7  86262922.40146                  21066275.500
  21066281.172                          45.500          36.200
 127426112.335 6  99293012.30543                  24248357.672
  24248364.367                          36.900          18.300
 105267779.426 7  81874982.349 6                  19692506.031    19692505.496
  19692511.926                          43.100          40.400
 123129046.740 6  95944648.04343                  23430652.680
  23430659.254                          40.200          22.900
 108816626.276 7  84792216.94246                  20707107.656
  20707110.957                          45.000          40.200
 103554196.579 7  80542252.003 6                  19358358.141    19358357.176
  19358364.805                          47.000          41.100
 107637764.380 7  83873672.09146                  20482779.445
  20482785.184                          47.300          39.700
 123361393.904 6                  92120534.703 7  23474893.008
                  23474895.699          39.400                          42.300
 123448909.933 7                  92185921.030 8  23491535.313
                  23491539.531          46.300                          50.300
 113489598.401 7                  84748736.321 7  21596350.531
                  21596352.375          42.900                          45.900
 134453600.395 6                 100403686.056 7  25585668.406
                  25585674.910          39.400                          43.500
 141546934.726 5                 105700664.512 5  26935482.609
                  26935486.398          31.500                          35.200
 114205436.745 7                  85283296.658 8  21732572.813
                  21732577.590          45.500                          48.800
 119769910.972 7                  89438620.332 7  22791448.477
                  22791454.273          44.300                          47.500
 19  7  9 10 30 55.0000000  0 21G06G29R24R08R02G30R22G13G07R01G15G02
                                R23G05E12E04E11E36E19E14E09
 121807351.155 5  94914924.97744  90960133.259 7  23179178.156
  23179188.883    23179189.863          35.500          24.100          46.200
 117248907.538 7  91362943.73745                  22311756.969
  22311763.508                          42.500          30.200
 107825023.945 6  83863870.465 5                  20163824.984    20163823.691
  20163827.289                          38.600          32.100
 110717619.509 6  86113732.787 7                  20675726.563    20675725.301
  20675729.348                          40.300          43.000
 123656976.851 5  96177657.378 6                  23173263.789    23173262.094
  23173269.422                          33.900          36.000
 122381693.504 6  95362355.69243  91388931.923 7  23288447.844
  23288456.277    23288456.023          37.200          23.400          45.200
 124517742.585 5  96847147.396 5                  23326367.883    23326366.754
  23326372.102                          35.100          35.000
 110701698.941 7  86261082.19646                  21065825.719
  21065831.707                          45.700          36.800
 127426557.823 6  99293359.44543                  24248442.742
  24248448.980                          36.800          19.000
 105267599.508 7  81874842.434 6                  19692472.461    19692471.668
  19692478.086                          42.800          40.200
 123125505.268 6  95941888.45643                  23429979.063
  23429985.625                          40.000          23.000
 108817219.724 7  84792679.36946                  20707220.875
  20707224.309                          45.000          40.000
 103555825.907 7  80543519.239 6                  19358662.391    19358661.707
  19358669.035                          47.200          40.200
 107637781.794 7  83873685.65946                  20482783.047
  20482788.340                          47.600          39.800
 123363874.193 6                  92122386.868 7  23475364.586
                  23475367.633          39.600                          42.600
 123449626.820 7                  92186456.364 8  23491671.594
                  23491675.875          45.900                          50.000
 113489638.783 7                  84748766.473 7  21596358.148
                  21596359.922          42.600                          46.100
 134451242.278 6                 100401925.113 7  25585219.938
                  25585226.164          39.400                          43.600
 141549441.608 5                 105702536.509 5  26935959.500
                  26935963.395          31.300                          35.800
 114210572.745 7                  85287131.985 8  21733550.445
                  21733554.816          45.100                          48.800
 119768238.445 7                  89437371.360 7  22791130.109
                  22791135.941          44.600                          47.800
 19  7  9 10 30 56.0000000  0 21G06G29R24R08R02G30R22G13G07R01G15G02
                                R23G05E12E04E11E36E19E14E09
 121810289.476 5  94917214.56244  90962327.432 7  23179738.148
  23179747.801    23179749.055          35.800          24.000          46.000
 117247784.944 7  91362068.99845                  22311543.211
  22311549.750                          42.800          30.100
 107822796.272 6  83862137.881 5                  20163409.094    20163407.168
  20163410.465                          38.800          32.700
 110720079.061 6  86115645.781 7                  20676185.805    20676184.777
  20676188.977                          40.500          43.200
 123654033.760 5  96175368.331 5                  23172711.336    23172710.648
  23172718.402                          34.400          35.400
 122380553.251 6  95361467.17443  91388080.436 7  23288230.945
  23288238.902    23288239.129          37.700          22.800          45.400
 124522104.246 5  96850539.815 5                  23327184.266    23327183.676
  23327189.184                          34.700          34.500
 110699338.134 7  86259242.60346                  21065376.555
  21065382.449                          45.400          36.100
 127427004.065 6  99293707.12443                  24248528.422
  24248533.594                          37.000          19.300
 105267420.334 7  81874703.078 6                  19692438.445    19692438.027
  19692444.664                          43.200          40.400
 123121964.251 6  95939129.20744                  23429305.391
  23429312.023                          39.700          24.600
 108817813.899 7  84793142.36346                  20707333.648
  20707337.129                          45.400          39.500
 103557456.304 7  80544787.343 6                  19358967.695    19358966.543
  19358974.098                          47.400          40.500
 107637799.704 7  83873699.61446                  20482786.484
  20482792.273                          47.500          40.300
 123366354.990 6                  92124239.399 7  23475836.805
                  23475840.000          39.100                          42.600
 123450344.220 7                  92186992.098 8  23491807.984
                  23491812.449          45.700                          50.400
 113489679.834 7                  84748797.130 7  21596366.266
                  21596367.766          42.900                          45.900
 134448884.579 6                 100400164.500 7  25584770.844
                  25584777.457          39.500                          43.800
 141551948.726 5                 105704408.703 5  26936436.398
                  26936440.555          32.000                          35.500
 114215709.545 7                  85290967.899 8  21734527.633
                  21734532.316          45.500                          48.400
 119766566.436 7                  89436122.780 7  22790811.891
                  22790817.793          44.800                          47.700
 19  7  9 10 30 57.0000000  0 21G06G29R24R08R02G30R22G13G07R01G15G02
                                R23G05E12E04E11E36E19E14E09
 121813227.936 5  94919504.27744  90964521.739 7  23180297.664
  23180306.820    23180308.047          35.600          24.900          46.000
 117246662.903 7  91361194.68544                  22311329.539
  22311336.277                          43.000          29.800
 107820569.220 6  83860405.690 5                  20162991.219    20162990.516
  20162994.340                          39.000          32.100
 110722538.698 6  86117558.832 7                  20676644.336    20676644.129
  20676648.266                          40.600          42.800
 123651090.824 5  96173079.371 5                  23172160.672    23172158.766
  23172166.617                          34.100          35.600
 122379413.350 6  95360578.92443  91387229.230 7  23288014.227
  23288022.383    23288022.141          37.200          22.900          45.400
 124526465.987 5  96853932.268 5                  23328001.484    23328000.258
  23328006.461                          34.600          34.700
 110696977.709 7  86257403.31545                  21064927.453
  21064933.492                          45.200          35.900
 127427450.734 6  99294055.19543                  24248613.422
  24248619.152                          36.500          18.600
 105267241.534 7  81874563.996 6                  19692405.125    19692404.379
  19692411.363                          42.400          39.800
 123118423.355 6  95936370.08444                  23428631.289
  23428638.293                          39.900          24.200
 108818408.405 7  84793605.61946                  20707446.906
  20707450.055                          45.300          39.300
 103559087.433 7  80546055.997 6                  19359272.445    19359271.480
  19359278.816                          47.300          40.300
 107637817.774 8  83873713.68846                  20482789.328
  20482795.512                          48.000          40.100
 123368835.889 6                  92126092.047 7  23476308.922
                  23476312.078          39.400                          42.200
 123451061.777 7                  92187527.933 8  23491944.703
                  23491948.914          45.800                          50.300
 113489721.186 7                  84748828.000 7  21596373.945
                  21596375.645          43.100                          46.100
 134446526.954 6                 100398403.935 7  25584322.641
                  25584328.895          39.400                          43.700
 141554455.768 5                 105706280.866 5  26936913.117
                  26936917.590          31.700                          35.200
 114220846.722 7                  85294804.109 8  21735505.258
                  21735509.918          45.600                          48.600
 119764894.560 7                  89434874.313 7  22790493.953
                  22790499.613          44.900                          47.200
 19  7  9 10 30 58.0000000  0 21G06G29R24R08R02G30R22G13G07R01G15G02
                                R23G05E12E04E11E36E19E14E09
 121816166.542 5  94921794.10744  90966716.157 7  23180857.164
  23180865.813    23180867.355          35.900          24.100          46.200
 117245541.396 7  91360320.77445                  22311116.109
  22311122.723                          43.000          30.800
 107818342.740 6  83858674.003 5                  20162575.359    20162574.184
  20162577.848                          38.700          32.200
 110724998.438 6  86119471.943 7                  20677103.891    20677103.496
  20677107.676                          40.700          43.200
 123648148.099 5  96170790.573 6                  23171609.945    23171607.664
  23171615.234                          34.600          36.100
 122378273.858 6  95359691.02043  91386378.284 7  23287797.313
  23287805.938    23287805.180          37.400          22.600          45.700
 124530827.736 5  96857324.729 5                  23328817.609    23328817.535
  23328823.586                          35.000          35.000
 110694617.661 7  86255564.31345                  21064478.797
  21064484.133                          45.100          35.700
 127427897.822 6  99294403.57843                  24248697.789
  24248704.066                          36.900          18.300
 105267063.057 7  81874425.179 6                  19692372.180    19692371.176
  19692377.895                          42.600          40.200
 123114882.561 6  95933611.01943                  23427957.906
  23427964.480                          40.400          22.500
 108819003.280 7  84794069.15146                  20707560.141
  20707563.680                          45.600          39.800
 103560719.277 7  80547325.213 6                  19359577.391    19359576.426
  19359583.801                          46.800          40.500
 107637835.988 7  83873727.89246                  20482793.070
  20482799.098                          47.900          39.900
 123371316.957 6                  92127944.770 7  23476781.297
                  23476783.906          39.500                          42.600
 123451779.521 7                  92188063.901 8  23492081.172
                  23492085.586          45.800                          50.400
 113489762.862 7                  84748859.131 7  21596382.102
                  21596383.500          43.200                          46.000
 134444169.444 6                 100396643.442 7  25583873.758
                  25583880.203          39.600                          43.900
 141556962.692 5                 105708152.879 5  26937390.297
                  26937394.785          32.000                          35.000
 114225984.311 7                  85298640.609 8  21736482.992
                  21736487.559          45.800                          48.600
 119763222.833 7                  89433625.940 7  22790175.633
                  22790181.492          44.600                          47.500
 19  7  9 10 30 59.0000000  0 21G06G29R24R08R02G30R22G13G07R01G15G02
                                R23G05E12E04E11E36E19E14E09
 121819105.440 5  94924084.13744  90968910.785 7  23181415.492
  23181425.816    23181426.578          35.400          24.300          46.100
 117244420.541 7  91359447.37144                  22310902.680
  22310909.371                          42.700          29.400
 107816117.058 6  83856942.935 5                  20162158.883    20162157.684
  20162161.711                          39.000          31.800
 110727458.366 6  86121385.223 7                  20677562.750    20677562.801
  20677566.695                          40.900          42.800
 123645205.618 5  96168502.037 6                  23171057.891    23171056.570
  23171063.441                          34.700          36.200
 122377134.797 6  95358803.44943  91385527.713 7  23287579.992
  23287588.992    23287588.586          37.100          23.800          46.000
 124535189.675 5  96860717.380 5                  23329636.523    23329634.711
  23329640.430                          35.200          34.900
 110692258.134 7  86253725.72445                  21064029.430
  21064034.961                          45.500          35.900
 127428345.468 6  99294752.39143                  24248782.648
  24248789.082                          36.900          18.300
 105266885.084 7  81874286.759 6                  19692338.633    19692337.863
  19692344.688                          42.400          40.200
 123111341.997 6  95930852.12943                  23427284.063
  23427290.586                          40.500          23.400
 108819598.668 7  84794533.09146                  20707673.383
  20707676.633                          45.900          40.100
 103562351.962 7  80548595.051 6                  19359882.258    19359881.621
  19359889.207                          47.000          40.400
 107637854.478 7  83873742.29346                  20482796.867
  20482802.223                          47.700          39.900
 123373798.320 6                  92129797.722 7  23477253.344
                  23477256.176          39.100                          42.200
 123452497.521 7                  92188600.069 8  23492217.781
                  23492222.098          46.000                          50.200
 113489804.954 7                  84748890.563 7  21596390.219
                  21596391.645          43.100                          46.100
 134441812.097 6                 100394883.110 7  25583425.227
                  25583431.844          39.700                          44.000
 141559469.647 5                 105710024.971 5  26937866.906
                  26937872.098          32.200                          35.200
 114231122.400 7                  85302477.507 8  21737460.500
                  21737465.266          45.500                          48.600
 119761551.391 7                  89432377.786 7  22789857.570
                  22789863.375          44.500                          47.300
 19  7  9 10 31  0.0000000  0 21G06G29R24R08R02G30R22G13G07R01G15G02
                                R23G05E12E04E11E36E19E14E09
 121822044.581 5  94926374.38944  90971105.600 7  23181974.836
  23181984.824    23181986.180          35.900          24.100          45.900
 117243300.305 7  91358574.47345                  22310690.039
  22310696.129                          42.900          30.300
 107813892.012 6  83855212.350 5                  20161741.352    20161741.656
  20161745.160                          38.700          31.400
 110729918.490 6  86123298.654 7                  20678023.352    20678022.371
  20678026.125                          40.800          42.700
 123642263.474 5  96166213.702 6                  23170506.055    23170504.617
  23170512.777                          34.100          36.000
 122375996.238 6  95357916.25143  91384677.477 7  23287363.875
  23287372.457    23287371.813          37.000          22.500          45.800
 124539551.791 5  96864110.124 5                  23330452.844    23330451.738
  23330457.574                          35.600          34.900
 110689899.092 7  86251887.51145                  21063580.250
  21063586.270                          45.300          35.400
 127428793.598 6  99295101.57543                  24248869.055
  24248875.043                          36.900          18.300
 105266707.563 7  81874148.686 6                  19692305.602    19692304.715
  19692311.086                          42.700          40.500
 123107801.673 6  95928093.43843                  23426610.148
  23426616.496                          40.500          23.600
 108820194.491 7  84794997.36846                  20707787.094
  20707790.332                          45.600          39.700
 103563985.456 7  80549865.571 6                  19360187.570    19360186.746
  19360194.590                          47.000          40.200
 107637873.217 7  83873756.89846                  20482800.602
  20482806.121                          47.600          40.300
 123376279.856 6                  92131650.807 7  23477725.398
                  23477728.461          39.300                          42.500
 123453215.750 7                  92189136.423 8  23492354.664
                  23492358.934          45.800                          50.100
 113489847.446 7                  84748922.295 7  21596398.094
                  21596399.688          43.000                          45.800
 134439454.953 6                 100393122.885 7  25582976.688
                  25582983.250          39.800                          43.900
 141561976.617 5                 105711897.047 5  26938344.602
                  26938348.523          32.500                          35.000
 114236261.035 7                  85306314.787 8  21738438.266
                  21738442.984          45.500                          48.800
 119759880.194 7                  89431129.812 7  22789539.531
                  22789545.332          44.100                          47.600
 19  7  9 10 31  1.0000000  0 21G06G29R24R08R02G30R22G13G07R01G15G02
                                R23G05E12E04E11E36E19E14E09
 121824984.023 5  94928664.86944  90973300.644 7  23182534.211
  23182544.582    23182545.438          35.400          25.500          45.900
 117242180.731 7  91357702.07844                  22310476.336
  22310483.242                          42.900          29.700
 107811667.755 6  83853482.363 5                  20161326.172    20161325.844
  20161329.219                          38.400          31.900
 110732378.828 6  86125212.252 7                  20678482.195    20678481.918
  20678485.617                          40.600          42.700
 123639321.610 5  96163925.547 5                  23169953.117    23169953.395
  23169961.227                          34.300          35.900
 122374858.200 6  95357029.47544  91383827.632 7  23287147.414
  23287155.609    23287155.328          36.800          24.200          45.500
 124543914.098 5  96867503.023 5                  23331271.695    23331269.180
  23331274.727                          35.800          35.200
 110687540.563 7  86250049.70245                  21063131.781
  21063137.707                          44.900          35.800
 127429242.304 6  99295451.21043                  24248954.070
  24248960.402                          36.400          19.300
 105266530.528 7  81874010.971 6                  19692272.453    19692271.895
  19692278.141                          42.800          40.300
 123104261.609 6  95925334.93843                  23425936.023
  23425942.910                          39.900          23.000
 108820790.811 7  84795462.03546                  20707900.086
  20707903.090                          45.800          39.900
 103565619.833 7  80551136.752 6                  19360493.594    19360492.301
  19360500.066                          46.800          39.700
 107637892.236 7  83873771.71446                  20482803.625
  20482809.574                          47.600          40.400
 123378761.683 6                  92133504.137 7  23478198.023
                  23478200.672          39.400                          42.600
 123453934.308 7                  92189673.005 8  23492491.352
                  23492495.527          46.200                          50.200
 113489890.380 7                  84748954.342 7  21596406.211
                  21596407.813          42.900                          46.000
 134437098.010 6                 100391362.846 7  25582528.180
                  25582534.813          39.600                          44.100
 141564483.497 5                 105713769.082 5  26938821.500
                  26938825.902          32.000                          34.800
 114241400.167 7                  85310152.463 8  21739416.305
                  21739421.094          45.300                          48.700
 119758209.277 7                  89429882.058 7  22789221.586
                  22789227.445          44.200                          47.600
 19  7  9 10 31  2.0000000  0 21G06G29R24R08R02G30R22G13G07R01G15G02
                                R23G05E12E04E11E36E19E14E09
 121827923.806 5  94930955.60144  90975495.914 7  23183093.445
  23183103.711    23183104.813          34.800          24.400          46.100
 117241061.870 7  91356830.23545                  22310264.047
  22310270.164                          42.500          30.600
 107809444.292 6  83851752.983 5                  20160910.141    20160910.117
  20160913.586                          38.800          31.300
 110734839.418 6  86127126.050 7                  20678942.250    20678941.293
  20678945.012                          40.500          42.700
 123636380.053 5  96161637.702 5                  23169403.555    23169402.258
  23169410.137                          34.400          35.800
 122373720.681 6  95356143.11143  91382978.190 7  23286930.773
  23286939.121    23286939.074          37.100          22.500          45.600
 124548276.637 5  96870896.119 5                  23332088.992    23332085.984
  23332091.820                          35.800          34.400
 110685182.607 7  86248212.32446                  21062683.016
  21062689.090                          45.300          36.200
 127429691.581 6  99295801.32243                  24249039.406
  24249045.730                          36.600          19.900
 105266354.019 7  81873873.699 6                  19692239.570    19692238.496
  19692245.117                          42.600          40.500
 123100721.787 6  95922576.64843                  23425262.922
  23425269.777                          39.900          23.000
 108821387.674 7  84795927.11846                  20708014.180
  20708016.965                          45.600          39.800
 103567255.141 7  80552408.649 6                  19360799.039    19360798.027
  19360805.691                          46.800          39.700
 107637911.567 7  83873786.77546                  20482807.516
  20482812.664                          47.300          40.000
 123381243.814 6                  92135357.689 7  23478669.828
                  23478673.250          38.900                          42.800
 123454653.186 7                  92190209.826 8  23492628.234
                  23492632.320          46.200                          50.200
 113489933.807 7                  84748986.783 7  21596414.539
                  21596416.215          42.800                          46.000
 134434741.334 6                 100389602.991 7  25582079.727
                  25582086.301          39.100                          43.900
 141566990.563 5                 105715641.193 5  26939298.602
                  26939302.934          32.300                          34.600
 114246539.901 7                  85313990.556 8  21740394.445
                  21740399.031          45.200                          48.800
 119756538.692 7                  89428634.534 7  22788903.813
                  22788909.578          44.200                          47.400
 19  7  9 10 31  3.0000000  0 21G06G29R24R08R02G30R22G13G07R01G15G02
                                R23G05E12E04E11E36E19E14E09
 121830863.828 5  94933246.53743  90977691.373 7  23183653.063
  23183663.281    23183664.207          35.500          23.300          46.400
 117239943.601 7  91355958.85244                  22310051.352
  22310057.320                          42.800          29.300
 107807221.486 6  83850024.138 5                  20160494.672    20160494.227
  20160498.164                          38.600          31.400
 110737300.180 6  86129039.970 7                  20679400.992    20679400.504
  20679404.656                          40.200          42.600
 123633438.756 5  96159350.019 5                  23168852.758    23168850.875
  23168858.801                          34.300          35.500
 122372583.606 6  95355257.07243  91382129.076 7  23286714.688
  23286723.133    23286722.676          37.500          23.000          45.800
 124552639.236 5  96874289.266 5                  23332904.758    23332903.109
  23332909.285                          35.700          34.400
 110682825.107 7  86246375.31546                  21062234.023
  21062240.262                          45.000          36.500
 127430141.351 6  99296151.75543                  24249124.797
  24249131.180                          36.900          19.900
 105266177.903 7  81873736.746 6                  19692206.703    19692205.605
  19692212.195                          42.600          40.100
 123097182.173 6  95919818.51744                  23424588.969
  23424596.121                          39.400          24.500
 108821984.977 7  84796392.55546                  20708127.516
  20708130.699                          45.800          39.900
 103568891.239 7  80553681.162 6                  19361104.430    19361103.840
  19361111.656                          47.200          39.700
 107637931.168 7  83873802.05646                  20482811.344
  20482816.941                          47.500          39.900
 123383726.187 6                  92137211.406 7  23479142.523
                  23479145.453          39.200                          42.800
 123455372.278 7                  92190746.811 8  23492764.891
                  23492769.188          46.100                          50.500
 113489977.569 7                  84749019.475 7  21596422.742
                  21596424.477          42.800                          46.000
 134432384.805 6                 100387843.235 7  25581631.344
                  25581637.746          39.300                          43.800
 141569497.539 5                 105717513.321 5  26939775.617
                  26939780.164          32.300                          34.600
 114251680.091 7                  85317829.020 8  21741372.539
                  21741377.160          44.900                          48.600
 119754868.319 7                  89427387.185 7  22788585.875
                  22788591.664          44.000                          47.800
 19  7  9 10 31  4.0000000  0 21G06G29R24R08R02G30R22G13G07R01G15G02
                                R23G05E12E04E11E36E19E14E09
 121833804.049 5  94935537.61144  90979887.008 7  23184212.516
  23184222.676    23184223.672          35.600          25.600          46.600
 117238825.970 7  91355087.98045                  22309838.047
  22309844.879                          43.000          30.000
 107804999.396 6  83848295.857 5                  20160079.367    20160078.875
  20160082.746                          38.600          31.700
 110739761.098 6  86130954.041 7                  20679860.953    20679860.348
  20679864.195                          40.600          42.800
 123630497.648 5  96157062.474 6                  23168300.875    23168299.789
  23168307.715                          34.200          36.000
 122371446.977 6  95354371.37044  91381280.299 7  23286498.266
  23286506.508    23286506.496          37.300          24.100          46.000
 124557002.079 6  96877682.556 5                  23333722.461    23333720.695
  23333726.504                          36.200          34.700
 110680468.068 7  86244538.65846                  21061785.898
  21061791.465                          45.000          36.000
 127430591.599 6  99296502.60843                  24249210.180
  24249217.477                          36.500          19.300
 105266002.254 7  81873600.111 6                  19692173.625    19692172.762
  19692179.379                          42.900          40.000
 123093642.748 6  95917060.51844                  23423915.047
  23423922.406                          39.800          24.000
 108822582.735 7  84796858.33546                  20708241.469
  20708244.637                          45.700          39.900
 103570528.142 7  80554954.320 6                  19361411.375    19361410.059
  19361417.520                          47.500          40.000
 107637950.977 7  83873817.48646                  20482814.758
  20482821.063                          47.500          40.000
 123386208.745 6                  92139065.279 7  23479615.156
                  23479617.855          39.500                          43.100
 123456091.614 7                  92191283.975 8  23492901.867
                  23492906.102          46.200                          50.300
 113490021.756 7                  84749052.458 7  21596431.469
                  21596432.801          42.700                          46.400
 134430028.440 6                 100386083.622 7  25581183.102
                  25581189.559          39.300                          43.600
 141572004.516 5                 105719385.399 5  26940252.336
                  26940257.176          32.600                          35.300
 114256820.765 7                  85321667.835 8  21742350.852
                  21742355.434          45.200                          48.300
 119753198.180 7                  89426140.003 8  22788268.031
                  22788273.832          44.400                          48.100
 19  7  9 10 31  5.0000000  0 21G06G29R24R08R02G30R22G13G07R01G15G02
                                R23G05E12E04E11E36E19E14E09
 121836744.566 6  94937828.92244  90982082.859 7  23184772.500
  23184781.789    23184783.074          36.400          25.300          46.600
 117237708.984 7  91354217.59744                  22309625.992
  22309632.047                          42.800          28.700
 107802778.042 6  83846568.167 5                  20159664.352    20159663.293
  20159667.117                          38.600          31.600
 110742222.262 6  86132868.252 7                  20680321.336    20680320.098
  20680323.715                          40.600          43.100
 123627556.822 5  96154775.159 5                  23167748.680    23167748.840
  23167756.531                          34.900          35.800
 122370310.865 6  95353486.08943  91380431.911 7  23286281.570
  23286290.605    23286290.336          37.900          23.900          45.700
 124561365.049 6  96881076.000 5                  23334538.750    23334538.020
  23334544.008                          36.200          34.500
 110678111.571 7  86242702.43145                  21061337.859
  21061343.359                          45.300          35.800
 127431042.456 6  99296853.93243                  24249295.477
  24249302.691                          36.300          19.300
 105265827.077 7  81873463.866 6                  19692141.023    19692140.137
  19692146.473                          42.800          39.800
 123090103.566 6  95914302.71543                  23423242.039
  23423249.016                          39.900          23.300
 108823180.961 7  84797324.48846                  20708355.094
  20708358.352                          46.200          39.400
 103572165.916 7  80556228.162 6                  19361717.148    19361716.160
  19361724.133                          47.000          40.300
 107637971.097 7  83873833.16946                  20482818.680
  20482824.551                          47.200          40.200
 123388691.607 6                  92140919.346 7  23480087.609
                  23480090.426          39.400                          43.400
 123456811.256 7                  92191821.365 8  23493038.656
                  23493043.098          46.300                          50.500
 113490066.394 7                  84749085.788 7  21596440.008
                  21596441.258          42.600                          45.900
 134427672.292 6                 100384324.162 7  25580734.867
                  25580741.168          39.200                          44.100
 141574511.526 5                 105721257.504 5  26940729.586
                  26940734.242          31.700                          35.000
 114261961.974 7                  85325507.056 8  21743329.102
                  21743333.824          45.300                          48.400
 119751528.340 7                  89424893.045 7  22787950.383
                  22787956.063          44.300                          47.900
 19  7  9 10 31  6.0000000  0 21G06G29R24R08R02G30R22G13G07R01G15G02
                                R23G05E12E04E11E36E19E14E09
 121839685.411 5  94940120.48744  90984278.926 7  23185332.102
  23185342.297    23185342.707          35.700          25.900          46.500
 117236592.687 7  91353347.74745                  22309413.266
  22309419.613                          42.900          30.000
 107800557.493 6  83844841.042 5                  20159248.633    20159247.785
  20159251.695                          38.800          32.100
 110744683.635 6  86134782.659 7                  20680779.930    20680779.371
  20680783.500                          40.800          42.900
 123624616.298 5  96152488.092 6                  23167199.570    23167197.664
  23167205.426                          34.000          36.300
 122369175.271 6  95352601.21843  91379583.896 7  23286065.852
  23286074.242    23286074.336          37.500          23.200          46.000
 124565728.225 6  96884469.610 5                  23335356.633    23335355.715
  23335361.113                          36.200          34.600
 110675755.605 7  86240866.60846                  21060888.992
  21060895.070                          44.700          36.200
 127431493.822 6  99297205.66143                  24249381.828
  24249389.082                          37.000          19.600
 105265652.399 7  81873328.014 6                  19692108.133    19692107.199
  19692113.867                          43.000          40.200
 123086564.674 6  95911545.13243                  23422568.273
  23422575.215                          40.400          22.000
 108823779.731 7  84797791.05946                  20708469.039
  20708472.113                          45.800          39.500
 103573804.578 7  80557502.656 6                  19362023.648    19362022.613
  19362030.145                          46.900          40.100
 107637991.516 7  83873849.07646                  20482822.578
  20482828.570                          47.600          40.200
 123391174.761 6                  92142773.644 7  23480560.086
                  23480562.824          39.500                          43.000
 123457531.193 7                  92192358.980 8  23493175.609
                  23493179.953          46.500                          50.500
 113490111.468 7                  84749119.463 7  21596448.375
                  21596449.910          43.100                          45.900
 134425316.365 6                 100382564.875 7  25580286.281
                  25580292.906          39.600                          44.000
 141577018.584 5                 105723129.626 5  26941206.047
                  26941211.160          31.500                          35.000
 114267103.734 7                  85329346.673 8  21744307.648
                  21744312.270          45.700                          48.700
 119749858.779 7                  89423646.293 8  22787632.656
                  22787638.395          44.500                          48.000
 19  7  9 10 31  7.0000000  0 21G06G29R24R08R02G30R22G13G07R01G15G02
                                R23G05E12E04E11E36E19E14E09
 121842626.498 5  94942412.25644  90986475.216 7  23185891.406
  23185901.918    23185902.270          35.200          26.100          46.400
 117235477.055 7  91352478.43545                  22309200.625
  22309207.074                          43.000          30.000
 107798337.678 6  83843114.556 5                  20158833.953    20158832.871
  20158836.934                          38.700          31.900
 110747145.240 6  86136697.268 7                  20681240.227    20681239.246
  20681243.141                          40.700          42.300
 123621676.042 5  96150201.293 5                  23166648.656    23166646.609
  23166654.816                          34.200          35.900
 122368040.161 6  95351716.72244  91378736.253 7  23285849.383
  23285858.188    23285858.668          37.600          24.100          45.900
 124570091.645 6  96887863.333 5                  23336174.672    23336173.047
  23336178.473                          36.100          33.800
 110673400.162 7  86239031.19745                  21060440.695
  21060446.711                          45.300          35.500
 127431945.762 6  99297557.83043                  24249467.945
  24249474.789                          36.600          19.600
 105265478.217 7  81873192.524 6                  19692075.477    19692074.777
  19692081.195                          43.100          39.800
 123083025.984 6  95908787.69843                  23421894.797
  23421901.551                          40.500          22.800
 108824378.959 7  84798257.98946                  20708583.078
  20708586.016                          45.400          38.900
 103575444.082 7  80558777.821 6                  19362329.922    19362329.051
  19362336.508                          46.800          39.800
 107638012.222 7  83873865.21046                  20482826.875
  20482832.313                          47.800          39.800
 123393658.126 6                  92144628.145 7  23481032.547
                  23481035.375          39.700                          43.100
 123458251.418 7                  92192896.810 8  23493312.961
                  23493317.055          46.000                          50.500
 113490156.990 7                  84749153.447 7  21596456.844
                  21596458.637          42.600                          46.000
 134422960.657 6                 100380805.741 7  25579837.648
                  25579844.582          40.200                          43.500
 141579525.571 5                 105725001.815 5  26941683.359
                  26941688.398          32.200                          35.400
 114272246.029 7                  85333186.697 8  21745286.305
                  21745290.711          45.700                          49.000
 119748189.506 7                  89422399.746 7  22787314.898
                  22787320.887          44.400                          47.900
 19  7  9 10 31  8.0000000  0 21G06G29R24R08R02G30R22G13G07R01G15G02
                                R23G05E12E04E11E36E19E14E09
 121845567.906 5  94944704.26643  90988671.713 7  23186451.477
  23186461.563    23186461.922          35.100          23.300          46.600
 117234362.023 7  91351609.57444                  22308988.852
  22308995.066                          42.600          29.400
 107796118.568 6  83841388.566 5                  20158418.109    20158418.484
  20158422.105                          38.600          32.100
 110749607.083 6  86138612.013 7                  20681699.609    20681699.074
  20681702.828                          40.400          42.400
 123618736.084 5  96147914.603 5                  23166097.852    23166095.570
  23166103.824                          34.200          35.900
 122366905.553 6  95350832.62144  91377888.980 7  23285634.016
  23285642.605    23285642.645          38.100          24.200          46.000
 124574455.176 5  96891257.226 5                  23336992.414    23336990.602
  23336996.086                          35.700          34.800
 110671045.189 7  86237196.16746                  21059992.859
  21059998.605                          45.200          36.100
 127432398.208 6  99297910.35343                  24249554.180
  24249561.105                          36.900          19.000
 105265304.491 7  81873057.411 6                  19692042.969    19692042.340
  19692048.730                          42.600          39.900
 123079487.517 6  95906030.42743                  23421221.688
  23421228.355                          40.000          23.000
 108824978.707 7  84798725.33046                  20708697.172
  20708700.305                          45.500          39.200
 103577084.399 7  80560053.642 6                  19362636.594    19362635.629
  19362643.414                          47.000          39.800
 107638033.157 7  83873881.52346                  20482830.289
  20482836.156                          47.600          39.700
 123396141.807 6                  92146482.811 7  23481505.000
                  23481508.195          39.200                          42.800
 123458971.899 7                  92193434.835 8  23493449.922
                  23493454.164          45.900                          50.500
 113490202.899 7                  84749187.738 7  21596466.023
                  21596467.293          43.100                          46.300
 134420605.153 6                 100379046.749 7  25579389.672
                  25579396.508          39.600                          43.800
 141582032.714 5                 105726873.955 5  26942160.109
                  26942165.324          31.500                          35.200
 114277388.819 7                  85337027.101 8  21746264.805
                  21746269.371          45.900                          48.800
 119746520.489 7                  89421153.406 7  22786997.289
                  22787003.211          44.700                          47.600
 19  7  9 10 31  9.0000000  0 21G06G29R24R08R02G30R22G13G07R01G15G02
                                R23G05E12E04E11E36E19E14E09
 121848509.515 5  94946996.39944  90990868.355 7  23187010.961
  23187021.633    23187021.727          35.700          24.900          46.200
 117233247.597 7  91350741.18945                  22308776.164
  22308782.836                          42.700          30.200
 107793900.141 6  83839663.116 5                  20158004.844    20158003.176
  20158007.199                          38.800          32.000
 110752069.108 6  86140526.934 7                  20682159.438    20682158.832
  20682162.660                          40.600          42.500
 123615796.350 5  96145628.147 5                  23165546.797    23165544.727
  23165552.816                          34.600          35.900
 122365771.377 6  95349948.84544  91377042.022 7  23285418.492
  23285426.563    23285426.973          37.900          24.600          45.700
 124578818.924 6  96894651.196 5                  23337809.813    23337808.070
  23337813.578                          36.100          34.900
 110668690.704 7  86235361.50046                  21059544.828
  21059550.285                          45.600          36.100
 127432851.166 6  99298263.31442                  24249640.227
  24249647.355                          37.100          17.800
 105265131.183 7  81872922.637 6                  19692011.523    19692009.770
  19692016.266                          42.900          40.200
 123075949.287 6  95903273.40643                  23420548.180
  23420555.145                          39.900          22.800
 108825578.862 7  84799192.98446                  20708811.250
  20708814.449                          45.800          39.400
 103578725.507 7  80561330.032 6                  19362942.961    19362942.465
  19362950.102                          47.500          40.100
 107638054.320 7  83873898.01446                  20482834.516
  20482840.223                          47.800          39.600
 123398625.658 6                  92148337.656 7  23481977.531
                  23481980.734          39.300                          42.900
 123459692.603 7                  92193973.026 8  23493586.883
                  23493591.336          46.100                          50.700
 113490249.207 7                  84749222.306 7  21596474.461
                  21596476.070          42.900                          45.800
 134418249.789 6                 100377287.878 7  25578941.500
                  25578948.195          39.900                          43.700
 141584539.718 5                 105728746.098 5  26942637.070
                  26942642.328          32.200                          35.300
 114282532.069 7                  85340867.843 8  21747243.430
                  21747248.164          45.400                          48.700
 119744851.684 7                  89419907.227 7  22786679.820
                  22786685.563          44.500                          47.800
 19  7  9 10 31 10.0000000  0 21G06G29R24R08R02G30R22G13G07R01G15G02
                                R23G05E12E04E11E36E19E14E09
 121851451.438 5  94949288.82443  90993065.245 7  23187570.891
  23187581.465    23187581.531          35.800          23.400          46.300
 117232133.868 7  91349873.34845                  22308564.305
  22308570.813                          42.400          30.000
 107791682.463 6  83837938.265 5                  20157589.773    20157588.363
  20157592.051                          39.100          32.000
 110754531.341 6  86142441.988 7                  20682619.023    20682618.699
  20682622.566                          40.200          42.600
 123612856.884 5  96143341.891 5                  23164994.359    23164994.520
  23165001.059                          34.600          35.500
 122364637.684 6  95349065.44444  91376195.452 7  23285202.711
  23285210.875    23285211.391          37.100          24.500          45.600
 124583182.821 6  96898045.363 5                  23338627.055    23338625.500
  23338631.430                          36.400          35.000
 110666336.730 7  86233527.24346                  21059096.820
  21059102.434                          44.900          36.000
 127433304.716 6  99298616.74443                  24249726.508
  24249733.184                          37.700          19.600
 105264958.383 7  81872788.225 6                  19691977.813    19691977.512
  19691984.051                          42.500          40.400
 123072411.299 6  95900516.52243                  23419875.008
  23419881.727                          40.200          22.600
 108826179.528 7  84799661.03846                  20708925.703
  20708928.836                          45.300          39.300
 103580367.479 7  80562607.145 6                  19363251.125    19363249.598
  19363257.016                          47.500          39.900
 107638075.793 7  83873914.74946                  20482838.836
  20482844.410                          47.700          39.500
 123401109.827 6                  92150192.692 7  23482449.992
                  23482453.582          38.900                          42.500
 123460413.616 7                  92194511.458 8  23493724.383
                  23493728.594          46.300                          50.800
 113490295.966 7                  84749257.234 7  21596483.656
                  21596485.117          43.100                          45.900
 134415894.646 6                 100375529.159 7  25578493.305
                  25578499.973          39.700                          43.700
 141587046.749 5                 105730618.257 5  26943114.531
                  26943119.664          31.700                          35.000
 114287675.890 7                  85344708.997 8  21748222.375
                  21748227.047          45.900                          48.800
 119743183.163 7                  89418661.265 7  22786362.250
                  22786367.992          44.600                          47.800
 19  7  9 10 31 11.0000000  0 21G06G29R24R08R02G30R22G13G07R01G15G02
                                R23G05E12E04E11E36E19E14E09
 121854393.623 6  94951581.42844  90995262.336 7  23188130.484
  23188140.555    23188141.457          36.200          25.600          46.000
 117231020.782 7  91349006.01144                  22308353.195
  22308358.789                          42.000          28.500
 107789465.476 6  83836213.961 5                  20157175.594    20157174.043
  20157177.531                          39.300          31.600
 110756993.751 6  86144357.207 7                  20683080.031    20683078.535
  20683082.695                          40.000          42.700
 123609917.648 5  96141055.829 5                  23164443.813    23164443.434
  23164450.254                          34.600          35.500
 122363504.528 6  95348182.46343  91375349.244 7  23284986.531
  23284995.266    23284995.598          37.300          22.600          45.600
 124587546.868 6  96901439.587 5                  23339444.000    23339443.152
  23339448.902                          36.400          35.000
 110663983.269 7  86231693.37245                  21058648.758
  21058654.746                          45.200          35.800
 127433758.731 6  99298970.52643                  24249812.898
  24249819.574                          37.700          19.600
 105264786.023 7  81872654.166 6                  19691946.000    19691945.371
  19691951.730                          42.500          40.400
 123068873.543 6  95897759.83043                  23419201.797
  23419208.461                          39.900          22.000
 108826780.670 7  84800129.45646                  20709040.016
  20709043.434                          45.500          39.300
 103582010.283 7  80563884.874 6                  19363557.492    19363556.480
  19363564.031                          47.400          40.300
 107638097.512 7  83873931.67046                  20482842.977
  20482848.707                          47.800          39.800
 123403594.204 6                  92152047.917 7  23482923.250
                  23482926.285          39.300                          42.500
 123461134.890 7                  92195050.068 8  23493861.492
                  23493865.805          46.200                          50.700
 113490343.150 7                  84749292.459 7  21596492.391
                  21596494.035          43.200                          46.000
 134413539.703 6                 100373770.588 7  25578045.078
                  25578051.629          39.700                          43.600
 141589553.85515                 105732490.432 5  26943591.227
                  26943596.676          32.200                          35.000
 114292820.202 7                  85348550.538 8  21749201.117
                  21749205.949          45.700                          48.700
 119741514.945 7                  89417415.498 8  22786044.781
                  22786050.492          44.600                          48.200
 19  7  9 10 31 12.0000000  0 21G06G29R24R08R02G30R22G13G07R01G15G02
                                R23G05E12E04E11E36E19E14E09
 121857336.113 6  94953874.28044  90997459.635 7  23188691.320
  23188700.918    23188701.254          36.200          25.400          45.700
 117229908.345 6  91348139.16944                  22308140.305
  22308147.168                          41.700          29.600
 107787249.245 6  83834490.163 5                  20156761.203    20156759.652
  20156763.023                          38.700          32.100
 110759456.357 6  86146272.551 7                  20683539.453    20683538.168
  20683542.352                          40.200          42.600
 123606978.747 5  96138770.035 5                  23163893.953    23163892.703
  23163899.199                          34.600          35.600
 122362371.785 6  95347299.79444  91374503.402 7  23284771.078
  23284779.754    23284779.941          37.400          24.200          45.700
 124591911.098 6  96904834.021 5                  23340261.813    23340260.848
  23340266.586                          36.800          35.000
 110661630.315 7  86229859.90346                  21058200.961
  21058207.250                          45.200          36.100
 127434213.328 6  99299324.75443                  24249899.695
  24249905.848                          38.300          19.300
 105264614.122 7  81872520.462 6                  19691913.977    19691913.090
  19691919.566                          42.700          40.200
 123065336.022 6  95895003.31043                  23418528.992
  23418535.715                          39.500          22.200
 108827382.298 7  84800598.25446                  20709154.688
  20709157.996                          45.800          39.400
 103583653.953 7  80565163.287 6                  19363865.156    19363863.840
  19363871.082                          47.200          39.600
 107638119.506 7  83873948.80746                  20482847.117
  20482852.699                          47.800          39.900
 123406078.901 6                  92153903.361 7  23483396.008
                  23483399.227          39.100                          42.700
 123461856.477 7                  92195588.895 8  23493998.938
                  23494003.145          46.300                          50.700
 113490390.722 7                  84749327.997 7  21596501.461
                  21596502.949          43.000                          46.100
 134411184.935 6                 100372012.191 7  25577597.070
                  25577603.836          39.400                          43.900
 141592060.932 5                 105734362.604 5  26944068.758
                  26944073.656          32.300                          34.800
 114297965.058 7                  85352392.473 8  21750180.336
                  21750184.984          46.000                          48.700
 119739846.976 7                  89416169.935 7  22785727.313
                  22785733.098          44.400                          47.800
 19  7  9 10 31 13.0000000  0 21G06G29R24R08R02G30R22G13G07R01G15G02
                                R23G05E12E04E11E36E19E14E09
 121860278.727 5  94956167.21644  90999657.051 7  23189251.508
  23189260.988    23189261.293          35.000          25.300          45.800
 117228796.418 7  91347272.73744                  22307929.180
  22307935.668                          42.100          28.900
 107785033.617 6  83832766.931 5                  20156346.438    20156345.402
  20156348.461                          38.800          31.900
 110761919.041 6  86148187.960 7                  20683999.320    20683998.176
  20684002.074                          40.600          42.500
 123604040.029 5  96136484.343 5                  23163343.016    23163342.094
  23163348.762                          34.300          35.600
 122361239.482 6  95346417.49843  91373657.856 7  23284555.734
  23284564.488    23284564.570          37.600          23.200          45.700
 124596275.428 6  96908228.479 5                  23341079.453    23341078.348
  23341083.910                          36.800          35.000
 110659277.765 7  86228026.74546                  21057753.383
  21057759.191                          45.500          36.500
 127434668.345 6  99299679.31443                  24249985.789
  24249992.672                          38.300          19.300
 105264442.605 7  81872387.066 6                  19691881.734    19691881.152
  19691887.555                          42.200          40.400
 123061798.639 6  95892246.92443                  23417855.000
  23417862.074                          39.700          23.000
 108827984.312 7  84801067.36346                  20709269.422
  20709272.410                          45.600          39.500
 103585298.353 7  80566442.261 6                  19364172.438    19364171.145
  19364178.477                          46.800          39.700
 107638141.649 7  83873966.06846                  20482851.211
  20482856.414                          47.500          39.400
 123408563.686 6                  92155758.913 7  23483868.828
                  23483871.980          38.900                          43.000
 123462578.172 7                  92196127.848 8  23494136.211
                  23494140.473          46.000                          50.400
 113490438.637 7                  84749363.773 7  21596510.648
                  21596512.137          42.800                          45.800
 134408830.290 6                 100370253.857 7  25577149.336
                  25577155.590          39.000                          44.100
 141594567.940 5                 105736234.709 5  26944545.844
                  26944550.625          31.700                          34.600
 114303110.309 7                  85356234.713 8  21751159.539
                  21751164.070          45.800                          48.600
 119738179.149 7                  89414924.504 7  22785409.766
                  22785415.801          44.800                          47.900
 19  7  9 10 31 14.0000000  0 21G06G29R24R08R02G30R22G13G07R01G15G02
                                R23G05E12E04E11E36E19E14E09
 121863221.781 5  94958460.52244  91001854.784 7  23189811.031
  23189820.715    23189821.379          35.600          24.800          46.000
 117227685.299 7  91346406.94044                  22307717.938
  22307724.137                          42.400          28.900
 107782818.891 6  83831044.399 5                  20155932.055    20155931.137
  20155934.359                          38.500          32.100
 110764382.095 6  86150103.680 7                  20684458.297    20684458.207
  20684461.961                          40.500          42.900
 123601101.778 5  96134199.033 5                  23162792.695    23162791.281
  23162798.207                          34.000          35.300
 122360107.780 6  95345535.68243  91372812.755 7  23284340.680
  23284349.172    23284349.129          37.700          23.900          45.500
 124600640.033 6  96911623.191 5                  23341896.797    23341895.879
  23341901.578                          36.400          34.700
 110656925.869 7  86226194.10346                  21057306.617
  21057311.508                          45.500          36.200
 127435124.017 6  99300034.35943                  24250073.359
  24250079.445                          38.300          19.000
 105264271.696 7  81872254.126 6                  19691849.945    19691848.988
  19691855.828                          42.200          40.000
 123058261.588 6  95889490.77743                  23417181.875
  23417189.367                          39.900          22.500
 108828586.929 7  84801536.93046                  20709383.867
  20709386.938                          45.600          39.200
 103586943.747 7  80567722.009 6                  19364479.328    19364478.645
  19364485.941                          47.000          40.000
 107638164.209 7  83873983.64546                  20482855.766
  20482861.098                          47.700          39.600
 123411048.909 6                  92157614.734 7  23484341.813
                  23484344.938          39.100                          43.300
 123463300.337 7                  92196667.110 8  23494273.742
                  23494277.941          46.000                          50.300
 113490487.125 7                  84749399.966 7  21596520.008
                  21596521.391          43.300                          45.900
 134406475.981 6                 100368495.753 7  25576701.109
                  25576707.969          39.100                          43.900
 141597075.066 5                 105738106.921 5  26945023.094
                  26945027.566          32.000                          34.600
 114308256.230 7                  85360077.436 8  21752138.719
                  21752143.336          46.200                          48.800
 119736511.750 7                  89413679.360 7  22785092.633
                  22785098.246          44.800                          47.500
 19  7  9 10 31 15.0000000  0 21G06G29R24R08R02G30R22G13G07R01G15G02
                                R23G05E12E04E11E36E19E14E09
 121866165.337 5  94960754.19744  91004052.890 7  23190371.258
  23190381.195    23190381.449          35.700          25.500          45.800
 117226575.070 7  91345541.82544                  22307506.984
  22307513.141                          42.400          29.100
 107780605.181 6  83829322.600 5                  20155517.523    20155516.867
  20155520.418                          38.700          32.000
 110766845.613 6  86152019.754 7                  20684918.766    20684918.418
  20684922.094                          40.000          43.000
 123598164.030 5  96131914.111 5                  23162243.609    23162240.859
  23162247.320                          34.300          35.300
 122358976.860 6  95344654.42443  91371968.214 7  23284124.844
  23284133.926    23284133.855          37.800          22.300          45.500
 124605005.116 6  96915018.249 5                  23342714.703    23342713.973
  23342719.258                          36.600          34.900
 110654574.725 7  86224362.03945                  21056858.688
  21056864.172                          45.800          35.700
 127435580.510 6  99300390.07943                  24250160.625
  24250166.410                          37.900          19.000
 105264101.528 7  81872121.774 6                  19691818.031    19691817.332
  19691823.727                          42.400          39.600
 123054725.050 6  95886735.03043                  23416509.086
  23416516.125                          39.600          22.300
 108829190.299 7  84802007.08746                  20709498.703
  20709501.926                          45.300          39.800
 103588590.245 7  80569002.617 6                  19364787.789    19364786.449
  19364793.898                          47.000          39.900
 107638187.291 7  83874001.62846                  20482860.133
  20482866.117                          47.900          40.100
 123413534.611 6                  92159470.935 7  23484814.797
                  23484818.039          39.000                          43.300
 123464022.977 7                  92197206.753 8  23494411.148
                  23494415.363          45.600                          50.700
 113490536.260 7                  84749436.660 7  21596529.328
                  21596530.762          42.900                          45.900
 134404122.112 6                 100366737.984 7  25576253.188
                  25576260.004          39.300                          43.700
 141599582.506 5                 105739979.349 5  26945500.234
                  26945504.684          32.000                          34.600
 114313402.897 7                  85363920.730 8  21753118.094
                  21753122.781          45.600                          48.700
 119734844.853 7                  89412434.604 7  22784775.484
                  22784781.164          44.900                          47.000
 19  7  9 10 31 16.0000000  0 21G06G29R24R08R02G30R22G13G07R01G15G02
                                R23G05E12E04E11E36E19E14E09
 121869108.916 5  94963047.88944  91006251.023 7  23190931.406
  23190941.391    23190941.797          35.700          24.400          45.500
 117225465.241 7  91344677.02344                  22307295.438
  22307301.551                          42.500          29.600
 107778391.922 6  83827601.172 5                  20155104.406    20155102.879
  20155106.477                          38.700          31.700
 110769309.096 6  86153935.807 7                  20685379.070    20685377.996
  20685382.301                          40.200          43.100
 123595226.296 5  96129629.212 5                  23161691.828    23161690.813
  23161696.684                          34.700          35.000
 122357846.160 6  95343773.35743  91371123.855 7  23283910.367
  23283918.902    23283918.660          38.100          22.600          45.200
 124609370.112 6  96918413.261 5                  23343532.391    23343531.473
  23343536.777                          36.100          34.800
 110652223.821 7  86222530.16645                  21056410.938
  21056416.695                          45.600          35.700
 127436037.259 6  99300746.00943                  24250247.219
  24250253.313                          38.300          18.600
 105263931.581 7  81871989.588 6                  19691785.906    19691785.512
  19691792.074                          42.100          40.000
 123051188.476 6  95883979.26743                  23415836.555
  23415843.141                          39.600          22.500
 108829793.856 7  84802477.39246                  20709613.477
  20709616.715                          45.200          39.700
 103590237.320 7  80570283.663 6                  19365095.352    19365094.316
  19365102.180                          46.600          40.100
 107638210.373 8  83874019.61446                  20482864.195
  20482869.832                          48.000          40.000
 123416020.330 6                  92161327.160 7  23485287.758
                  23485290.965          39.100                          43.100
 123464745.663 7                  92197746.416 8  23494548.773
                  23494552.891          45.900                          50.200
 113490585.589 7                  84749473.495 7  21596538.664
                  21596540.074          43.200                          46.000
 134401768.188 6                 100364980.193 7  25575805.141
                  25575812.117          39.800                          43.700
 141602089.648 5                 105741851.576 5  26945977.703
                  26945981.910          31.700                          34.700
 114318549.831 7                  85367764.216 8  21754097.453
                  21754102.148          45.900                          48.600
 119733177.990 7                  89411189.865 7  22784458.359
                  22784463.859          44.600                          47.200
 19  7  9 10 31 17.0000000  0 21G06G29R24R08R02G30R22G13G07R01G15G02
                                R23G05E12E04E11E36E19E14E09
 121872052.735 5  94965341.76444  91008449.331 7  23191491.492
  23191501.328    23191501.727          35.700          25.900          45.400
 117224356.036 7  91343812.71444                  22307083.531
  22307090.242                          42.400          28.400
 107776179.364 6  83825880.306 5                  20154690.648    20154689.262
  20154692.758                          38.500          32.200
 110771772.731 6  86155851.957 7                  20685838.508    20685838.371
  20685842.355                          40.800          42.800
 123592288.731 5  96127344.479 5                  23161141.148    23161140.320
  23161145.871                          35.000          34.400
 122356715.881 6  95342892.60643  91370279.822 7  23283695.313
  23283703.594    23283703.793          37.900          22.000          45.400
 124613735.244 6  96921808.379 5                  23344350.383    23344349.512
  23344354.723                          36.200          34.700
 110649873.401 7  86220698.67245                  21055963.797
  21055969.770                          45.900          35.400
 127436494.496 6  99301102.27243                  24250333.688
  24250339.879                          38.100          18.300
 105263762.048 7  81871857.727 6                  19691754.289    19691753.660
  19691760.164                          42.100          39.600
 123047652.109 6  95881223.66843                  23415163.203
  23415170.660                          39.000          23.000
 108830397.876 7  84802948.05446                  20709728.016
  20709731.430                          45.000          39.300
 103591885.171 7  80571565.333 6                  19365403.133    19365402.238
  19365409.707                          46.900          39.600
 107638233.680 7  83874037.77346                  20482869.055
  20482874.598                          47.900          39.900
 123418506.268 6                  92163183.533 7  23485760.664
                  23485764.113          39.400                          43.000
 123465468.578 7                  92198286.252 8  23494686.086
                  23494690.449          46.100                          50.300
 113490635.271 7                  84749510.615 7  21596548.180
                  21596549.598          42.700                          46.000
 134399414.451 6                 100363222.508 7  25575357.539
                  25575364.180          39.800                          44.000
 141604596.734 5                 105743723.767 5  26946454.844
                  26946459.289          31.500                          34.400
 114323697.238 7                  85371608.046 8  21755076.984
                  21755081.730          45.800                          48.800
 119731511.335 7                  89409945.285 7  22784141.117
                  22784146.883          44.500                          47.100
 19  7  9 10 31 18.0000000  0 21G06G29R24R08R02G30R22G13G07R01G15G02
                                R23G05E12E04E11E36E19E14E09
 121874996.856 5  94967635.88444  91010647.855 7  23192051.469
  23192061.559    23192062.047          35.400          26.200          45.200
 117223247.488 7  91342948.90444                  22306873.031
  22306879.441                          42.100          29.100
 107773967.577 6  83824160.026 5                  20154275.813    20154276.164
  20154279.152                          39.000          32.600
 110774236.600 6  86157768.285 7                  20686299.133    20686298.434
  20686302.422                          40.300          42.800
 123589351.479 5  96125059.925 5                  23160591.047    23160589.563
  23160595.688                          34.500          34.700
 122355586.110 6  95342012.26143  91369436.180 7  23283479.734
  23283488.438    23283488.652          37.500          23.600          45.700
 124618100.557 6  96925203.591 5                  23345168.477    23345167.109
  23345172.543                          36.400          34.900
 110647523.501 7  86218867.58046                  21055516.836
  21055522.430                          45.800          36.100
 127436952.309 6  99301459.03143                  24250420.531
  24250426.930                          37.700          18.600
 105263592.993 7  81871726.273 6                  19691722.828    19691721.988
  19691728.762                          42.300          40.100
 123044115.968 6  95878468.23143                  23414489.867
  23414497.344                          39.200          23.500
 108831002.384 7  84803419.10346                  20709843.359
  20709846.379                          45.000          39.900
 103593533.877 7  80572847.644 6                  19365711.836    19365710.520
  19365717.973                          46.800          39.900
 107638257.275 7  83874056.16246                  20482873.219
  20482878.895                          47.300          40.500
 123420992.458 6                  92165040.112 7  23486233.781
                  23486237.246          38.900                          42.900
 123466191.776 7                  92198826.304 8  23494823.867
                  23494828.066          45.900                          50.400
 113490685.440 7                  84749548.060 7  21596557.773
                  21596559.094          43.000                          46.000
 134397060.864 6                 100361464.989 7  25574909.328
                  25574916.289          39.800                          43.900
 141607103.948 5                 105745596.000 5  26946931.688
                  26946936.297          31.800                          34.900
 114328845.175 7                  85375452.298 8  21756056.344
                  21756061.375          45.700                          48.900
 119729844.979 7                  89408700.930 7  22783824.063
                  22783829.648          44.200                          47.500
 19  7  9 10 31 19.0000000  0 21G06G29R24R08R02G30R22G13G07R01G15G02
                                R23G05E12E04E11E36E19E14E09
 121877941.224 6  94969930.20043  91012846.580 7  23192612.367
  23192621.961    23192622.379          36.100          23.800          45.200
 117222139.558 7  91342085.59445                  22306662.555
  22306668.754                          42.600          30.300
 107771756.532 6  83822440.324 5                  20153862.758    20153862.289
  20153865.367                          38.800          32.400
 110776700.622 6  86159684.781 7                  20686760.203    20686758.473
  20686762.477                          40.200          43.000
 123586414.512 5  96122775.610 5                  23160040.680    23160038.820
  23160045.137                          34.000          35.100
 122354456.831 6  95341132.32144  91368592.875 7  23283265.383
  23283273.547    23283273.734          37.600          24.300          45.900
 124622466.020 6  96928599.009 5                  23345986.625    23345985.449
  23345990.016                          36.300          35.300
 110645174.094 7  86217036.87145                  21055069.570
  21055075.801                          45.500          35.900
 127437410.610 6  99301816.16842                  24250508.055
  24250514.047                          37.700          17.400
 105263424.439 7  81871595.154 6                  19691690.875    19691690.176
  19691697.090                          42.000          39.900
 123040580.080 6  95875712.99143                  23413817.367
  23413824.699                          39.300          22.200
 108831607.387 7  84803890.53446                  20709958.328
  20709961.840                          45.100          39.700
 103595183.427 7  80574130.660 6                  19366019.938    19366019.113
  19366026.395                          46.700          40.000
 107638281.162 7  83874074.77746                  20482877.797
  20482883.617                          47.800          40.500
 123423478.928 6                  92166896.875 7  23486707.219
                  23486710.496          39.300                          43.300
 123466915.250 7                  92199366.563 8  23494961.422
                  23494965.711          45.600                          50.600
 113490736.002 7                  84749585.815 7  21596567.477
                  21596568.750          43.100                          46.400
 134394707.534 6                 100359707.628 7  25574461.453
                  25574468.492          39.800                          43.900
 141609611.094 5                 105747468.250 5  26947408.688
                  26947413.449          31.300                          34.800
 114333993.624 7                  85379296.927 8  21757036.508
                  21757041.023          45.600                          48.600
 119728178.890 7                  89407456.759 7  22783506.898
                  22783512.598          44.600                          47.500
 19  7  9 10 31 20.0000000  0 21G06G29R24R08R02G30R22G13G07R01G15G02
                                R23G05E12E04E11E36E19E14E09
 121880885.895 5  94972224.74644  91015045.490 7  23193172.102
  23193182.215    23193182.543          35.500          24.500          45.600
 117221032.294 7  91341222.77444                  22306452.070
  22306458.266                          42.300          29.800
 107769546.183 6  83820721.146 5                  20153450.172    20153448.926
  20153452.484                          38.800          32.600
 110779164.883 6  86161601.406 7                  20687220.047    20687219.020
  20687222.598                          40.300          42.600
 123583477.824 5  96120491.505 5                  23159489.125    23159488.793
  23159494.691                          34.000          34.700
 122353328.061 6  95340252.77144  91367749.947 7  23283050.461
  23283058.781    23283059.086          37.600          24.400          45.800
 124626831.713 6  96931994.499 5                  23346805.008    23346803.219
  23346807.902                          36.400          35.400
 110642825.190 7  86215206.56045                  21054622.609
  21054628.191                          45.500          35.900
 127437869.479 6  99302173.71543                  24250595.539
  24250601.707                          37.200          18.600
 105263256.320 7  81871464.413 6                  19691659.820    19691659.098
  19691665.641                          42.300          40.100
 123037044.395 6  95872957.92644                  23413145.031
  23413151.551                          38.800          24.100
 108832212.869 7  84804362.34046                  20710074.078
  20710077.066                          45.400          39.500
 103596833.851 7  80575414.301 6                  19366328.273    19366327.332
  19366335.184                          46.600          40.200
 107638305.276 8  83874093.56746                  20482882.602
  20482888.168                          48.000          40.600
 123425965.619 6                  92168753.834 7  23487180.273
                  23487183.473          39.300                          43.200
 123467638.981 7                  92199907.018 8  23495099.547
                  23495103.418          45.400                          50.600
 113490786.951 7                  84749623.885 7  21596577.055
                  21596578.418          42.800                          46.300
 134392354.381 6                 100357950.394 7  25574013.898
                  25574020.727          39.600                          43.400
 141612118.283 5                 105749340.461 5  26947885.906
                  26947890.641          31.100                          35.200
 114339142.589 7                  85383141.929 8  21758016.383
                  21758020.934          45.500                          48.500
 119726513.039 7                  89406212.793 7  22783190.086
                  22783195.613          44.500                          47.300
 19  7  9 10 31 21.0000000  0 21G06G29R24R08R02G30R22G13G07R01G15G02
                                R23G05E12E04E11E36E19E14E09
 121883830.795 5  94974519.48044  91017244.628 7  23193732.977
  23193742.883    23193743.078          35.400          25.800          45.700
 117219925.682 7  91340360.47144                  22306241.172
  22306247.313                          42.100          29.500
 107767336.570 6  83819002.523 5                  20153037.523    20153035.645
  20153039.449                          38.800          32.600
 110781629.318 6  86163518.197 7                  20687679.430    20687679.270
  20687682.809                          40.300          43.000
 123580541.454 5  96118207.717 5                  23158939.852    23158938.906
  23158944.551                          34.100          35.600
 122352199.738 6  95339373.54443  91366907.375 7  23282834.883
  23282844.238    23282844.238          37.000          22.800          45.600
 124631197.559 6  96935390.156 5                  23347622.742    23347620.719
  23347626.531                          36.300          35.100
 110640476.815 7  86213376.66145                  21054176.070
  21054181.516                          45.700          35.500
 127438328.885 6  99302531.68043                  24250682.914
  24250689.238                          37.100          18.300
 105263088.690 6  81871334.019 6                  19691628.586    19691627.535
  19691634.352                          41.800          40.100
 123033508.942 6  95870203.02743                  23412471.336
  23412479.008                          39.200          22.500
 108832818.821 7  84804834.50746                  20710189.320
  20710192.691                          45.300          39.700
 103598485.105 7  80576698.610 6                  19366638.047    19366636.121
  19366643.770                          46.900          40.000
 107638329.680 7  83874112.58846                  20482886.828
  20482892.668                          47.600          39.700
 123428452.562 6                  92170610.973 7  23487653.336
                  23487656.719          39.700                          43.100
 123468363.011 7                  92200447.688 8  23495237.242
                  23495241.207          45.700                          50.500
 113490838.378 7                  84749662.276 7  21596586.664
                  21596588.102          42.400                          46.300
 134390001.416 6                 100356193.334 7  25573566.383
                  25573572.746          39.500                          43.300
 141614625.445 5                 105751212.716 5  26948363.273
                  26948367.660          32.000                          34.800
 114344292.075 7                  85386987.315 8  21758996.094
                  21759001.020          45.300                          48.400
 119724847.493 7                  89404969.034 7  22782873.086
                  22782878.727          44.800                          47.000
 19  7  9 10 31 22.0000000  0 21G06G29R24R08R02G30R22G13G07R01G15G02
                                R23G05E12E04E11E36E19E14E09
 121886776.033 5  94976814.45944  91019444.007 7  23194292.609
  23194302.801    23194303.523          35.700          24.000          45.800
 117218819.761 7  91339498.72544                  22306031.125
  22306037.539                          42.000          29.600
 107765127.698 6  83817284.548 5                  20152624.367    20152622.395
  20152626.113                          38.800          32.100
 110784094.035 6  86165435.202 7                  20688139.148    20688139.152
  20688143.188                          40.500          43.100
 123577605.483 5  96115924.144 5                  23158388.984    23158388.273
  23158394.246                          33.800          35.100
 122351071.995 6  95338494.79843  91366065.227 7  23282620.594
  23282629.785    23282629.832          36.500          22.900          45.600
 124635563.628 6  96938785.994 5                  23348440.672    23348438.719
  23348444.207                          37.100          35.400
 110638128.991 7  86211547.18345                  21053728.789
  21053734.781                          45.500          35.600
 127438788.889 6  99302890.13443                  24250770.492
  24250776.215                          37.200          18.300
 105262921.559 7  81871204.056 6                  19691597.711    19691596.496
  19691603.207                          42.200          39.900
 123029973.819 6  95867448.37443                  23411799.258
  23411806.129                          39.200          22.800
 108833425.323 7  84805307.11046                  20710305.008
  20710308.078                          44.800          39.600
 103600137.250 7  80577983.635 6                  19366946.602    19366945.355
  19366952.863                          47.000          39.800
 107638354.396 7  83874131.84646                  20482891.602
  20482897.563                          47.800          40.000
 123430939.871 6                  92172468.360 7  23488126.898
                  23488130.109          39.400                          43.000
 123469087.337 7                  92200988.587 8  23495375.000
                  23495379.055          46.100                          50.100
 113490890.259 7                  84749701.028 7  21596596.594
                  21596598.004          42.800                          45.900
 134387648.719 6                 100354436.437 7  25573118.586
                  25573125.270          39.600                          43.500
 141617132.718 5                 105753085.033 5  26948840.547
                  26948844.711          32.000                          35.200
 114349442.126 7                  85390833.134 8  21759975.945
                  21759980.898          45.900                          48.700
 119723182.235 7                  89403725.497 7  22782556.367
                  22782561.828          44.700                          47.500
 19  7  9 10 31 23.0000000  0 21G06G29R24R08R02G30R22G13G07R01G15G02
                                R23G05E12E04E11E36E19E14E09
 121889721.516 5  94979109.63644  91021643.542 7  23194853.430
  23194863.867    23194864.051          35.300          25.100          45.800
 117217714.429 7  91338637.42544                  22305820.672
  22305826.992                          42.700          28.600
 107762919.504 6  83815567.082 5                  20152210.844    20152209.316
  20152213.055                          39.000          32.300
 110786558.868 6  86167352.308 7                  20688599.906    20688599.770
  20688603.484                          40.600          43.100
 123574669.648 5  96113640.728 5                  23157838.820    23157838.156
  23157844.305                          33.800          35.100
 122349944.695 6  95337616.37043  91365223.393 7  23282406.742
  23282414.902    23282415.258          37.000          22.800          45.600
 124639929.809 6  96942181.962 5                  23349258.102    23349256.902
  23349261.910                          36.800          35.500
 110635781.624 7  86209718.07645                  21053282.578
  21053288.496                          45.800          35.900
 127439249.342 6  99303248.92543                  24250858.359
  24250864.055                          37.700          19.000
 105262754.856 7  81871074.384 6                  19691566.398    19691565.230
  19691572.086                          42.700          40.100
 123026438.826 6  95864693.83543                  23411126.758
  23411133.652                          40.000          22.600
 108834032.233 7  84805780.02446                  20710420.414
  20710423.316                          45.300          39.400
 103601790.204 7  80579269.236 6                  19367254.727    19367254.137
  19367261.609                          47.200          39.900
 107638379.327 7  83874151.26746                  20482896.375
  20482902.324                          47.800          39.500
 123433427.344 6                  92174325.883 7  23488600.336
                  23488603.465          40.200                          43.000
 123469811.921 7                  92201529.663 8  23495512.828
                  23495516.965          46.100                          50.500
 113490942.539 7                  84749740.049 7  21596606.422
                  21596607.934          43.000                          46.100
 134385296.186 6                 100352679.658 7  25572670.914
                  25572677.438          39.800                          43.200
 141619639.920 5                 105754957.308 5  26949317.836
                  26949321.980          32.000                          34.900
 114354592.638 7                  85394679.283 8  21760956.180
                  21760961.043          45.700                          48.700
 119721517.202 7                  89402482.137 7  22782239.445
                  22782244.902          44.700                          47.800
 19  7  9 10 31 24.0000000  0 21G06G29R24R08R02G30R22G13G07R01G15G02
                                R23G05E12E04E11E36E19E14E09
 121892667.274 5  94981405.04544  91023843.288 7  23195414.078
  23195424.273    23195424.738          35.200          25.400          45.800
 117216609.796 7  91337776.67144                  22305610.172
  22305616.574                          42.800          28.900
 107760712.092 6  83813850.177 5                  20151798.898    20151796.691
  20151800.543                          38.900          33.200
 110789023.980 6  86169269.590 7                  20689061.453    20689059.840
  20689063.781                          40.800          43.200
 123571734.089 5  96111357.541 5                  23157287.805    23157287.801
  23157294.172                          33.400          35.100
 122348817.836 6  95336738.28944  91364381.925 7  23282191.477
  23282200.652    23282200.996          36.600          25.100          45.800
 124644296.197 6  96945578.031 6                  23350075.883    23350075.199
  23350079.789                          36.500          36.200
 110633434.754 7  86207889.34545                  21052835.578
  21052841.430                          45.800          35.900
 127439710.347 6  99303608.15143                  24250946.117
  24250951.754                          37.300          19.000
 105262588.617 7  81870945.098 6                  19691534.781    19691534.270
  19691540.832                          42.600          40.400
 123022904.099 6  95861939.47943                  23410454.508
  23410461.223                          39.600          22.500
 108834639.668 7  84806253.34546                  20710535.484
  20710538.863                          45.100          39.200
 103603443.994 7  80580555.518 6                  19367564.555    19367563.191
  19367570.770                          47.000          39.900
 107638404.551 7  83874170.92946                  20482901.352
  20482906.977                          47.500          39.700
 123435915.058 6                  92176183.618 7  23489073.758
                  23489076.676          40.100                          43.000
 123470536.767 7                  92202070.947 8  23495651.047
                  23495654.895          46.400                          50.500
 113490995.211 7                  84749779.402 7  21596616.563
                  21596618.055          43.100                          45.800
 134382943.846 6                 100350923.044 7  25572222.922
                  25572229.965          40.000                          43.100
 141622147.061 5                 105756829.570 5  26949794.633
                  26949799.172          31.100                          34.900
 114359743.667 7                  85398525.838 8  21761936.156
                  21761941.207          45.600                          48.800
 119719852.446 7                  89401238.969 7  22781922.688
                  22781928.156          44.700                          47.600
 19  7  9 10 31 25.0000000  0 21G06G29R24R08R02G30R22G13G07R01G15G02
                                R23G05E12E04E11E36E19E14E09
 121895613.309 6  94983700.65744  91026043.247 7  23195974.047
  23195984.961    23195985.266          36.000          25.100          46.000
 117215505.757 7  91336916.38344                  22305400.164
  22305406.117                          42.700          29.300
 107758505.404 6  83812133.823 5                  20151386.039    20151383.879
  20151387.824                          38.900          32.100
 110791489.259 6  86171187.033 7                  20689521.344    20689520.691
  20689524.320                          40.600          43.200
 123568798.772 5  96109074.469 5                  23156738.336    23156737.789
  23156743.863                          33.400          35.300
 122347691.494 6  95335860.61643  91363540.822 7  23281977.453
  23281986.066    23281986.656          36.900          23.800          45.900
 124648662.741 6  96948974.232 6                  23350892.938    23350892.418
  23350898.180                          36.700          36.500
 110631088.425 7  86206061.03045                  21052389.023
  21052395.566                          45.900          35.400
 127440171.901 6  99303967.82343                  24251033.055
  24251039.922                          36.800          19.000
 105262422.861 7  81870816.164 6                  19691504.203    19691503.480
  19691510.180                          42.900          40.400
 123019369.588 6  95859185.34643                  23409782.211
  23409788.281                          39.200          22.800
 108835247.538 7  84806727.01346                  20710651.102
  20710654.602                          45.200          39.300
 103605098.612 7  80581842.488 6                  19367873.766    19367872.473
  19367880.184                          46.700          40.000
 107638430.017 7  83874190.77446                  20482906.234
  20482911.836                          47.500          39.900
 123438403.084 6                  92178041.531 7  23489547.273
                  23489550.246          39.400                          43.000
 123471261.877 7                  92202612.424 8  23495788.984
                  23495792.871          46.700                          50.400
 113491048.340 7                  84749819.050 7  21596626.805
                  21596628.094          43.100                          46.000
 134380591.704 6                 100349166.565 7  25571775.289
                  25571782.344          40.000                          43.200
 141624654.337 5                 105758701.832 5  26950271.914
                  26950276.133          32.900                          35.300
 114364895.199 7                  85402372.763 8  21762916.398
                  21762921.543          45.800                          48.800
 119718187.947 7                  89399996.014 7  22781605.734
                  22781611.367          44.400                          47.700
 19  7  9 10 31 26.0000000  0 21G06G29R24R08R02G30R22G13G07R01G15G02
                                R23G05E12E04E11E36E19E14E09
 121898559.604 5  94985996.46444  91028243.404 7  23196534.977
  23196545.004    23196545.902          35.900          25.800          46.200
 117214402.365 7  91336056.59844                  22305190.336
  22305196.570                          43.400          29.000
 107756299.442 6  83810418.156 5                  20150972.398    20150971.719
  20150975.516                          39.200          32.500
 110793954.767 6  86173104.656 7                  20689981.539    20689980.559
  20689984.453                          40.400          43.200
 123565863.721 5  96106791.679 5                  23156189.102    23156187.711
  23156194.402                          33.800          35.200
 122346565.634 6  95334983.31844  91362700.094 7  23281763.641
  23281772.031    23281772.254          37.300          24.500          45.800
 124653029.503 6  96952370.617 6                  23351710.930    23351710.363
  23351716.137                          36.700          36.100
 110628742.570 7  86204233.09546                  21051942.578
  21051948.469                          46.000          36.200
 127440633.949 6  99304327.87143                  24251122.328
  24251127.516                          37.500          19.300
 105262257.549 7  81870687.593 6                  19691473.281    19691472.301
  19691479.129                          42.600          40.400
 123015835.315 6  95856431.38543                  23409109.609
  23409115.539                          39.500          22.000
 108835855.914 7  84807201.07046                  20710767.258
  20710770.371                          45.700          39.600
 103606754.080 7  80583130.044 6                  19368182.906    19368182.012
  19368189.813                          46.600          39.800
 107638455.757 7  83874210.83146                  20482910.961
  20482917.004                          47.300          39.900
 123440891.336 6                  92179899.658 7  23490020.797
                  23490023.738          39.200                          43.200
 123471987.264 7                  92203154.112 8  23495926.758
                  23495930.930          46.800                          50.200
 113491101.841 7                  84749859.014 7  21596636.859
                  21596638.352          43.200                          46.000
 134378239.730 6                 100347410.221 7  25571327.844
                  25571334.773          40.000                          43.300
 141627161.641 5                 105760574.148 5  26950749.102
                  26950753.336          32.800                          35.100
 114370047.250 7                  85406220.084 8  21763896.961
                  21763901.867          46.000                          48.900
 119716523.737 7                  89398753.247 7  22781289.008
                  22781294.637          44.500                          47.500
 19  7  9 10 31 27.0000000  0 21G06G29R24R08R02G30R22G13G07R01G15G02
                                R23G05E12E04E11E36E19E14E09
 121901506.208 5  94988292.50944  91030443.790 7  23197095.992
  23197106.035    23197106.594          35.700          24.900          46.200
 117213299.673 7  91335197.35544                  22304980.320
  22304986.270                          43.000          29.100
 107754094.299 6  83808703.028 5                  20150560.211    20150559.059
  20150562.961                          39.200          31.700
 110796420.511 6  86175022.462 7                  20690441.133    20690441.441
  20690445.086                          40.400          42.200
 123562928.994 5  96104509.086 5                  23155638.305    23155637.266
  23155644.285                          33.500          34.700
 122345440.306 6  95334106.45444  91361859.757 7  23281549.484
  23281557.941    23281558.332          37.200          24.900          46.000
 124657396.418 6  96955767.107 6                  23352531.164    23352528.742
  23352534.121                          36.400          36.100
 110626397.292 7  86202405.61245                  21051496.570
  21051502.281                          45.900          35.800
 127441096.637 6  99304688.42943                  24251210.008
  24251215.414                          37.000          18.600
 105262092.767 7  81870559.411 6                  19691442.219    19691441.332
  19691448.410                          42.400          39.800
 123012301.312 6  95853677.58543                  23408436.688
  23408443.230                          39.600          22.800
 108836464.792 7  84807675.51946                  20710882.969
  20710886.340                          45.600          39.400
 103608410.440 7  80584418.311 6                  19368492.406    19368491.840
  19368498.961                          46.800          39.700
 107638481.785 7  83874231.10746                  20482916.492
  20482921.504                          47.000          39.900
 123443379.891 6                  92181757.976 7  23490494.328
                  23490497.371          39.300                          43.300
 123472712.972 7                  92203696.023 8  23496064.859
                  23496069.043          46.700                          50.400
 113491155.830 7                  84749899.338 7  21596647.250
                  21596648.422          43.000                          46.000
 134375888.020 6                 100345654.085 7  25570880.078
                  25570887.129          40.000                          43.400
 141629668.912 5                 105762446.450 5  26951226.375
                  26951230.641          31.700                          34.900
 114375199.864 7                  85410067.804 8  21764877.672
                  21764882.527          45.600                          49.100
 119714859.816 7                  89397510.708 7  22780972.500
                  22780978.074          44.700                          47.300
 19  7  9 10 31 28.0000000  0 21G06G29R24R08R02G30R22G13G07R01G15G02
                                R23G05E12E04E11E36E19E14E09
 121904453.033 5  94990588.74744  91032644.360 7  23197657.172
  23197666.703    23197667.320          35.500          25.300          46.100
 117212197.589 7  91334338.58644                  22304770.539
  22304776.453                          42.900          29.600
 107751889.783 6  83806988.409 5                  20150147.633    20150147.023
  20150150.777                          39.100          32.100
 110798886.390 6  86176940.359 7                  20690903.070    20690901.832
  20690905.578                          40.100          42.700
 123559994.529 5  96102226.712 5                  23155089.055    23155087.711
  23155094.270                          33.600          34.600
 122344315.421 6  95333229.92544  91361019.741 7  23281335.367
  23281343.609    23281344.281          37.100          24.000          45.700
 124661763.493 6  96959163.699 6                  23353348.961    23353347.055
  23353352.297                          36.500          36.100
 110624052.456 7  86200578.46546                  21051050.172
  21051056.207                          45.600          36.000
 127441559.762 6  99305049.30643                  24251297.758
  24251303.984                          37.400          18.600
 105261928.364 7  81870431.558 6                  19691411.891    19691410.746
  19691417.555                          42.500          40.000
 123008767.514 6  95850923.98243                  23407764.414
  23407771.148                          39.400          22.600
 108837074.104 7  84808150.31146                  20710999.281
  20711002.535                          45.200          39.300
 103610067.569 7  80585707.194 6                  19368802.336    19368801.371
  19368809.168                          46.900          39.700
 107638508.067 7  83874251.59346                  20482921.133
  20482926.797                          47.000          39.900
 123445868.640 6                  92183616.474 7  23490968.047
                  23490970.801          39.400                          42.700
 123473438.904 7                  92204238.116 8  23496203.063
                  23496207.141          46.200                          50.700
 113491210.214 7                  84749939.939 7  21596657.500
                  21596658.988          42.700                          45.800
 134373536.471 6                 100343898.067 7  25570432.992
                  25570439.789          40.200                          43.700
 141632176.171 5                 105764318.776 5  26951702.703
                  26951707.625          31.300                          34.400
 114380352.927 7                  85413915.882 8  21765858.234
                  21765863.051          45.600                          48.800
 119713196.102 7                  89396268.335 7  22780655.961
                  22780661.395          44.500                          47.400
 19  7  9 10 31 29.0000000  0 21G06G29R24R08R02G30R22G13G07R01G15G02
                                R23G05E12E04E11E36E19E14E09
 121907400.190 6  94992885.22544  91034845.128 7  23198217.805
  23198227.891    23198228.113          36.200          24.700          46.100
 117211096.152 7  91333480.32244                  22304561.523
  22304567.367                          43.200          29.500
 107749686.013 6  83805274.356 5                  20149735.117    20149735.164
  20149738.652                          38.800          31.700
 110801352.524 6  86178858.429 7                  20691364.273    20691362.309
  20691365.926                          40.400          42.600
 123557060.335 5  96099944.637 5                  23154539.695    23154538.141
  23154544.477                          34.100          34.900
 122343191.047 6  95332353.78843  91360180.115 7  23281121.195
  23281130.098    23281130.230          37.000          23.200          45.800
 124666130.758 6  96962560.430 6                  23354167.070    23354165.305
  23354170.375                          36.600          36.400
 110621708.157 7  86198751.73046                  21050604.203
  21050609.688                          45.700          36.300
 127442023.445 6  99305410.61243                  24251385.758
  24251391.758                          37.300          18.600
 105261764.472 7  81870304.071 6                  19691381.156    19691379.895
  19691386.828                          42.600          40.200
 123005233.962 6  95848170.56743                  23407091.789
  23407098.469                          39.900          22.900
 108837683.925 7  84808625.48646                  20711114.859
  20711118.297                          45.500          39.700
 103611725.566 7  80586996.737 6                  19369112.961    19369111.574
  19369118.871                          47.300          39.600
 107638534.611 7  83874272.27546                  20482926.117
  20482932.168                          47.000          40.400
 123448357.672 6                  92185475.161 7  23491441.703
                  23491444.426          39.600                          43.100
 123474165.109 7                  92204780.429 8  23496341.305
                  23496345.348          46.700                          50.400
 113491265.048 7                  84749980.878 7  21596667.742
                  21596669.320          42.400                          45.800
 134371185.136 6                 100342142.192 7  25569985.602
                  25569992.504          40.200                          43.800
 141634683.497 5                 105766191.119 5  26952180.383
                  26952184.680          32.000                          34.600
 114385506.528 7                  85417764.344 8  21766838.742
                  21766843.711          45.800                          48.800
 119711532.699 7                  89395026.177 7  22780339.305
                  22780344.906          45.000                          47.800
 19  7  9 10 31 30.0000000  0 21G06G29R24R08R02G30R22G13G07R01G15G02
                                R23G05E12E04E11E36E19E14E09
 121910347.608 5  94995181.90044  91037046.123 7  23198779.578
  23198788.500    23198788.980          35.500          25.200          46.100
 117209995.386 7  91332622.58344                  22304351.813
  22304357.871                          42.900          28.500
 107747483.032 6  83803560.954 5                  20149323.063    20149322.664
  20149326.418                          38.600          31.200
 110803818.848 6  86180776.721 7                  20691824.938    20691822.879
  20691826.609                          40.600          42.800
 123554126.500 5  96097662.725 5                  23153989.688    23153988.438
  23153994.867                          34.300          35.400
 122342067.164 6  95331478.01743  91359340.849 7  23280907.961
  23280915.914    23280916.535          37.100          22.600          45.600
 124670498.169 6  96965957.368 5                  23354984.609    23354983.172
  23354988.875                          36.400          35.600
 110619364.393 7  86196925.42646                  21050158.578
  21050164.219                          45.800          36.700
 127442487.672 6  99305772.33843                  24251474.063
  24251480.191                          37.100          18.300
 105261601.086 7  81870176.996 6                  19691350.195    19691349.262
  19691356.188                          42.400          40.700
 123001700.627 6  95845417.31843                  23406419.172
  23406426.250                          39.900          22.600
 108838294.255 7  84809101.07646                  20711231.102
  20711234.406                          45.400          39.200
 103613384.430 7  80588286.996 6                  19369422.133    19369421.613
  19369429.078                          46.600          39.600
 107638561.427 7  83874293.17146                  20482931.836
  20482937.090                          46.800          39.900
 123450846.967 6                  92187334.039 7  23491915.273
                  23491918.188          38.900                          42.900
 123474891.611 7                  92205322.938 8  23496479.391
                  23496483.445          46.600                          50.300
 113491320.280 7                  84750022.142 7  21596678.438
                  21596679.855          42.600                          46.000
 134368833.987 6                 100340386.478 7  25569538.422
                  25569545.121          40.200                          43.600
 141637190.769 5                 105768063.475 5  26952657.242
                  26952661.910          31.700                          34.900
 114390660.668 7                  85421613.204 8  21767819.633
                  21767824.633          45.900                          48.700
 119709869.565 7                  89393784.229 7  22780022.852
                  22780028.352          44.500                          47.600
 19  7  9 10 31 31.0000000  0 21G06G29R24R08R02G30R22G13G07R01G15G02
                                R23G05E12E04E11E36E19E14E09
 121913295.256 6  94997478.78243  91039247.299 7  23199340.320
  23199349.840    23199349.719          36.100          23.500          46.000
 117208895.242 7  91331765.33244                  22304142.352
  22304148.848                          43.000          29.300
 107745280.762 6  83801848.031 5                  20148911.695    20148910.332
  20148914.758                          39.000          31.900
 110806285.401 6  86182695.124 7                  20692284.250    20692283.363
  20692287.070                          40.800          42.400
 123551192.779 5  96095380.952 5                  23153438.797    23153438.840
  23153445.016                          34.700          35.200
 122340943.753 6  95330602.63943  91358501.948 7  23280693.602
  23280702.020    23280702.758          37.600          22.800          45.600
 124674865.769 6  96969354.358 5                  23355802.492    23355801.598
  23355806.961                          36.800          35.800
 110617021.088 7  86195099.47846                  21049712.250
  21049718.098                          45.800          36.300
 127442952.457 6  99306134.46843                  24251562.148
  24251569.012                          36.800          18.300
 105261438.131 7  81870050.266 6                  19691319.906    19691319.113
  19691325.629                          42.400          41.000
 122998167.528 6  95842664.26244                  23405747.867
  23405753.828                          39.900          24.300
 108838905.032 7  84809577.00146                  20711347.453
  20711350.887                          45.300          39.600
 103615044.128 7  80589577.843 6                  19369732.867    19369731.949
  19369739.414                          46.700          39.900
 107638588.503 7  83874314.26846                  20482936.297
  20482942.047                          46.700          40.200
 123453336.507 6                  92189193.122 7  23492389.063
                  23492391.902          39.000                          42.200
 123475618.363 7                  92205865.650 8  23496617.852
                  23496621.859          46.300                          50.400
 113491375.943 7                  84750063.698 7  21596688.805
                  21596690.473          42.700                          46.100
 134366483.031 6                 100338630.896 7  25569090.773
                  25569097.832          40.400                          43.800
 141639698.134 5                 105769935.798 5  26953134.375
                  26953138.945          31.800                          34.800
 114395815.270 7                  85425462.425 8  21768800.641
                  21768805.449          45.300                          48.800
 119708206.676 7                  89392542.457 7  22779706.453
                  22779711.965          44.800                          47.500
 19  7  9 10 31 32.0000000  0 21G06G29R24R08R02G30R22G13G07R01G15G02
                                R23G05E12E04E11E36E19E14E09
 121916243.219 6  94999775.89844  91041448.690 7  23199900.531
  23199910.402    23199910.859          36.000          25.300          46.000
 117207795.757 7  91330908.59144                  22303933.297
  22303939.324                          42.000          29.100
 107743079.197 6  83800135.721 5                  20148500.180    20148499.051
  20148503.309                          39.200          31.900
 110808752.124 6  86184613.718 7                  20692744.914    20692743.793
  20692747.504                          40.700          42.000
 123548259.418 5  96093099.431 5                  23152890.039    23152889.234
  23152895.363                          34.900          35.200
 122339820.875 6  95329727.67544  91357663.409 7  23280480.000
  23280488.855    23280488.949          37.900          24.600          45.600
 124679233.555 6  96972751.557 5                  23356619.672    23356619.832
  23356625.555                          36.500          35.900
 110614678.317 7  86193273.93846                  21049266.578
  21049272.160                          46.000          36.000
 127443417.718 6  99306497.01043                  24251650.117
  24251657.441                          36.800          19.300
 105261275.658 7  81869923.911 6                  19691289.086    19691288.363
  19691295.137                          42.600          41.300
 122994634.674 6  95839911.40043                  23405074.766
  23405081.305                          40.500          22.800
 108839516.306 7  84810053.31846                  20711463.648
  20711467.445                          45.400          39.900
 103616704.693 7  80590869.391 6                  19370043.500    19370042.301
  19370049.742                          46.700          39.900
 107638615.861 7  83874335.58546                  20482941.914
  20482947.414                          46.600          40.000
 123455826.293 6                  92191052.369 7  23492863.055
                  23492865.613          39.300                          42.600
 123476345.401 7                  92206408.565 8  23496756.063
                  23496760.309          46.200                          50.700
 113491432.023 7                  84750105.579 7  21596699.617
                  21596701.102          42.600                          45.900
 134364132.304 6                 100336875.489 7  25568643.750
                  25568650.285          40.600                          43.700
 141642205.388 5                 105771808.145 5  26953611.617
                  26953615.793          32.300                          35.200
 114400970.407 7                  85429312.051 8  21769781.469
                  21769786.492          45.600                          48.600
 119706544.055 7                  89391300.908 7  22779389.945
                  22779395.613          44.900                          47.300
 19  7  9 10 31 33.0000000  0 21G06G29R24R08R02G30R22G13G07R01G15G02
                                R23G05E12E04E11E36E19E14E09
 121919191.423 6  95002073.19744  91043650.277 7  23200461.969
  23200471.504    23200471.773          36.200          25.700          45.800
 117206696.901 7  91330052.35044                  22303724.125
  22303730.383                          42.000          28.700
 107740878.368 6  83798423.963 5                  20148088.234    20148087.480
  20148091.418                          39.200          32.200
 110811219.050 6  86186532.427 7                  20693205.672    20693204.645
  20693208.461                          40.700          42.000
 123545326.313 5  96090818.132 5                  23152339.484    23152340.184
  23152345.699                          35.200          35.000
 122338698.447 6  95328853.05243  91356825.234 7  23280266.641
  23280274.664    23280275.523          38.100          22.500          45.700
 124683601.497 6  96976148.847 6                  23357438.883    23357438.363
  23357443.609                          36.500          36.200
 110612336.071 7  86191448.81146                  21048820.578
  21048826.945                          45.300          36.000
 127443883.517 6  99306859.98543                  24251738.352
  24251745.609                          36.200          19.300
 105261113.684 7  81869797.905 6                  19691259.680    19691258.066
  19691265.043                          43.000          41.300
 122991102.041 6  95837158.71044                  23404402.406
  23404409.094                          40.800          24.300
 108840128.066 7  84810530.01146                  20711579.805
  20711583.285                          45.200          39.400
 103618366.081 7  80592161.604 6                  19370353.672    19370352.848
  19370360.188                          47.000          40.100
 107638643.496 7  83874357.12346                  20482946.977
  20482952.707                          46.400          40.000
 123458316.372 6                  92192911.835 7  23493336.758
                  23493339.504          38.800                          42.600
 123477072.703 7                  92206951.684 8  23496894.484
                  23496898.656          46.100                          50.500
 113491488.543 7                  84750147.783 7  21596710.625
                  21596711.988          43.200                          45.900
 134361781.779 6                 100335120.219 7  25568196.367
                  25568202.867          40.400                          43.700
 141644712.755 5                 105773680.480 5  26954088.836
                  26954093.438          32.200                          35.200
 114406126.060 7                  85433162.053 8  21770762.469
                  21770767.527          45.500                          48.800
 119704881.716 7                  89390059.542 7  22779073.516
                  22779079.113          44.500                          47.300
 19  7  9 10 31 34.0000000  0 21G06G29R24R08R02G30R22G13G07R01G15G02
                                R23G05E12E04E11E36E19E14E09
 121922139.949 6  95004370.76144  91045852.083 7  23201022.336
  23201032.629    23201032.813          36.100          25.800          45.700
 117205598.732 6  91329196.62944                  22303514.711
  22303521.504                          41.800          29.600
 107738678.286 6  83796712.815 5                  20147677.273    20147676.496
  20147679.930                          39.400          32.000
 110813686.132 6  86188451.267 7                  20693666.391    20693665.574
  20693669.293                          40.700          42.200
 123542393.523 5  96088537.078 5                  23151791.281    23151790.430
  23151796.148                          34.700          35.000
 122337576.508 6  95327978.82544  91355987.442 7  23280053.023
  23280061.660    23280062.082          37.800          24.000          45.800
 124687969.664 6  96979546.282 6                  23358256.594    23358256.379
  23358262.223                          36.300          36.700
 110609994.330 7  86189624.08346                  21048375.500
  21048381.242                          45.500          36.000
 127444349.931 5  99307223.44543                  24251828.141
  24251834.402                          35.400          19.300
 105260952.165 7  81869672.293 6                  19691229.313    19691227.676
  19691234.930                          43.000          40.900
 122987569.684 6  95834406.20743                  23403729.820
  23403736.984                          40.300          23.000
 108840740.287 7  84811007.06646                  20711696.453
  20711700.086                          45.300          39.800
 103620028.324 7  80593454.445 6                  19370664.617    19370663.488
  19370671.008                          47.300          40.000
 107638671.383 7  83874378.85146                  20482951.852
  20482957.250                          46.400          40.200
 123460806.649 6                  92194771.477 7  23493810.938
                  23493813.605          38.800                          42.600
 123477800.311 7                  92207495.015 8  23497032.867
                  23497037.102          46.100                          50.400
 113491545.486 7                  84750190.297 7  21596721.172
                  21596722.609          42.800                          45.900
 134359431.428 6                 100333365.100 7  25567749.148
                  25567755.703          39.900                          43.900
 141647220.046 5                 105775552.866 5  26954566.148
                  26954570.402          31.700                          35.400
 114411282.233 7                  85437012.433 8  21771743.875
                  21771748.750          45.500                          48.300
 119703219.655 7                  89388818.388 7  22778757.547
                  22778762.973          44.600                          47.500
 19  7  9 10 31 35.0000000  0 21G06G29R24R08R02G30R22G13G07R01G15G02
                                R23G05E12E04E11E36E19E14E09
 121925088.700 6  95006668.47244  91048054.103 7  23201584.211
  23201593.801    23201593.820          36.000          26.000          45.800
 117204501.217 6  91328341.41544                  22303306.070
  22303312.309                          41.700          28.700
 107736478.908 6  83795002.185 5                  20147264.844    20147265.078
  20147268.703                          39.400          32.200
 110816153.445 6  86190370.285 7                  20694127.727    20694126.254
  20694129.684                          40.600          42.400
 123539460.980 5  96086256.245 5                  23151241.813    23151241.195
  23151246.398                          34.800          34.600
 122336455.064 6  95327104.97544  91355149.999 7  23279839.695
  23279847.695    23279848.469          38.000          24.100          45.400
 124692337.962 6  96982943.860 6                  23359075.500    23359074.746
  23359080.348                          36.100          36.300
 110607653.060 7  86187799.71945                  21047929.500
  21047935.500                          45.500          35.300
 127444816.853 5  99307587.25643                  24251916.969
  24251923.207                          35.500          18.600
 105260791.096 7  81869547.022 6                  19691198.289    19691197.754
  19691204.668                          43.100          40.700
 122984037.500 6  95831653.86743                  23403058.680
  23403065.043                          40.200          22.600
 108841353.031 7  84811484.53046                  20711813.039
  20711816.336                          45.700          40.000
 103621691.388 7  80594747.937 6                  19370975.914    19370974.363
  19370982.113                          47.000          40.100
 107638699.540 7  83874400.79446                  20482957.266
  20482963.277                          46.700          39.900
 123463297.244 6                  92196631.327 7  23494284.492
                  23494287.445          39.000                          42.800
 123478528.142 7                  92208038.541 8  23497171.461
                  23497175.625          46.100                          50.500
 113491602.841 7                  84750233.132 7  21596732.234
                  21596733.605          42.700                          45.800
 134357081.312 6                 100331610.128 7  25567301.508
                  25567308.617          40.000                          43.900
 141649727.436 5                 105777425.242 5  26955043.445
                  26955047.617          31.300                          35.200
 114416438.898 7                  85440863.192 8  21772724.867
                  21772729.961          45.600                          48.300
 119701557.853 7                  89387577.438 7  22778441.148
                  22778446.730          44.900                          47.500
 19  7  9 10 31 36.0000000  0 21G06G29R24R08R02G30R22G13G07R01G15G02
                                R23G05E12E04E11E36E19E14E09
 121928037.730 6  95008966.42244  91050256.294 7  23202144.914
  23202154.977    23202155.223          36.000          25.200          45.700
 117203404.298 7  91327486.67944                  22303096.664
  22303104.008                          42.200          29.100
 107734280.297 6  83793292.164 5                  20146854.406    20146853.844
  20146857.301                          39.400          32.200
 110818620.968 6  86192289.475 7                  20694588.773    20694587.137
  20694590.730                          40.600          42.800
 123536528.744 5  96083975.614 5                  23150692.641    23150691.484
  23150697.051                          34.600          34.600
 122335334.083 6  95326231.49243  91354312.935 7  23279626.211
  23279634.973    23279635.266          37.500          22.500          45.500
 124696706.417 6  96986341.555 6                  23359894.250    23359892.930
  23359898.535                          36.000          36.300
 110605312.312 7  86185975.76045                  21047484.109
  21047490.129                          45.800          35.700
 127445284.258 5  99307951.44843                  24252006.031
  24252011.633                          35.800          18.600
 105260630.522 7  81869422.109 6                  19691168.336    19691167.590
  19691174.535                          42.900          40.400
 122980505.574 6  95828901.70943                  23402386.609
  23402392.836                          40.100          23.000
 108841966.207 7  84811962.33046                  20711929.594
  20711933.457                          46.000          39.900
 103623355.257 7  80596042.062 6                  19371286.531    19371285.520
  19371292.863                          46.700          39.600
 107638727.950 7  83874422.93246                  20482962.867
  20482969.129                          47.400          40.100
 123465788.018 6                  92198491.338 7  23494758.484
                  23494761.395          39.000                          42.700
 123479256.285 7                  92208582.268 8  23497310.047
                  23497314.184          45.900                          50.500
 113491660.629 7                  84750276.293 7  21596743.258
                  21596744.586          42.700                          45.900
 134354731.365 6                 100329855.295 7  25566854.797
                  25566861.391          39.400                          44.000
 141652234.795 5                 105779297.633 5  26955520.578
                  26955524.824          31.700                          35.200
 114421596.094 7                  85444714.337 8  21773706.289
                  21773711.449          45.500                          48.500
 119699896.300 7                  89386336.659 7  22778124.727
                  22778130.645          44.800                          47.500
 19  7  9 10 31 37.0000000  0 21G06G29R24R08R02G30R22G13G07R01G15G02
                                R23G05E12E04E11E36E19E14E09
 121930987.073 6  95011264.61644  91052458.704 7  23202706.008
  23202716.117    23202716.266          36.100          25.300          45.400
 117202308.051 7  91326632.45644                  22302888.539
  22302895.320                          42.300          28.700
 107732082.462 6  83791582.708 5                  20146444.633    20146443.059
  20146446.742                          39.200          32.200
 110821088.710 6  86194208.825 6                  20695048.578    20695047.996
  20695051.582                          40.800          41.900
 123533596.782 5  96081695.189 5                  23150142.320    23150141.844
  23150147.582                          34.900          34.600
 122334213.652 6  95325358.43344  91353476.230 7  23279412.648
  23279421.699    23279421.852          37.600          24.600          45.700
 124701075.058 5  96989739.402 6                  23360713.633    23360711.094
  23360717.125                          35.700          36.000
 110602972.094 7  86184152.21145                  21047039.031
  21047044.801                          46.400          35.500
 127445752.207 6  99308316.11043                  24252095.266
  24252100.867                          36.300          19.600
 105260470.365 7  81869297.577 6                  19691138.867    19691137.957
  19691144.563                          42.600          39.300
 122976973.877 6  95826149.74543                  23401713.922
  23401721.047                          40.000          23.300
 108842579.892 7  84812440.52746                  20712046.664
  20712049.863                          46.400          39.200
 103625020.008 7  80597336.864 6                  19371598.117    19371596.824
  19371604.074                          46.900          39.400
 107638756.653 7  83874445.29546                  20482968.461
  20482974.168                          47.600          39.400
 123468279.149 6                  92200351.567 7  23495232.531
                  23495235.340          39.100                          42.900
 123479984.687 7                  92209126.213 8  23497448.633
                  23497452.777          46.000                          50.300
 113491718.829 7                  84750319.763 7  21596754.359
                  21596755.668          43.000                          46.000
 134352381.614 6                 100328100.633 7  25566407.617
                  25566414.242          39.700                          44.100
 141654742.181 5                 105781169.997 5  26955997.328
                  26956001.949          32.300                          35.000
 114426753.783 7                  85448565.851 8  21774687.961
                  21774692.852          45.200                          48.700
 119698235.038 7                  89385096.108 7  22777808.695
                  22777814.465          44.800                          47.600
 19  7  9 10 31 38.0000000  0 21G06G29R24R08R02G30R22G13G07R01G15G02
                                R23G05E12E04E11E36E19E14E09
 121933936.639 6  95013562.97244  91054661.333 7  23203267.430
  23203277.430    23203277.336          36.100          25.200          45.200
 117201212.461 6  91325778.75044                  22302679.984
  22302687.016                          41.800          28.500
 107729885.338 6  83789873.794 5                  20146033.672    20146031.934
  20146036.070                          39.200          32.400
 110823556.637 6  86196128.342 7                  20695508.984    20695508.754
  20695512.504                          40.700          42.400
 123530665.091 5  96079414.943 5                  23149592.344    23149592.012
  23149598.133                          35.000          34.800
 122333093.679 6  95324485.70443  91352639.882 7  23279199.766
  23279208.191    23279208.590          37.500          23.300          45.700
 124705443.905 6  96993137.353 6                  23361530.992    23361529.578
  23361535.301                          36.300          36.100
 110600632.367 7  86182329.04646                  21046593.859
  21046599.664                          46.100          36.300
 127446220.756 6  99308681.22243                  24252184.875
  24252190.480                          36.300          18.600
 105260310.703 7  81869173.387 6                  19691108.867    19691107.980
  19691114.879                          42.600          39.900
 122973442.430 6  95823397.98143                  23401042.188
  23401048.871                          39.900          22.600
 108843194.054 7  84812919.09346                  20712163.680
  20712166.910                          45.900          39.500
 103626685.594 7  80598632.317 6                  19371908.891    19371908.113
  19371915.688                          46.600          39.900
 107638785.601 7  83874467.85546                  20482974.133
  20482979.754                          47.700          39.800
 123470770.443 6                  92202211.970 7  23495706.523
                  23495709.594          39.600                          42.600
 123480713.350 7                  92209670.349 8  23497587.406
                  23497591.332          46.100                          50.600
 113491777.495 7                  84750363.555 7  21596765.445
                  21596766.750          43.200                          46.000
 134350032.090 6                 100326346.111 7  25565960.438
                  25565967.203          39.900                          43.900
 141657249.540 5                 105783042.401 5  26956474.344
                  26956478.957          32.000                          35.000
 114431911.978 7                  85452417.776 8  21775669.531
                  21775674.242          44.900                          48.200
 119696574.029 7                  89383855.760 7  22777492.703
                  22777498.387          44.400                          47.800
