     2.11           OBSERVATION DATA    M (MIXED)           RINEX VERSION / TYPE
teqc  2016Nov7      KASI/KOREA          20190709 11:02:58UTCPGM / RUN BY / DATE
Linux 2.4.20-8|Pentium IV|gcc|Linux|486/DX+                 COMMENT
  0.0000      (antenna height)                              COMMENT
 +36.39942714 (latitude)                                    COMMENT
+127.37448264 (longitude)                                   COMMENT
0116.859      (elevation)                                   COMMENT
BIT 2 OF LLI FLAGS DATA COLLECTED UNDER A/S CONDITION       COMMENT
23902M002 (COGO code)                                       COMMENT
DAEJ                                                        MARKER NAME
23902M002                                                   MARKER NUMBER
KASI GPS            KASI/KOREA                              OBSERVER / AGENCY
5412K48145          TRIMBLE NETR9       5.20                REC # / TYPE / VERS
4923363230          TRM59800.00     SCIS                    ANT # / TYPE
 -3120041.3117  4084615.3452  3764026.4391                  APPROX POSITION XYZ
        0.0000        0.0000        0.0000                  ANTENNA: DELTA H/E/N
     1     1                                                WAVELENGTH FACT L1/2
    10    L1    L2    L5    C1    P1    P2    C5    S1    S2# / TYPES OF OBSERV
          S5                                                # / TYPES OF OBSERV
    18                                                      LEAP SECONDS
 SNR is mapped to RINEX snr flag value [0-9]                COMMENT
  L1 & L2: min(max(int(snr_dBHz/6), 0), 9)                  COMMENT
  2019     7     9    10    45    0.0000000     GPS         TIME OF FIRST OBS
                                                            END OF HEADER
 19  7  9 10 45  0.0000000  0 21G06G29R24R08R02G30G13G07R01G15G02R17
                                R23G05E12E04E11E36E19E14E09
 124383952.589 5  96922666.22143  92884218.689 7  23669489.063
  23669500.027    23669501.105          31.000          19.900          45.600
 116534272.396 7  90806085.10445                  22175765.414
  22175772.695                          43.000          30.800
 106215232.339 6  82611810.409 5                  19862785.430    19862784.750
  19862787.973                          39.400          32.800
 112861089.048 6  87780875.613 6                  21076004.773    21076003.301
  21076007.637                          38.800          41.700
 121269846.354 6  94321001.017 6                  22725916.781    22725914.477
  22725922.113                          36.000          37.300
 121598610.870 6  94752161.90344  90804162.972 7  23139431.195
  23139440.496    23139440.969          37.300          24.800          46.800
 108893247.938 7  84851900.09546                  20721688.766
  20721694.551                          45.100          37.700
 127994099.059 5  99735599.59442                  24356442.258
  24356448.617                          35.700          17.800
 105278302.049 7  81883167.044 6                  19694474.820    19694473.277
  19694480.031                          42.500          40.000
 120222785.223 7  93680029.22744                  22877608.836
  22877615.484                          42.400          26.900
 109492890.118 7  85319175.57646                  20835796.750
  20835800.336                          44.900          39.000
 123915111.438 5  96378413.769 5                  23156501.336    23156501.055
  23156505.648                          33.300          35.600
 105228039.731 7  81844129.686 6                  19671265.484    19671264.965
  19671272.379                          46.100          39.800
 107747462.973 7  83959151.48846                  20503654.281
  20503660.168                          47.100          39.500
 125547863.251 6                  93753287.502 6  23890964.055
                  23890967.527          37.900                          41.300
 124149444.102 7                  92709047.350 8  23624842.500
                  23624846.742          46.600                          50.700
 113677271.093 7                  84888881.403 7  21632063.844
                  21632065.277          43.000                          46.100
 132535994.316 6                  98971707.819 7  25220759.688
                  25220766.332          41.100                          45.200
 143668582.772 5                 107285010.901 5  27339218.555
                  27339223.992          31.800                          35.000
 118713075.522 7                  88649390.215 7  22590347.945
                  22590353.434          43.800                          47.800
 118450776.570 7                  88453552.757 8  22540425.375
                  22540431.066          44.900                          48.600
 19  7  9 10 45  1.0000000  0 21G06G29R24R08R02G30G13G07R01G15G02R17
                                R23G05E12E04E11E36E19E14E09
 124387107.831 5  96925124.88443  92886574.923 7  23670088.813
  23670100.488    23670101.555          31.500          20.600          45.500
 116533707.630 7  90805645.03245                  22175657.969
  22175665.539                          43.400          30.500
 106213664.925 6  82610591.322 5                  19862492.141    19862491.719
  19862494.992                          39.200          33.200
 112863693.272 6  87782901.137 6                  21076490.602    21076489.551
  21076494.039                          38.600          41.700
 121267141.833 5  94318897.497 6                  22725409.070    22725407.750
  22725415.262                          35.800          37.400
 121597905.984 6  94751612.62144  90803636.622 7  23139297.930
  23139306.426    23139307.000          37.100          25.300          46.200
 108891335.625 7  84850409.97946                  20721324.969
  20721330.570                          45.200          37.300
 127994995.895 6  99736298.40742                  24356613.344
  24356619.145                          36.200          17.400
 105278499.946 7  81883320.967 6                  19694511.539    19694510.324
  19694516.715                          42.600          40.000
 120219464.391 7  93677441.56444                  22876977.094
  22876983.516                          42.400          25.600
 109493897.875 7  85319960.83746                  20835988.555
  20835992.316                          44.800          38.600
 123911028.798 5  96375238.391 6                  23155738.016    23155737.734
  23155742.941                          32.900          36.000
 105230359.405 7  81845933.869 6                  19671699.398    19671698.434
  19671705.664                          46.400          39.600
 107747703.715 7  83959339.07946                  20503700.344
  20503706.152                          47.000          40.000
 125550547.171 6                  93755291.728 6  23891474.883
                  23891478.617          37.900                          41.400
 124150378.478 7                  92709745.089 8  23625020.039
                  23625024.469          46.600                          50.300
 113677676.768 7                  84889184.364 7  21632141.156
                  21632142.578          42.300                          46.000
 132533826.854 6                  98970089.259 7  25220347.242
                  25220353.922          41.300                          45.000
 143671087.351 5                 107286881.234 5  27339695.039
                  27339700.723          32.200                          34.700
 118718568.966 7                  88653492.452 7  22591393.297
                  22591398.863          43.700                          47.700
 118449330.664 7                  88452473.015 8  22540150.102
                  22540155.875          45.100                          48.400
 19  7  9 10 45  2.0000000  0 21G06G29R24R08R02G30G13G07R01G15G02R17
                                R23G05E12E04E11E36E19E14E09
 124390263.374 5  96927583.73743  92888931.325 7  23670689.633
  23670700.199    23670702.250          30.500          20.400          45.400
 116533143.568 7  90805205.50245                  22175551.250
  22175558.336                          43.400          30.400
 106212098.383 6  82609372.841 5                  19862199.711    19862198.582
  19862201.816                          39.200          32.600
 112866297.674 6  87784926.757 6                  21076977.516    21076975.832
  21076980.105                          38.400          41.700
 121264437.618 5  94316794.205 6                  22724903.281    22724900.555
  22724908.559                          35.500          37.200
 121597201.721 6  94751063.84744  90803110.677 7  23139163.609
  23139172.629    23139172.781          37.000          25.300          46.400
 108889423.879 7  84848920.30846                  20720961.344
  20720967.293                          45.400          37.700
 127995893.259 6  99736997.66342                  24356784.039
  24356790.035                          36.000          17.400
 105278698.273 7  81883475.234 6                  19694548.586    19694547.465
  19694553.883                          42.500          40.300
 120216143.872 6  93674854.15144                  22876345.227
  22876351.387                          41.600          26.600
 109494906.152 7  85320746.50646                  20836180.250
  20836183.848                          44.500          38.800
 123906946.423 5  96372063.224 6                  23154975.797    23154974.602
  23154979.801                          32.600          36.400
 105232679.861 7  81847738.664 6                  19672133.734    19672132.230
  19672139.672                          46.300          39.800
 107747944.747 7  83959526.89846                  20503745.969
  20503751.793                          47.200          40.300
 125553231.362 6                  93757296.164 6  23891985.930
                  23891989.180          37.700                          41.700
 124151313.101 7                  92710443.034 8  23625198.148
                  23625202.293          46.400                          50.200
 113678082.941 7                  84889487.649 7  21632218.063
                  21632219.863          42.700                          46.200
 132531659.634 6                  98968470.888 7  25219934.953
                  25219941.527          41.600                          44.800
 143673591.996 5                 107288751.541 5  27340171.688
                  27340177.199          31.300                          34.500
 118724062.759 7                  88657594.959 7  22592438.836
                  22592444.203          44.100                          47.700
 118447885.039 7                  88451393.494 8  22539874.938
                  22539880.824          45.100                          48.300
 19  7  9 10 45  3.0000000  0 21G06G29R24R08R02G30G13G07R01G15G02R17
                                R23G05E12E04E11E36E19E14E09
 124393419.180 5  96930042.80643  92891287.912 7  23671289.938
  23671301.094    23671302.688          31.300          21.300          45.800
 116532580.164 7  90804766.48645                  22175443.500
  22175450.887                          43.500          31.200
 106210532.700 6  82608155.109 5                  19861906.000    19861905.695
  19861909.266                          39.200          32.900
 112868902.179 6  87786952.478 6                  21077462.656    21077462.379
  21077466.629                          38.300          41.900
 121261733.685 5  94314691.131 6                  22724394.398    22724394.090
  22724401.641                          35.700          37.300
 121596497.985 6  94750515.50344  90802585.169 7  23139028.633
  23139038.410    23139038.953          37.000          24.700          46.200
 108887512.696 7  84847431.08346                  20720597.930
  20720603.289                          45.300          37.400
 127996791.184 6  99737697.35442                  24356955.078
  24356960.715                          36.000          16.900
 105278897.062 7  81883629.841 6                  19694585.336    19694584.730
  19694590.965                          42.100          39.900
 120212823.641 6  93672266.95944                  22875713.750
  22875719.781                          41.400          27.700
 109495914.911 7  85321532.55346                  20836371.813
  20836375.793                          44.600          39.200
 123902864.303 5  96368888.223 6                  23154211.875    23154211.008
  23154217.086                          33.100          36.300
 105235001.114 7  81849544.118 6                  19672567.211    19672566.223
  19672573.465                          46.800          39.500
 107748186.007 7  83959714.88946                  20503792.109
  20503797.918                          47.200          40.400
 125555915.764 6                  93759300.767 6  23892496.914
                  23892499.859          38.500                          41.700
 124152247.972 7                  92711141.150 8  23625376.047
                  23625380.242          47.000                          50.500
 113678489.534 7                  84889791.292 7  21632295.648
                  21632297.160          42.500                          46.000
 132529492.715 6                  98966852.726 7  25219522.648
                  25219529.270          41.600                          45.100
 143676096.593 5                 107290621.833 5  27340648.727
                  27340653.699          31.300                          34.600
 118729556.857 7                  88661697.712 7  22593484.461
                  22593489.785          43.500                          47.600
 118446439.681 7                  88450314.175 8  22539600.000
                  22539605.695          45.500                          48.200
 19  7  9 10 45  4.0000000  0 21G06G29R24R08R02G30G13G07R01G15G02R17
                                R23G05E12E04E11E36E19E14E09
 124396575.233 5  96932502.08743  92893644.706 7  23671890.820
  23671901.336    23671903.406          31.500          21.500          45.700
 116532017.445 7  90804328.00845                  22175336.516
  22175343.738                          43.400          30.700
 106208967.824 6  82606938.032 5                  19861614.125    19861613.301
  19861616.215                          39.400          32.800
 112871506.825 6  87788978.334 6                  21077949.484    21077948.926
  21077953.082                          38.300          41.600
 121259029.998 5  94312588.276 6                  22723888.516    22723887.570
  22723894.598                          35.700          37.600
 121595794.806 6  94749967.58044  90802060.053 7  23138895.641
  23138904.551    23138904.926          36.300          25.300          46.000
 108885602.097 7  84845942.29846                  20720234.063
  20720239.832                          45.400          37.700
 127997689.632 6  99738397.43442                  24357125.602
  24357131.688                          36.300          16.900
 105279096.276 7  81883784.788 6                  19694622.297    19694621.949
  19694628.277                          42.500          40.000
 120209503.728 6  93669680.01844                  22875081.648
  22875087.902                          41.700          27.200
 109496924.187 7  85322319.00546                  20836564.281
  20836567.797                          44.600          38.900
 123898782.474 5  96365713.452 6                  23153450.195    23153448.039
  23153454.211                          33.300          36.500
 105237323.164 7  81851350.119 6                  19673000.820    19673000.113
  19673007.605                          46.800          39.800
 107748427.567 7  83959903.12646                  20503838.219
  20503843.621                          47.500          39.700
 125558600.432 6                  93761305.525 6  23893007.297
                  23893010.793          38.100                          41.300
 124153183.111 7                  92711839.458 8  23625553.953
                  23625558.207          47.000                          50.300
 113678896.595 7                  84890095.264 7  21632373.063
                  21632374.613          43.000                          46.000
 132527326.015 6                  98965234.755 7  25219110.305
                  25219117.023          41.600                          44.700
 143678601.126 5                 107292492.082 5  27341125.250
                  27341130.195          32.200                          34.600
 118735051.328 7                  88665800.719 7  22594530.055
                  22594535.301          43.800                          47.900
 118444994.631 7                  88449235.073 8  22539325.016
                  22539330.727          45.500                          48.300
 19  7  9 10 45  5.0000000  0 21G06G29R24R08R02G30G13G07R01G15G02R17
                                R23G05E12E04E11E36E19E14E09
 124399731.482 5  96934961.49143  92896001.626 7  23672492.055
  23672501.984    23672504.043          31.500          21.500          45.800
 116531455.368 7  90803890.02545                  22175229.633
  22175236.770                          43.200          31.400
 106207403.736 6  82605721.530 5                  19861321.219    19861321.102
  19861323.836                          39.500          33.000
 112874111.578 6  87791004.255 6                  21078436.414    21078435.176
  21078439.555                          38.200          41.800
 121256326.566 6  94310485.608 6                  22723382.680    22723380.727
  22723388.188                          36.100          37.600
 121595092.097 6  94749420.00544  90801535.320 7  23138762.000
  23138770.797    23138771.422          36.000          24.600          46.300
 108883692.003 7  84844453.91146                  20719870.594
  20719876.230                          45.400          37.800
 127998588.581 6  99739097.90643                  24357297.617
  24357302.633                          36.000          18.300
 105279295.854 7  81883940.002 6                  19694659.617    19694659.410
  19694665.527                          42.500          40.200
 120206184.058 7  93667093.27144                  22874450.031
  22874455.930                          42.000          27.200
 109497933.931 7  85323105.81746                  20836756.445
  20836759.727                          44.300          39.200
 123894700.806 5  96362538.880 6                  23152688.398    23152685.816
  23152691.383                          33.300          36.500
 105239645.994 7  81853156.769 6                  19673435.766    19673434.309
  19673441.961                          47.100          39.500
 107748669.358 7  83960091.53046                  20503884.125
  20503889.867                          47.800          39.800
 125561285.259 6                  93763310.424 6  23893517.977
                  23893521.570          38.300                          41.800
 124154118.425 7                  92712537.919 8  23625732.078
                  23625736.176          47.100                          50.600
 113679304.026 7                  84890399.530 7  21632450.422
                  21632452.141          43.300                          46.000
 132525159.586 6                  98963616.956 7  25218698.031
                  25218704.605          41.900                          45.000
 143681105.67315                 107294362.355 5  27341601.945
                  27341606.965          31.500                          34.800
 118740546.081 7                  88669903.938 7  22595575.422
                  22595580.984          43.800                          47.900
 118443549.795 7                  88448156.125 8  22539050.094
                  22539055.715          45.900                          48.300
 19  7  9 10 45  6.0000000  0 21G06G29R24R08R02G30G13G07R01G15G02R17
                                R23G05E12E04E11E36E19E14E09
 124402887.982 5  96937421.11443  92898358.760 7  23673092.555
  23673102.719    23673104.805          31.800          21.500          45.900
 116530893.956 7  90803452.57045                  22175122.547
  22175129.887                          42.600          30.900
 106205840.506 6  82604505.676 5                  19861029.711    19861028.066
  19861032.020                          39.400          33.700
 112876716.512 6  87793030.288 6                  21078922.766    21078922.371
  21078925.879                          38.200          41.800
 121253623.424 5  94308383.156 6                  22722874.836    22722874.266
  22722881.816                          35.500          37.100
 121594389.947 5  94748872.87444  90801011.001 7  23138628.195
  23138637.273    23138637.629          35.800          24.700          46.500
 108881782.450 7  84842965.95246                  20719506.969
  20719513.000                          45.500          37.400
 127999488.054 5  99739798.77743                  24357468.781
  24357473.762                          35.700          18.300
 105279495.858 7  81884095.577 6                  19694697.352    19694696.629
  19694702.770                          42.700          40.000
 120202864.689 6  93664506.75344                  22873818.680
  22873824.395                          41.800          26.300
 109498944.179 7  85323893.01946                  20836948.445
  20836952.188                          44.000          39.100
 123890619.529 5  96359364.537 6                  23151925.297    23151923.539
  23151928.770                          33.300          36.400
 105241969.591 7  81854964.012 6                  19673869.742    19673868.637
  19673876.453                          46.900          39.500
 107748911.399 8  83960280.13846                  20503929.984
  20503935.688                          48.100          40.000
 125563970.308 6                  93765315.521 6  23894029.039
                  23894032.602          38.400                          41.300
 124155054.007 7                  92713236.566 8  23625910.078
                  23625914.160          47.300                          50.800
 113679711.933 7                  84890704.119 7  21632528.500
                  21632529.852          43.200                          46.200
 132522993.384 6                  98961999.332 7  25218285.914
                  25218292.516          41.700                          44.900
 143683610.194 5                 107296232.624 5  27342078.805
                  27342083.250          32.000                          34.600
 118746041.175 7                  88674007.405 7  22596621.305
                  22596626.641          43.900                          47.600
 118442105.217 7                  88447077.397 8  22538775.281
                  22538780.930          45.900                          48.200
 19  7  9 10 45  7.0000000  0 21G06G29R24R08R02G30G13G07R01G15G02R17
                                R23G05E12E04E11E36E19E14E09
 124406044.648 5  96939880.81343  92900716.044 7  23673693.047
  23673704.121    23673705.465          31.600          21.700          45.700
 116530333.240 7  90803015.63745                  22175016.047
  22175023.543                          42.700          30.700
 106204278.138 6  82603290.450 5                  19860737.531    19860735.934
  19860739.539                          39.500          33.400
 112879321.559 6  87795056.444 6                  21079409.914    21079408.371
  21079412.531                          38.100          41.500
 121250920.572 5  94306280.960 6                  22722368.820    22722367.805
  22722375.270                          35.600          37.300
 121593688.375 6  94748326.19744  90800487.091 7  23138494.688
  23138504.152    23138504.164          36.000          25.100          46.400
 108879873.492 7  84841478.45646                  20719143.961
  20719149.445                          45.400          37.500
 128000388.090 5  99740500.13743                  24357638.883
  24357645.547                          35.300          18.300
 105279696.319 7  81884251.504 6                  19694735.555    19694734.434
  19694740.219                          42.700          40.200
 120199545.631 6  93661920.47844                  22873186.281
  22873192.703                          41.300          25.100
 109499954.917 7  85324680.60946                  20837141.016
  20837144.434                          44.100          39.400
 123886538.427 5  96356190.360 5                  23151162.844    23151160.992
  23151166.266                          32.900          35.700
 105244293.977 7  81856771.888 6                  19674304.133    19674303.004
  19674310.750                          46.900          39.000
 107749153.729 8  83960468.96246                  20503976.508
  20503982.160                          48.000          39.800
 125566655.600 6                  93767320.757 6  23894539.867
                  23894543.637          38.300                          41.500
 124155989.838 7                  92713935.395 8  23626087.984
                  23626092.316          47.000                          50.700
 113680120.276 7                  84891009.043 7  21632606.133
                  21632607.426          43.200                          46.100
 132520827.446 6                  98960381.903 7  25217873.602
                  25217880.363          41.500                          45.000
 143686114.707 5                 107298102.849 5  27342554.891
                  27342560.199          31.700                          34.300
 118751536.596 7                  88678111.134 7  22597667.078
                  22597672.336          44.000                          47.600
 118440660.935 7                  88445998.863 8  22538500.414
                  22538506.082          45.700                          48.300
 19  7  9 10 45  8.0000000  0 21G06G29R24R08R02G30G13G07R01G15G02R17
                                R23G05E12E04E11E36E19E14E09
 124409201.733 5  96942340.88943  92903073.545 7  23674293.773
  23674304.207    23674306.141          32.200          22.000          45.800
 116529773.196 7  90802579.24645                  22174909.531
  22174916.367                          42.800          30.500
 106202716.599 6  82602075.953 5                  19860444.602    19860443.922
  19860447.438                          39.600          33.200
 112881926.804 6  87797082.723 6                  21079896.375    21079895.230
  21079898.863                          37.800          41.600
 121248218.047 5  94304179.013 6                  22721862.945    22721861.977
  22721868.910                          35.500          37.100
 121592987.387 5  94747779.97944  90799963.617 7  23138361.398
  23138370.535    23138370.793          35.900          24.700          46.600
 108877965.100 7  84839991.39846                  20718781.000
  20718786.711                          45.300          38.000
 128001288.690 5  99741201.91143                  24357810.133
  24357816.691                          34.600          18.600
 105279897.228 7  81884407.741 6                  19694773.727    19694771.809
  19694777.977                          43.000          40.400
 120196226.890 6  93659334.44244                  22872555.258
  22872561.031                          41.700          27.000
 109500966.183 7  85325468.60846                  20837334.016
  20837336.785                          44.100          39.400
 123882457.639 5  96353016.384 6                  23150399.961    23150398.391
  23150403.727                          32.900          36.000
 105246619.172 7  81858580.361 6                  19674738.672    19674737.965
  19674745.500                          46.900          38.800
 107749396.320 8  83960657.99446                  20504022.469
  20504028.379                          48.000          39.500
 125569341.148 6                  93769326.192 6  23895050.695
                  23895054.828          38.200                          41.500
 124156925.934 7                  92714634.428 8  23626266.078
                  23626270.410          47.000                          50.800
 113680529.087 7                  84891314.329 7  21632683.586
                  21632685.254          43.200                          46.200
 132518661.785 6                  98958764.696 7  25217461.641
                  25217468.184          41.200                          45.100
 143688619.174 5                 107299973.123 5  27343031.438
                  27343036.578          31.700                          34.400
 118757032.357 7                  88682215.121 8  22598713.047
                  22598718.188          44.300                          48.100
 118439216.930 7                  88444920.560 8  22538225.500
                  22538231.227          46.100                          48.400
 19  7  9 10 45  9.0000000  0 21G06G29R24R08R02G30G13G07R01G15G02R17
                                R23G05E12E04E11E36E19E14E09
 124412358.923 5  96944801.02243  92905431.212 7  23674895.039
  23674905.133    23674906.980          32.300          22.000          46.000
 116529213.832 7  90802143.37644                  22174803.133
  22174809.746                          43.000          29.700
 106201155.913 6  82600862.077 5                  19860153.438    19860152.332
  19860155.508                          39.400          33.300
 112884532.168 6  87799109.141 6                  21080382.602    21080381.879
  21080385.480                          38.300          41.800
 121245515.894 6  94302077.322 6                  22721356.516    22721355.570
  22721362.223                          36.300          36.800
 121592286.856 5  94747234.10744  90799440.517 7  23138228.102
  23138237.133    23138237.379          35.500          25.600          46.300
 108876057.243 7  84838504.75946                  20718417.766
  20718423.340                          45.300          37.900
 128002189.749 5  99741904.03242                  24357982.375
  24357988.133                          35.400          17.800
 105280098.542 7  81884564.354 6                  19694810.141    19694809.395
  19694815.578                          42.600          40.200
 120192908.394 6  93656748.59944                  22871923.391
  22871929.602                          41.800          27.400
 109501977.926 7  85326256.98246                  20837526.219
  20837529.266                          43.800          39.200
 123878377.120 5  96349842.647 5                  23149636.820    23149635.297
  23149641.215                          33.400          35.800
 105248945.129 7  81860389.441 6                  19675174.203    19675172.723
  19675180.457                          46.300          39.400
 107749639.156 7  83960847.21646                  20504068.844
  20504074.469                          47.400          39.800
 125572026.906 6                  93771331.797 6  23895561.781
                  23895565.652          37.900                          41.600
 124157862.235 7                  92715333.621 8  23626444.281
                  23626448.609          46.900                          50.900
 113680938.316 7                  84891619.927 7  21632761.773
                  21632763.242          43.300                          46.100
 132516496.362 6                  98957147.672 7  25217049.227
                  25217056.137          41.700                          45.100
 143691123.723 5                 107301843.342 5  27343508.047
                  27343513.195          31.700                          34.600
 118762528.448 7                  88686319.339 7  22599758.789
                  22599764.063          44.600                          47.800
 118437773.206 7                  88443842.436 8  22537950.836
                  22537956.594          45.900                          48.300
 19  7  9 10 45 10.0000000  0 21G06G29R24R08R02G30G13G07R01G15G02R17
                                R23G05E12E04E11E36E19E14E09
 124415516.341 5  96947261.35043  92907789.026 7  23675495.578
  23675506.266    23675507.680          32.800          21.800          45.600
 116528655.123 7  90801708.01544                  22174696.930
  22174703.570                          43.100          29.600
 106199596.033 6  82599648.854 5                  19859861.227    19859860.473
  19859864.008                          39.200          32.500
 112887137.644 6  87801135.618 6                  21080870.055    21080868.066
  21080872.117                          38.600          41.600
 121242813.994 5  94299975.878 6                  22720850.430    22720848.992
  22720855.988                          35.700          37.200
 121591586.915 5  94746688.69344  90798917.826 7  23138095.414
  23138104.383    23138104.383          35.400          24.400          46.400
 108874149.916 7  84837018.52646                  20718054.938
  20718060.398                          44.900          38.200
 128003091.386 5  99742606.59542                  24358153.797
  24358159.820                          34.700          17.800
 105280300.263 7  81884721.208 6                  19694847.563    19694847.191
  19694853.328                          42.400          40.400
 120189590.206 6  93654163.00544                  22871292.359
  22871297.918                          41.700          26.400
 109502990.139 7  85327045.72446                  20837718.641
  20837722.008                          43.800          39.100
 123874296.839 5  96346669.100 5                  23148873.852    23148873.055
  23148878.773                          33.100          35.500
 105251271.866 7  81862199.128 6                  19675608.711    19675607.723
  19675615.160                          46.600          39.600
 107749882.245 7  83961036.63346                  20504114.883
  20504120.527                          47.200          39.700
 125574712.844 6                  93773337.534 6  23896073.094
                  23896076.777          37.900                          41.700
 124158798.770 7                  92716032.977 8  23626622.563
                  23626626.883          46.900                          50.600
 113681347.978 7                  84891925.840 7  21632839.484
                  21632841.055          43.200                          46.300
 132514331.178 6                  98955530.824 7  25216637.406
                  25216644.238          41.800                          45.200
 143693628.145 5                 107303713.572 5  27343984.867
                  27343989.938          31.700                          35.100
 118768024.836 7                  88690423.792 7  22600804.633
                  22600809.840          44.600                          47.500
 118436329.690 7                  88442764.514 8  22537675.836
                  22537681.875          45.700                          48.200
 19  7  9 10 45 11.0000000  0 21G06G29R24R08R02G30G13G07R01G15G02R17
                                R23G05E12E04E11E36E19E14E09
 124418674.023 5  96949721.88743  92910147.023 7  23676096.516
  23676107.109    23676108.574          32.300          21.300          45.500
 116528097.053 7  90801273.15644                  22174591.070
  22174597.469                          43.200          29.700
 106198036.954 6  82598436.228 5                  19859570.680    19859568.660
  19859572.477                          39.300          32.900
 112889743.206 6  87803162.186 6                  21081356.078    21081354.441
  21081358.754                          38.600          41.400
 121240112.415 6  94297874.606 6                  22720343.375    22720342.945
  22720349.629                          36.100          37.300
 121590887.440 5  94746143.64744  90798395.509 7  23137961.242
  23137971.383    23137971.102          35.500          25.800          46.600
 108872243.137 7  84835532.72546                  20717691.953
  20717697.461                          45.100          38.400
 128003993.481 5  99743309.54442                  24358324.781
  24358331.516                          34.900          17.800
 105280502.372 7  81884878.425 6                  19694885.609    19694885.191
  19694891.152                          42.000          40.100
 120186272.254 7  93651577.59044                  22870661.047
  22870666.605                          42.000          25.800
 109504002.840 7  85327834.83946                  20837911.164
  20837914.684                          43.600          38.500
 123870216.806 5  96343495.752 5                  23148112.852    23148110.906
  23148116.391                          33.200          35.400
 105253599.374 7  81864009.408 6                  19676044.008    19676042.809
  19676050.188                          46.300          39.200
 107750125.555 7  83961226.23046                  20504160.906
  20504166.871                          47.400          39.300
 125577399.036 6                  93775343.451 6  23896584.383
                  23896588.234          37.800                          41.900
 124159735.530 7                  92716732.506 8  23626800.656
                  23626805.133          46.700                          50.700
 113681758.046 7                  84892232.060 7  21632917.734
                  21632919.086          43.100                          46.000
 132512166.226 6                  98953914.117 7  25216225.531
                  25216232.137          40.900                          45.300
 143696132.579 5                 107305583.699 5  27344461.453
                  27344466.266          31.100                          34.600
 118773521.531 7                  88694528.460 7  22601850.852
                  22601855.898          44.400                          47.300
 118434886.455 7                  88441686.758 8  22537401.609
                  22537407.246          45.300                          48.200
 19  7  9 10 45 12.0000000  0 21G06G29R24R08R02G30G13G07R01G15G02R17
                                R23G05E12E04E11E36E19E14E09
 124421831.974 5  96952182.62943  92912505.211 7  23676698.016
  23676708.148    23676709.602          32.500          20.900          45.300
 116527539.702 7  90800838.85944                  22174484.734
  22174491.566                          43.200          29.800
 106196478.764 6  82597224.268 5                  19859278.281    19859277.527
  19859281.141                          39.300          32.400
 112892348.997 6  87805188.896 6                  21081842.227    21081841.105
  21081845.250                          38.600          41.700
 121237411.113 6  94295773.620 6                  22719837.844    22719836.594
  22719843.574                          36.500          37.200
 121590188.586 6  94745599.10144  90797873.631 7  23137828.477
  23137837.980    23137838.066          36.100          25.000          46.700
 108870336.951 7  84834047.37946                  20717329.242
  20717334.836                          45.200          38.200
 128004896.179 5  99744012.94442                  24358496.992
  24358503.406                          35.200          17.800
 105280704.927 7  81885035.974 6                  19694923.430    19694922.730
  19694928.848                          42.400          40.100
 120182954.669 6  93648992.45444                  22870029.531
  22870035.574                          41.800          27.800
 109505016.081 7  85328624.37846                  20838104.297
  20838107.250                          43.500          38.900
 123866137.047 5  96340322.605 5                  23147350.547    23147348.531
  23147353.832                          32.500          35.300
 105255927.686 7  81865820.309 6                  19676479.070    19676477.941
  19676485.820                          46.400          39.100
 107750369.166 7  83961416.05746                  20504207.305
  20504213.391                          47.200          39.700
 125580085.456 6                  93777349.539 7  23897095.828
                  23897099.348          37.500                          42.000
 124160672.554 7                  92717432.235 8  23626979.258
                  23626983.469          46.300                          50.600
 113682168.617 7                  84892538.637 7  21632995.867
                  21632997.301          42.800                          46.000
 132510001.554 6                  98952297.660 7  25215813.656
                  25215820.270          41.100                          45.400
 143698637.002 5                 107307453.899 5  27344938.242
                  27344942.742          31.700                          34.800
 118779018.614 7                  88698633.416 7  22602896.883
                  22602901.980          44.600                          47.400
 118433443.515 7                  88440609.246 8  22537126.953
                  22537132.527          45.300                          48.100
 19  7  9 10 45 13.0000000  0 21G06G29R24R08R02G30G13G07R01G15G02R17
                                R23G05E12E04E11E36E19E14E09
 124424990.047 5  96954643.46443  92914863.512 7  23677299.336
  23677309.246    23677310.379          33.400          21.100          45.400
 116526982.911 7  90800404.99445                  22174378.555
  22174385.777                          43.400          30.700
 106194921.244 6  82596012.896 5                  19858986.852    19858986.523
  19858989.770                          39.200          32.700
 112894954.773 6  87807215.648 6                  21082328.688    21082327.426
  21082332.070                          38.400          41.900
 121234710.019 6  94293672.737 6                  22719330.570    22719330.355
  22719337.477                          36.200          37.500
 121589490.169 6  94745054.88344  90797352.074 7  23137696.844
  23137705.320    23137705.266          36.100          25.600          46.800
 108868431.221 7  84832562.39746                  20716966.422
  20716971.883                          45.700          38.400
 128005799.271 5  99744716.65142                  24358668.828
  24358675.168                          35.500          17.800
 105280907.823 7  81885193.775 6                  19694961.266    19694960.496
  19694966.953                          42.100          40.200
 120179637.256 6  93646407.45344                  22869398.531
  22869404.438                          41.400          27.000
 109506029.727 7  85329414.23046                  20838296.828
  20838300.473                          44.100          38.800
 123862057.507 5  96337149.612 5                  23146587.547    23146585.555
  23146591.758                          32.700          35.800
 105258256.668 7  81867631.741 6                  19676914.953    19676913.238
  19676920.953                          46.900          39.900
 107750612.952 7  83961606.01846                  20504253.766
  20504259.762                          47.200          40.200
 125582771.994 6                  93779355.715 7  23897606.906
                  23897610.609          37.400                          42.100
 124161609.743 7                  92718132.075 8  23627157.289
                  23627161.668          46.500                          50.500
 113682579.482 7                  84892845.475 7  21633073.750
                  21633075.422          43.200                          46.000
 132507837.069 6                  98950681.317 7  25215401.813
                  25215408.391          41.500                          44.700
 143701141.317 5                 107309323.997 5  27345414.906
                  27345419.281          31.700                          34.700
 118784515.886 7                  88702738.532 7  22603943.047
                  22603948.102          44.600                          47.600
 118432000.757 7                  88439531.849 8  22536852.133
                  22536858.117          44.900                          48.200
 19  7  9 10 45 14.0000000  0 21G06G29R24R08R02G30G13G07R01G15G02R17
                                R23G05E12E04E11E36E19E14E09
 124428148.367 5  96957104.49843  92917222.045 7  23677900.383
  23677909.520    23677911.535          33.800          20.600          45.200
 116526426.880 7  90799971.72145                  22174272.820
  22174279.801                          43.600          30.200
 106193364.680 6  82594802.225 5                  19858696.492    19858695.223
  19858698.484                          39.400          32.700
 112897560.827 6  87809242.525 6                  21082815.391    21082814.316
  21082818.566                          38.300          41.800
 121232009.176 5  94291572.097 6                  22718824.500    22718824.660
  22718831.215                          35.900          37.800
 121588792.352 5  94744511.13144  90796830.987 7  23137563.656
  23137572.395    23137572.336          35.700          25.300          46.700
 108866526.112 7  84831077.89546                  20716604.055
  20716609.734                          45.800          37.900
 128006703.014 5  99745420.84542                  24358840.898
  24358847.270                          35.400          17.800
 105281111.159 7  81885351.931 6                  19694999.453    19694999.082
  19695005.336                          42.400          39.900
 120176320.209 6  93643822.75444                  22868767.227
  22868773.277                          41.600          27.000
 109507043.927 7  85330204.51746                  20838490.594
  20838493.492                          44.400          39.000
 123857978.253 5  96333976.847 5                  23145824.039    23145822.984
  23145829.438                          32.900          35.500
 105260586.503 7  81869443.833 6                  19677349.945    19677348.816
  19677356.301                          47.000          40.100
 107750857.059 7  83961796.22846                  20504300.336
  20504306.285                          47.200          40.000
 125585458.820 6                  93781362.133 7  23898118.109
                  23898121.824          37.800                          42.400
 124162547.222 7                  92718832.154 8  23627335.961
                  23627340.137          46.500                          50.500
 113682990.884 7                  84893152.695 7  21633152.086
                  21633153.691          43.300                          46.100
 132505672.885 6                  98949065.206 7  25214989.836
                  25214996.438          41.300                          44.500
 143703645.729 5                 107311194.156 5  27345891.492
                  27345896.164          31.300                          34.600
 118790013.596 7                  88706843.953 7  22604989.164
                  22604994.199          44.400                          47.800
 118430558.321 7                  88438454.715 8  22536577.898
                  22536583.676          45.100                          48.200
 19  7  9 10 45 15.0000000  0 21G06G29R24R08R02G30G13G07R01G15G02R17
                                R23G05E12E04E11E36E19E14E09
 124431307.079 5  96959565.83943  92919580.789 7  23678501.266
  23678511.020    23678512.586          34.300          21.300          45.400
 116525871.562 7  90799539.00445                  22174167.391
  22174174.008                          43.500          30.600
 106191808.957 6  82593592.216 5                  19858405.922    19858404.605
  19858407.613                          38.900          33.000
 112900167.054 6  87811269.591 7                  21083301.898    21083300.941
  21083305.188                          38.200          42.000
 121229308.639 5  94289471.679 6                  22718318.766    22718318.504
  22718325.008                          35.900          37.400
 121588095.138 6  94743967.85544  90796310.337 7  23137431.195
  23137439.586    23137439.691          36.200          26.000          46.500
 108864621.606 7  84829593.86646                  20716241.641
  20716247.082                          45.300          38.400
 128007607.297 5  99746125.52043                  24359012.703
  24359019.141                          35.400          18.300
 105281314.963 7  81885510.452 6                  19695037.992    19695036.941
  19695042.977                          42.500          39.900
 120173003.509 6  93641238.30244                  22868135.883
  22868142.047                          41.400          27.300
 109508058.670 7  85330995.22546                  20838683.305
  20838686.504                          44.100          39.200
 123853899.289 5  96330804.379 5                  23145060.656    23145060.539
  23145066.738                          33.000          35.300
 105262917.180 7  81871256.565 6                  19677785.906    19677784.566
  19677792.273                          47.000          40.000
 107751101.474 7  83961986.68146                  20504346.750
  20504352.648                          47.500          39.800
 125588145.947 6                  93783368.711 7  23898629.117
                  23898633.047          37.600                          42.300
 124163484.993 7                  92719532.418 8  23627514.344
                  23627518.609          46.200                          50.700
 113683402.764 7                  84893460.267 7  21633230.297
                  21633232.090          43.100                          46.000
 132503509.001 6                  98947449.323 7  25214578.289
                  25214584.668          41.200                          44.800
 143706150.157 5                 107313064.339 5  27346367.523
                  27346372.555          31.700                          35.100
 118795511.660 7                  88710949.643 7  22606035.320
                  22606040.352          44.000                          47.800
 118429116.203 7                  88437377.799 8  22536303.242
                  22536309.141          45.300                          48.200
 19  7  9 10 45 16.0000000  0 21G06G29R24R08R02G30G13G07R01G15G02R17
                                R23G05E12E04E11E36E19E14E09
 124434465.940 5  96962027.30043  92921939.692 7  23679102.797
  23679111.832    23679113.730          33.800          21.300          45.400
 116525316.887 7  90799106.79645                  22174061.539
  22174068.313                          43.400          30.200
 106190254.037 6  82592382.816 5                  19858113.734    19858113.641
  19858116.930                          38.700          33.700
 112902773.370 6  87813296.729 6                  21083788.977    21083788.020
  21083791.738                          38.400          41.700
 121226608.366 6  94287371.497 6                  22717813.664    22717812.719
  22717819.004                          36.300          37.800
 121587398.441 6  94743424.97044  90795790.090 7  23137297.414
  23137307.102    23137307.176          36.700          26.000          46.700
 108862717.645 7  84828110.26846                  20715878.930
  20715885.121                          45.600          38.200
 128008512.089 6  99746830.50043                  24359185.031
  24359191.227                          36.300          18.300
 105281519.190 7  81885669.292 6                  19695076.266    19695075.121
  19695081.559                          42.400          39.900
 120169687.078 6  93638654.07844                  22867504.961
  22867510.691                          41.900          28.100
 109509073.898 7  85331786.31046                  20838876.109
  20838879.934                          44.000          38.800
 123849820.641 5  96327632.053 5                  23144300.828    23144298.270
  23144304.746                          33.300          35.700
 105265248.617 7  81873069.917 6                  19678221.047    19678220.223
  19678228.172                          46.800          40.200
 107751346.155 7  83962177.34646                  20504393.656
  20504399.270                          47.500          39.900
 125590833.270 6                  93785375.504 6  23899140.594
                  23899144.750          37.700                          41.600
 124164422.978 7                  92720232.885 8  23627692.844
                  23627697.027          46.300                          50.800
 113683815.098 7                  84893768.188 7  21633308.945
                  21633310.508          43.700                          45.900
 132501345.380 6                  98945833.639 7  25214166.305
                  25214172.813          41.400                          44.600
 143708654.466 5                 107314934.505 5  27346844.469
                  27346849.254          31.100                          34.500
 118801010.041 7                  88715055.579 8  22607081.648
                  22607086.664          44.200                          48.000
 118427674.341 7                  88436301.094 8  22536028.992
                  22536034.691          44.700                          48.000
 19  7  9 10 45 17.0000000  0 21G06G29R24R08R02G30G13G07R01G15G02R17
                                R23G05E12E04E11E36E19E14E09
 124437625.064 5  96964488.94743  92924298.751 7  23679704.391
  23679712.887    23679714.809          34.700          21.800          45.700
 116524762.865 7  90798675.08245                  22173955.953
  22173963.031                          43.200          30.800
 106188699.899 6  82591174.089 5                  19857824.266    19857823.184
  19857826.074                          39.200          33.500
 112905379.759 6  87815323.930 6                  21084274.680    21084274.941
  21084278.492                          38.400          41.600
 121223908.429 6  94285271.500 6                  22717308.313    22717306.945
  22717313.453                          36.000          38.100
 121586702.265 6  94742882.50144  90795270.208 7  23137166.531
  23137175.078    23137174.766          36.600          25.900          46.900
 108860814.189 7  84826627.05246                  20715516.852
  20715522.570                          45.800          38.600
 128009417.414 6  99747535.96942                  24359357.328
  24359363.449                          36.300          17.800
 105281723.797 7  81885828.424 6                  19695113.875    19695113.340
  19695119.680                          42.000          39.900
 120166370.911 6  93636070.05044                  22866873.758
  22866880.016                          41.400          27.200
 109510089.602 7  85332577.77146                  20839069.695
  20839073.098                          44.100          38.800
 123845742.218 5  96324459.940 5                  23143539.445    23143536.418
  23143542.156                          32.900          35.100
 105267580.835 7  81874883.865 6                  19678657.398    19678656.340
  19678663.992                          46.500          39.900
 107751591.038 7  83962368.16446                  20504440.188
  20504446.160                          47.300          39.400
 125593520.768 6                  93787382.400 6  23899652.148
                  23899656.168          37.400                          41.700
 124165361.189 7                  92720933.485 8  23627871.313
                  23627875.512          46.300                          51.000
 113684227.810 7                  84894076.368 7  21633387.469
                  21633389.063          43.200                          46.000
 132499181.952 6                  98944218.085 7  25213754.453
                  25213761.449          41.000                          44.800
 143711158.833 5                 107316804.595 5  27347320.758
                  27347325.836          31.500                          35.000
 118806508.699 7                  88719161.723 7  22608128.203
                  22608133.031          44.400                          47.900
 118426232.723 7                  88435224.547 7  22535754.750
                  22535760.418          45.100                          47.900
 19  7  9 10 45 18.0000000  0 21G06G29R24R08R02G30G13G07R01G15G02R17
                                R23G05E12E04E11E36E19E14E09
 124440784.371 5  96966950.76643  92926658.007 7  23680305.516
  23680314.387    23680316.129          34.700          22.000          45.800
 116524209.519 7  90798243.90444                  22173850.336
  22173857.898                          43.200          29.500
 106187146.642 6  82589965.962 5                  19857532.969    19857532.336
  19857536.035                          39.000          33.800
 112907986.284 6  87817351.203 6                  21084761.766    21084761.629
  21084765.391                          38.400          41.800
 121221208.772 6  94283171.812 6                  22716802.172    22716800.453
  22716807.086                          36.400          37.500
 121586006.681 6  94742340.48144  90794750.758 7  23137033.617
  23137042.391    23137042.418          37.000          24.000          46.700
 108858911.316 7  84825144.29446                  20715154.883
  20715160.496                          45.600          38.300
 128010323.219 6  99748241.81843                  24359529.563
  24359535.879                          36.300          18.600
 105281928.851 7  81885987.927 6                  19695152.125    19695151.824
  19695157.770                          42.200          39.900
 120163055.063 6  93633486.27044                  22866242.969
  22866249.023                          41.300          28.100
 109511105.813 7  85333369.62446                  20839263.156
  20839266.625                          44.600          38.800
 123841664.058 5  96321288.057 5                  23142777.266    23142774.730
  23142779.879                          32.900          35.600
 105269913.815 7  81876698.426 6                  19679093.180    19679092.285
  19679100.230                          46.400          39.900
 107751836.204 7  83962559.20346                  20504486.711
  20504492.797                          47.500          39.600
 125596208.513 6                  93789389.479 6  23900163.844
                  23900167.680          37.700                          41.700
 124166299.635 7                  92721634.277 8  23628049.977
                  23628054.102          46.300                          51.000
 113684640.956 7                  84894384.907 7  21633465.992
                  21633467.832          43.400                          45.900
 132497018.810 6                  98942602.751 7  25213343.195
                  25213349.777          41.100                          44.900
 143713663.156 5                 107318674.702 5  27347797.359
                  27347802.516          31.800                          35.100
 118812007.687 7                  88723268.120 7  22609174.641
                  22609179.453          44.500                          47.400
 118424791.367 7                  88434148.215 7  22535480.484
                  22535486.105          45.100                          47.900
 19  7  9 10 45 19.0000000  0 21G06G29R24R08R02G30G13G07R01G15G02R17
                                R23G05E12E04E11E36E19E14E09
 124443943.933 5  96969412.75143  92929017.408 7  23680906.703
  23680915.598    23680917.309          34.600          21.700          46.000
 116523656.818 7  90797813.22645                  22173746.047
  22173752.445                          43.200          30.600
 106185594.213 6  82588758.512 5                  19857243.383    19857242.020
  19857245.531                          39.000          33.400
 112910592.934 6  87819378.608 7                  21085250.258    21085248.176
  21085252.086                          38.100          42.000
 121218509.483 5  94281072.336 6                  22716296.453    22716294.313
  22716301.348                          35.600          37.500
 121585311.525 6  94741798.79644  90794231.691 7  23136900.953
  23136910.160    23136909.949          37.300          25.600          47.000
 108857008.953 7  84823661.93246                  20714792.844
  20714798.305                          45.800          38.200
 128011229.574 6  99748948.05942                  24359701.984
  24359708.250                          36.800          16.900
 105282134.315 7  81886147.732 6                  19695191.836    19695189.824
  19695196.582                          42.300          40.100
 120159739.477 6  93630902.69644                  22865611.383
  22865618.039                          41.900          27.500
 109512122.476 7  85334161.82746                  20839456.445
  20839460.410                          44.700          38.800
 123837586.123 5  96318116.310 5                  23142014.477    23142013.000
  23142018.020                          33.200          35.600
 105272247.574 7  81878513.557 6                  19679529.938    19679528.363
  19679536.352                          46.600          39.600
 107752081.613 7  83962750.42646                  20504533.234
  20504539.184                          47.300          39.600
 125598896.473 6                  93791396.717 6  23900675.656
                  23900679.051          37.500                          41.300
 124167238.295 7                  92722335.227 8  23628228.672
                  23628232.703          46.400                          51.100
 113685054.555 7                  84894693.722 7  21633544.703
                  21633546.383          43.200                          46.000
 132494855.877 6                  98940987.581 7  25212931.367
                  25212938.141          41.200                          44.900
 143716167.455 5                 107320544.793 5  27348274.109
                  27348278.949          31.700                          35.300
 118817507.011 7                  88727374.740 7  22610221.016
                  22610225.973          44.500                          47.300
 118423350.255 7                  88433072.071 8  22535206.141
                  22535211.906          45.400                          48.100
 19  7  9 10 45 20.0000000  0 21G06G29R24R08R02G30G13G07R01G15G02R17
                                R23G05E12E04E11E36E19E14E09
 124447103.723 5  96971874.92243  92931376.990 7  23681508.320
  23681516.945    23681518.629          34.800          21.700          46.000
 116523104.797 7  90797383.08745                  22173640.609
  22173647.430                          43.400          30.400
 106184042.614 6  82587551.706 5                  19856952.281    19856951.859
  19856955.219                          39.300          33.000
 112913199.767 6  87821406.158 6                  21085737.133    21085735.215
  21085738.598                          38.500          41.600
 121215810.508 6  94278973.148 6                  22715789.883    22715788.656
  22715795.711                          36.200          37.600
 121584616.981 6  94741257.59244  90793713.018 7  23136768.711
  23136778.047    23136777.883          37.500          25.700          47.000
 108855107.141 7  84822180.00346                  20714430.992
  20714436.418                          45.700          38.200
 128012136.444 6  99749654.69942                  24359874.555
  24359880.723                          36.300          16.900
 105282340.186 7  81886307.849 6                  19695229.125    19695228.168
  19695235.008                          42.000          40.100
 120156424.206 7  93628319.35844                  22864981.281
  22864987.035                          42.200          27.000
 109513139.661 7  85334954.43446                  20839649.992
  20839653.273                          44.000          38.800
 123833508.433 5  96314944.807 5                  23141251.398    23141250.625
  23141256.211                          32.900          35.600
 105274582.108 7  81880329.304 6                  19679965.680    19679965.113
  19679972.598                          46.700          39.400
 107752327.275 7  83962941.85346                  20504580.219
  20504586.074                          47.800          39.400
 125601584.618 6                  93793404.094 6  23901187.156
                  23901190.531          37.300                          41.800
 124168177.209 7                  92723036.359 8  23628407.453
                  23628411.418          46.100                          51.400
 113685468.554 7                  84895002.903 7  21633623.750
                  21633625.188          43.100                          46.300
 132492693.215 6                  98939372.602 7  25212519.688
                  25212526.605          41.800                          44.900
 143718671.715 5                 107322414.834 5  27348750.305
                  27348755.547          32.200                          35.800
 118823006.637 7                  88731481.608 7  22611267.477
                  22611272.355          44.500                          47.200
 118421909.408 7                  88431996.115 8  22534931.984
                  22534937.637          45.500                          48.300
 19  7  9 10 45 21.0000000  0 21G06G29R24R08R02G30G13G07R01G15G02R17
                                R23G05E12E04E11E36E19E14E09
 124450263.756 5  96974337.30043  92933736.750 7  23682109.656
  23682118.102    23682119.938          34.400          21.300          45.800
 116522553.422 7  90796953.44645                  22173535.688
  22173541.863                          43.000          30.100
 106182491.888 6  82586345.595 5                  19856663.023    19856661.754
  19856665.754                          39.800          33.100
 112915806.783 6  87823433.800 6                  21086222.539    21086222.027
  21086225.656                          38.600          41.100
 121213111.784 6  94276874.128 6                  22715284.531    22715283.000
  22715289.848                          36.400          37.800
 121583922.953 6  94740716.79344  90793194.749 7  23136636.633
  23136645.766    23136645.859          37.300          24.700          46.500
 108853205.891 7  84820698.51046                  20714069.445
  20714074.906                          45.100          37.700
 128013043.849 5  99750361.77842                  24360048.398
  24360053.738                          35.900          17.800
 105282546.477 7  81886468.303 6                  19695267.906    19695267.254
  19695273.828                          42.200          40.300
 120153109.178 7  93625736.22244                  22864350.602
  22864356.547                          42.200          28.300
 109514157.331 7  85335747.42346                  20839844.141
  20839847.180                          44.200          38.700
 123829431.056 5  96311773.496 5                  23140488.219    23140488.852
  23140494.059                          33.200          35.000
 105276917.426 7  81882145.653 6                  19680402.758    19680401.535
  19680409.484                          47.200          39.500
 107752573.201 7  83963133.48646                  20504627.156
  20504632.730                          47.400          39.600
 125604273.008 6                  93795411.655 6  23901698.367
                  23901702.184          37.800                          41.700
 124169116.344 7                  92723737.668 8  23628586.055
                  23628590.172          46.300                          51.200
 113685883.026 7                  84895312.401 7  21633702.461
                  21633704.094          42.700                          46.000
 132490530.777 6                  98937757.802 7  25212108.359
                  25212115.160          41.800                          44.800
 143721175.911 5                 107324284.887 5  27349226.625
                  27349231.859          32.200                          35.400
 118828506.575 7                  88735588.703 7  22612313.703
                  22612319.141          44.600                          47.300
 118420468.827 7                  88430920.370 8  22534657.789
                  22534663.578          45.600                          48.100
 19  7  9 10 45 22.0000000  0 21G06G29R24R08R02G30G13G07R01G15G02R17
                                R23G05E12E04E11E36E19E14E09
 124453424.065 5  96976799.86743  92936096.720 7  23682710.523
  23682719.406    23682721.270          34.300          21.800          45.800
 116522002.787 7  90796524.37745                  22173431.258
  22173437.172                          43.000          30.000
 106180942.024 6  82585140.168 5                  19856373.695    19856371.934
  19856375.723                          39.500          33.400
 112918413.916 6  87825461.593 6                  21086709.656    21086708.934
  21086712.605                          38.500          41.700
 121210413.373 5  94274775.360 6                  22714778.766    22714777.469
  22714784.035                          35.700          37.500
 121583229.522 6  94740176.45044  90792676.931 7  23136505.383
  23136514.207    23136513.914          37.400          24.200          46.400
 108851305.236 7  84819217.48146                  20713707.570
  20713713.090                          45.100          37.900
 128013951.828 5  99751069.28442                  24360220.266
  24360226.277                          35.800          17.800
 105282753.252 7  81886629.114 6                  19695306.875    19695306.105
  19695312.383                          42.300          40.000
 120149794.515 7  93623153.37844                  22863719.242
  22863725.563                          42.200          29.200
 109515175.523 7  85336540.82546                  20840037.500
  20840040.891                          44.700          38.800
 123825353.964 5  96308602.439 5                  23139726.633    23139726.398
  23139732.168                          32.800          35.600
 105279253.557 7  81883962.659 6                  19680839.516    19680838.246
  19680846.395                          47.000          39.700
 107752819.408 7  83963325.33646                  20504673.828
  20504679.504                          47.200          39.400
 125606961.642 6                  93797419.422 6  23902209.977
                  23902213.969          37.600                          41.800
 124170055.765 7                  92724439.177 8  23628764.867
                  23628768.848          46.200                          50.900
 113686297.974 7                  84895622.258 7  21633781.453
                  21633783.051          43.600                          45.800
 132488368.692 6                  98936143.239 7  25211697.055
                  25211703.891          41.600                          45.000
 143723680.212 5                 107326154.956 5  27349703.555
                  27349708.594          32.000                          35.100
 118834006.907 7                  88739696.092 7  22613360.703
                  22613365.680          44.100                          47.400
 118419028.587 7                  88429844.842 8  22534383.805
                  22534389.352          45.400                          48.000
 19  7  9 10 45 23.0000000  0 21G06G29R24R08R02G30G13G07R01G15G02R17
                                R23G05E12E04E11E36E19E14E09
 124456584.549 5  96979262.57743  92938456.841 7  23683312.523
  23683320.828    23683322.828          34.600          22.500          45.900
 116521452.780 7  90796095.80344                  22173326.320
  22173332.484                          43.100          29.300
 106179392.975 6  82583935.341 5                  19856082.094    19856082.281
  19856086.035                          39.300          33.300
 112921021.162 6  87827489.425 6                  21087196.344    21087195.691
  21087199.484                          38.700          41.400
 121207715.122 5  94272676.730 6                  22714272.953    22714271.820
  22714278.414                          35.900          37.500
 121582536.598 6  94739636.50844  90792159.492 7  23136372.727
  23136382.008    23136382.059          37.200          25.200          46.200
 108849405.104 7  84817736.85646                  20713346.063
  20713351.383                          45.400          38.000
 128014860.299 5  99751777.17343                  24360393.055
  24360398.953                          35.200          18.600
 105282960.401 6  81886790.250 6                  19695346.266    19695344.582
  19695351.219                          41.900          40.000
 120146480.106 6  93620570.71144                  22863088.953
  22863095.078                          41.700          27.800
 109516194.223 7  85337334.61746                  20840231.375
  20840234.754                          44.900          38.800
 123821277.130 5  96305431.567 5                  23138966.172    23138964.344
  23138970.707                          33.100          35.900
 105281590.453 7  81885780.230 6                  19681276.078    19681274.949
  19681283.219                          47.100          39.900
 107753065.855 7  83963517.36646                  20504720.594
  20504726.234                          47.200          39.600
 125609650.503 6                  93799427.320 6  23902721.859
                  23902725.547          38.200                          41.700
 124170995.411 7                  92725140.858 8  23628943.539
                  23628947.695          46.400                          51.000
 113686713.310 7                  84895932.425 7  21633860.547
                  21633861.941          43.200                          46.000
 132486206.793 6                  98934528.847 7  25211285.516
                  25211292.406          41.800                          45.100
 143726184.409 5                 107328025.014 5  27350180.047
                  27350185.012          31.500                          35.000
 118839507.524 7                  88743803.692 7  22614407.492
                  22614412.469          44.000                          47.600
 118417588.565 7                  88428769.502 8  22534109.781
                  22534115.539          45.300                          48.200
 19  7  9 10 45 24.0000000  0 21G06G29R24R08R02G30G13G07R01G15G02R17
                                R23G05E12E04E11E36E19E14E09
 124459745.299 5  96981725.49843  92940817.148 7  23683913.742
  23683922.047    23683924.414          34.600          21.800          45.700
 116520903.420 7  90795667.73244                  22173221.602
  22173228.027                          43.200          29.800
 106177844.721 6  82582731.171 5                  19855793.367    19855792.852
  19855796.484                          39.400          32.900
 112923628.499 6  87829517.360 6                  21087683.164    21087682.371
  21087686.227                          38.600          41.400
 121205017.166 5  94270578.327 6                  22713767.578    22713765.906
  22713773.047                          35.900          37.300
 121581844.210 6  94739096.98944  90791642.452 7  23136241.070
  23136250.313    23136250.195          37.000          26.100          46.500
 108847505.523 7  84816256.66946                  20712984.438
  20712990.793                          45.200          38.100
 128015769.308 5  99752485.48543                  24360566.242
  24360572.320                          34.600          18.600
 105283167.971 7  81886951.668 6                  19695384.789    19695383.340
  19695390.012                          42.100          40.300
 120143165.975 7  93617988.27244                  22862458.383
  22862464.035                          42.100          27.900
 109517213.355 7  85338128.74146                  20840424.977
  20840428.793                          45.200          38.800
 123817200.522 5  96302260.859 5                  23138204.078    23138202.273
  23138209.227                          32.900          35.600
 105283928.094 7  81887598.412 6                  19681713.813    19681711.934
  19681720.070                          47.200          40.100
 107753312.556 7  83963709.60246                  20504767.750
  20504773.254                          47.100          40.300
 125612339.556 6                  93801435.367 6  23903233.586
                  23903237.117          38.500                          41.700
 124171935.266 7                  92725842.695 8  23629122.320
                  23629126.500          46.400                          50.800
 113687129.087 7                  84896242.902 7  21633939.594
                  21633941.070          43.100                          46.000
 132484045.111 6                  98932914.616 7  25210874.258
                  25210881.004          41.400                          45.000
 143728688.657 5                 107329895.008 5  27350656.438
                  27350661.676          32.000                          34.900
 118845008.447 7                  88747911.521 7  22615454.172
                  22615459.152          44.000                          47.300
 118416148.781 7                  88427694.348 8  22533835.789
                  22533841.434          45.600                          48.200
 19  7  9 10 45 25.0000000  0 21G06G29R24R08R02G30G13G07R01G15G02R17
                                R23G05E12E04E11E36E19E14E09
 124462906.260 5  96984188.58743  92943177.603 7  23684515.594
  23684523.879    23684525.680          34.800          21.700          45.800
 116520354.757 7  90795240.20745                  22173117.852
  22173123.688                          43.100          30.400
 106176297.307 6  82581527.577 5                  19855503.883    19855503.227
  19855506.605                          39.400          32.900
 112926235.943 6  87831545.415 6                  21088168.984    21088169.293
  21088173.160                          38.400          41.400
 121202319.495 5  94268480.146 6                  22713260.664    22713260.070
  22713267.875                          35.700          37.500
 121581152.372 6  94738557.90144  90791125.812 7  23136109.477
  23136118.820    23136118.520          36.900          25.900          46.700
 108845606.489 7  84814776.89946                  20712623.266
  20712628.895                          45.600          38.000
 128016678.818 5  99753194.23442                  24360738.617
  24360745.105                          35.000          17.400
 105283375.972 7  81887113.458 6                  19695422.813    19695422.277
  19695428.891                          42.600          40.400
 120139852.140 7  93615406.07544                  22861827.891
  22861833.699                          42.500          27.500
 109518233.011 7  85338923.27746                  20840619.477
  20840622.824                          45.200          39.200
 123813124.172 5  96299090.376 5                  23137442.695    23137441.313
  23137446.957                          33.300          35.900
 105286266.502 7  81889417.162 6                  19682150.656    19682149.410
  19682157.059                          47.200          40.000
 107753559.498 7  83963902.02846                  20504814.477
  20504820.090                          47.800          40.200
 125615028.805 6                  93803443.597 7  23903745.375
                  23903748.852          37.700                          42.100
 124172875.363 7                  92726544.720 8  23629301.344
                  23629305.414          46.100                          50.800
 113687545.313 7                  84896553.700 7  21634018.719
                  21634020.410          43.200                          46.200
 132481883.740 6                  98931300.588 7  25210463.023
                  25210469.648          40.900                          45.000
 143731192.842 5                 107331764.989 5  27351133.156
                  27351138.129          31.800                          34.900
 118850509.680 7                  88752019.587 7  22616500.992
                  22616505.973          43.800                          47.500
 118414709.297 7                  88426619.403 8  22533561.875
                  22533567.531          45.500                          48.500
 19  7  9 10 45 26.0000000  0 21G06G29R24R08R02G30G13G07R01G15G02R17
                                R23G05E12E04E11E36E19E14E09
 124466067.499 5  96986651.89743  92945538.259 7  23685116.773
  23685125.473    23685127.355          35.000          21.300          46.100
 116519806.778 7  90794813.20845                  22173013.359
  22173019.730                          42.900          30.400
 106174750.710 6  82580324.676 5                  19855214.953    19855214.176
  19855217.656                          39.500          32.900
 112928843.596 6  87833573.545 7                  21088656.945    21088656.316
  21088660.109                          38.500          42.000
 121199622.190 5  94266382.252 6                  22712755.805    22712754.438
  22712762.250                          35.900          37.800
 121580461.064 6  94738019.22944  90790609.582 7  23135978.070
  23135987.270    23135987.023          36.500          25.800          47.000
 108843708.036 7  84813297.58546                  20712261.633
  20712267.887                          45.800          38.500
 128017588.930 5  99753903.39742                  24360911.969
  24360918.316                          34.300          17.800
 105283584.401 7  81887275.583 6                  19695462.281    19695461.277
  19695468.207                          42.500          40.300
 120136538.603 7  93612824.09844                  22861197.320
  22861203.188                          42.200          27.400
 109519253.189 7  85339718.22946                  20840813.711
  20840817.035                          45.100          39.000
 123809048.134 5  96295920.130 5                  23136681.852    23136679.176
  23136685.395                          33.000          35.900
 105288605.707 7  81891236.549 6                  19682587.711    19682586.676
  19682594.477                          47.300          39.900
 107753806.738 7  83964094.68346                  20504861.641
  20504867.227                          47.300          40.000
 125617718.346 6                  93805452.001 7  23904256.688
                  23904260.742          37.000                          42.300
 124173815.722 7                  92727246.936 8  23629480.266
                  23629484.418          46.200                          50.700
 113687961.956 7                  84896864.853 7  21634097.953
                  21634099.641          43.100                          46.000
 132479722.607 6                  98929686.761 7  25210051.875
                  25210058.516          41.100                          44.700
 143733697.011 5                 107333635.028 5  27351610.055
                  27351614.918          31.300                          34.700
 118856011.283 7                  88756127.935 7  22617547.922
                  22617552.914          43.800                          47.500
 118413270.088 7                  88425544.666 8  22533287.875
                  22533293.578          45.200                          48.100
 19  7  9 10 45 27.0000000  0 21G06G29R24R08R02G30G13G07R01G15G02R17
                                R23G05E12E04E11E36E19E14E09
 124469228.997 5  96989115.40543  92947899.100 7  23685717.930
  23685726.660    23685729.063          34.600          21.500          45.900
 116519259.474 7  90794386.74145                  22172909.180
  22172915.648                          43.100          31.400
 106173204.927 6  82579122.455 5                  19854925.305    19854925.281
  19854928.184                          39.600          33.200
 112931451.372 6  87835601.838 6                  21089143.852    21089143.387
  21089147.066                          38.700          41.700
 121196925.153 5  94264284.584 6                  22712250.297    22712248.859
  22712256.973                          35.600          37.500
 121579770.307 6  94737480.95444  90790093.774 7  23135846.297
  23135855.711    23135855.668          36.600          25.100          46.900
 108841810.146 7  84811818.71546                  20711900.766
  20711906.422                          46.000          38.500
 128018499.509 5  99754612.95942                  24361085.391
  24361091.957                          34.000          17.800
 105283793.248 7  81887437.991 6                  19695500.898    19695500.270
  19695506.953                          42.600          40.300
 120133225.361 7  93610242.33844                  22860566.070
  22860573.125                          42.000          27.100
 109520273.876 7  85340513.56746                  20841007.516
  20841011.344                          44.500          38.700
 123804972.374 5  96292750.092 5                  23135920.188    23135917.184
  23135923.426                          33.100          35.600
 105290945.710 7  81893056.570 6                  19683024.867    19683024.207
  19683032.004                          47.500          39.900
 107754054.228 7  83964287.53046                  20504909.398
  20504914.680                          47.500          39.900
 125620408.087 6                  93807460.575 7  23904769.008
                  23904772.535          37.000                          42.400
 124174756.322 7                  92727949.331 8  23629659.273
                  23629663.305          46.400                          50.700
 113688379.094 7                  84897176.340 7  21634177.617
                  21634178.918          43.400                          45.900
 132477561.742 6                  98928073.138 7  25209640.531
                  25209647.301          41.100                          44.900
 143736201.163 5                 107335505.065 5  27352086.398
                  27352091.473          32.000                          35.000
 118861513.174 7                  88760236.507 7  22618595.047
                  22618599.789          44.100                          47.600
 118411831.151 7                  88424470.137 8  22533014.086
                  22533019.727          45.100                          48.300
 19  7  9 10 45 28.0000000  0 21G06G29R24R08R02G30G13G07R01G15G02R17
                                R23G05E12E04E11E36E19E14E09
 124472390.705 5  96991579.06743  92950260.113 7  23686319.938
  23686328.402    23686330.594          35.200          21.300          46.100
 116518712.859 7  90793960.80445                  22172805.375
  22172811.430                          43.300          30.600
 106171659.996 6  82577920.834 5                  19854635.641    19854635.922
  19854639.664                          39.200          33.000
 112934059.328 6  87837630.237 6                  21089632.031    21089630.441
  21089634.086                          38.600          41.600
 121194228.485 5  94262187.130 6                  22711745.109    22711743.063
  22711751.484                          35.400          37.500
 121579080.198 6  94736943.22344  90789578.395 7  23135714.961
  23135724.141    23135724.309          36.300          25.200          46.600
 108839912.829 7  84810340.29146                  20711539.516
  20711545.363                          45.500          38.000
 128019410.647 5  99755322.91243                  24361258.344
  24361265.215                          34.000          19.000
 105284002.528 7  81887600.781 6                  19695540.922    19695539.332
  19695546.359                          42.500          40.400
 120129912.447 7  93607660.84744                  22859935.984
  22859942.215                          42.200          27.700
 109521295.078 7  85341309.30546                  20841202.094
  20841205.488                          44.600          38.900
 123800896.851 5  96289580.269 5                  23135157.398    23135155.805
  23135161.930                          32.400          35.700
 105293286.520 7  81894877.184 6                  19683462.758    19683461.840
  19683469.699                          47.700          39.600
 107754302.022 7  83964480.61346                  20504955.789
  20504961.750                          47.600          39.500
 125623098.081 6                  93809469.335 7  23905280.969
                  23905284.383          37.400                          42.100
 124175697.181 7                  92728651.915 8  23629838.398
                  23629842.398          46.600                          50.700
 113688796.664 7                  84897488.174 7  21634256.859
                  21634258.391          43.600                          45.800
 132475401.130 6                  98926459.705 7  25209229.305
                  25209236.109          41.200                          45.000
 143738705.365 5                 107337375.004 5  27352563.055
                  27352567.672          31.500                          34.500
 118867015.444 7                  88764345.329 7  22619642.078
                  22619646.777          44.000                          47.600
 118410392.478 7                  88423395.812 8  22532740.289
                  22532746.082          45.500                          48.100
 19  7  9 10 45 29.0000000  0 21G06G29R24R08R02G30G13G07R01G15G02R17
                                R23G05E12E04E11E36E19E14E09
 124475552.591 5  96994042.89143  92952621.278 7  23686921.922
  23686930.363    23686932.188          34.700          21.300          45.800
 116518166.829 7  90793535.32745                  22172700.484
  22172707.406                          43.200          30.500
 106170115.819 6  82576719.749 5                  19854348.195    19854347.090
  19854350.648                          39.800          32.700
 112936667.339 6  87839658.698 6                  21090118.000    21090117.887
  21090121.145                          38.800          41.200
 121191532.039 5  94260089.890 6                  22711239.492    22711237.609
  22711246.000                          34.800          37.500
 121578390.447 6  94736405.74544  90789063.345 7  23135583.586
  23135592.730    23135593.133          36.400          25.800          46.400
 108838015.966 7  84808862.20946                  20711178.555
  20711184.422                          45.500          38.200
 128020322.244 5  99756033.23343                  24361432.398
  24361438.559                          33.600          18.600
 105284212.107 7  81887763.804 6                  19695579.008    19695578.824
  19695585.465                          42.200          40.500
 120126599.726 6  93605079.51544                  22859305.578
  22859311.602                          41.900          27.500
 109522316.683 7  85342105.36346                  20841396.648
  20841399.875                          44.900          39.200
 123796821.566 5  96286410.604 5                  23134396.023    23134394.734
  23134400.215                          32.500          35.700
 105295628.036 7  81896698.351 6                  19683901.258    19683899.473
  19683907.082                          47.400          39.600
 107754549.951 7  83964673.80846                  20505003.227
  20505009.117                          47.300          39.700
 125625788.203 6                  93811478.188 6  23905792.633
                  23905796.379          37.900                          41.700
 124176638.193 7                  92729354.618 8  23630017.641
                  23630021.551          46.800                          50.900
 113689214.623 7                  84897800.273 7  21634336.570
                  21634338.020          42.900                          46.000
 132473240.734 6                  98924846.405 7  25208818.242
                  25208824.863          41.200                          45.400
 143741209.456 5                 107339244.936 5  27353039.758
                  27353044.313          30.900                          34.600
 118872517.931 7                  88768454.331 7  22620689.211
                  22620694.004          44.100                          47.200
 118408954.012 7                  88422321.626 8  22532466.609
                  22532472.258          45.400                          48.200
 19  7  9 10 45 30.0000000  0 21G06G29R24R08R02G30G13G07R01G15G02R17
                                R23G05E12E04E11E36E19E14E09
 124478714.504 5  96996506.69243  92954982.419 7  23687523.180
  23687532.023    23687533.875          34.900          22.200          45.800
 116517621.234 7  90793110.19345                  22172597.273
  22172603.762                          43.800          30.600
 106168572.225 6  82575519.234 5                  19854060.328    19854058.801
  19854061.844                          39.700          32.800
 112939275.229 6  87841687.083 6                  21090604.875    21090604.270
  21090607.906                          38.300          41.500
 121188835.603 5  94257992.700 6                  22710734.234    22710732.727
  22710740.953                          35.300          38.100
 121577701.039 6  94735868.56844  90788548.529 7  23135453.039
  23135461.770    23135461.961          36.800          26.000          46.400
 108836119.425 7  84807384.38946                  20710817.813
  20710823.668                          44.800          37.400
 128021234.153 5  99756743.81843                  24361605.781
  24361612.477                          33.800          18.300
 105284421.911 7  81887926.967 6                  19695618.266    19695618.152
  19695624.668                          42.100          40.400
 120123287.055 6  93602498.20344                  22858675.453
  22858681.469                          41.700          27.200
 109523338.540 7  85342901.61046                  20841590.492
  20841594.293                          44.900          39.100
 123792746.268 5  96283240.934 5                  23133634.156    23133632.539
  23133638.652                          32.600          35.900
 105297970.077 7  81898519.956 6                  19684338.398    19684337.082
  19684344.801                          47.400          39.500
 107754797.918 7  83964867.02846                  20505050.336
  20505056.262                          47.500          40.000
 125628478.295 6                  93813487.044 6  23906304.563
                  23906308.215          37.600                          41.200
 124177579.201 7                  92730057.328 8  23630196.445
                  23630200.539          46.900                          51.000
 113689632.738 7                  84898112.515 7  21634415.914
                  21634417.578          43.100                          46.000
 132471080.347 6                  98923233.120 7  25208407.234
                  25208413.980          41.100                          45.300
 143743713.258 5                 107341114.664 5  27353516.336
                  27353520.734          31.500                          34.700
 118878020.536 7                  88772563.411 7  22621736.125
                  22621741.023          43.700                          47.500
 118407515.559 7                  88421247.464 8  22532192.875
                  22532198.535          45.400                          48.100
 19  7  9 10 45 31.0000000  0 21G06G29R24R08R02G30G13G07R01G15G02R17
                                R23G05E12E04E11E36E19E14E09
 124481876.894 5  96998970.90943  92957343.957 7  23688125.398
  23688133.316    23688135.691          34.600          21.700          45.500
 116517076.609 7  90792685.80844                  22172493.266
  22172499.973                          43.400          29.600
 106167029.794 6  82574319.491 5                  19853770.906    19853770.414
  19853773.828                          39.700          33.200
 112941883.550 6  87843715.739 6                  21091093.133    21091091.379
  21091095.285                          38.800          40.900
 121186139.762 5  94255895.941 6                  22710229.125    22710228.016
  22710235.703                          35.200          37.600
 121577012.459 6  94735332.00444  90788034.326 7  23135321.055
  23135330.684    23135330.918          37.200          24.900          46.500
 108834223.726 7  84805907.21946                  20710456.891
  20710462.570                          44.700          37.600
 128022146.843 5  99757454.98643                  24361779.336
  24361785.699                          33.800          18.300
 105284632.398 7  81888090.698 6                  19695658.422    19695657.301
  19695664.262                          42.100          40.200
 120119974.967 6  93599917.35844                  22858045.359
  22858051.453                          41.800          27.600
 109524361.197 7  85343698.49146                  20841785.914
  20841788.820                          44.600          38.800
 123788671.538 5  96280071.736 5                  23132871.430    23132871.008
  23132877.168                          32.700          35.900
 105300313.205 7  81900342.364 6                  19684776.531    19684775.262
  19684783.133                          47.300          39.200
 107755046.467 7  83965060.70346                  20505097.781
  20505103.477                          47.100          39.700
 125631168.939 6                  93815496.288 6  23906816.961
                  23906820.227          37.800                          41.100
 124178520.749 7                  92730760.434 8  23630375.555
                  23630379.746          46.800                          50.900
 113690051.606 7                  84898425.293 7  21634495.758
                  21634497.234          43.300                          46.000
 132468920.478 6                  98921620.231 7  25207996.367
                  25208002.777          41.100                          45.300
 143746217.328 5                 107342984.605 5  27353992.492
                  27353997.242          31.700                          34.700
 118883523.728 7                  88776672.937 7  22622783.758
                  22622788.250          43.900                          47.600
 118406077.676 7                  88420173.723 8  22531918.977
                  22531924.977          45.900                          48.100
 19  7  9 10 45 32.0000000  0 21G06G29R24R08R02G30G13G07R01G15G02R17
                                R23G05E12E04E11E36E19E14E09
 124485039.566 5  97001435.32243  92959705.722 7  23688726.078
  23688735.348    23688737.352          34.600          22.000          45.400
 116516532.696 7  90792261.97844                  22172390.414
  22172396.531                          43.000          29.900
 106165488.245 6  82573120.559 5                  19853483.047    19853482.105
  19853485.207                          39.300          33.500
 112944491.986 6  87845744.552 6                  21091579.625    21091578.645
  21091582.402                          38.400          41.200
 121183444.213 5  94253799.435 6                  22709724.227    22709722.883
  22709730.563                          35.200          38.100
 121576324.468 6  94734795.90544  90787520.563 7  23135190.375
  23135199.859    23135199.977          37.300          24.800          46.300
 108832328.635 7  84804430.52546                  20710095.914
  20710102.102                          44.800          37.600
 128023060.106 5  99758166.62842                  24361953.766
  24361959.848                          33.600          17.400
 105284843.368 7  81888254.754 6                  19695698.047    19695696.785
  19695703.711                          42.200          40.300
 120116663.183 7  93597336.75344                  22857415.258
  22857421.148                          42.300          28.200
 109525384.379 7  85344495.77346                  20841980.211
  20841983.570                          44.500          38.400
 123784597.169 5  96276902.756 5                  23132109.727    23132109.445
  23132115.707                          33.100          35.900
 105302657.171 7  81902165.441 6                  19685215.102    19685213.340
  19685221.293                          46.800          39.600
 107755295.303 7  83965254.60146                  20505145.266
  20505151.090                          47.200          39.900
 125633859.831 6                  93817505.681 6  23907328.641
                  23907332.168          37.200                          41.600
 124179462.570 7                  92731463.732 8  23630554.664
                  23630559.012          46.100                          50.800
 113690470.957 7                  84898738.434 7  21634575.711
                  21634577.090          43.200                          45.900
 132466760.930 6                  98920007.578 7  25207585.258
                  25207591.945          41.300                          45.200
 143748721.462 5                 107344854.552 5  27354468.984
                  27354473.801          31.300                          34.600
 118889027.305 7                  88780782.743 7  22623831.078
                  22623835.535          44.000                          47.300
 118404640.103 7                  88419100.206 8  22531645.469
                  22531651.332          45.500                          48.300
 19  7  9 10 45 33.0000000  0 21G06G29R24R08R02G30G13G07R01G15G02R17
                                R23G05E12E04E11E36E19E14E09
 124488202.451 5  97003899.91543  92962067.603 7  23689328.250
  23689337.156    23689339.289          35.000          21.100          45.500
 116515989.415 7  90791838.63045                  22172286.461
  22172293.031                          42.900          30.200
 106163947.457 6  82571922.154 5                  19853193.734    19853194.039
  19853197.711                          39.500          32.900
 112947100.525 6  87847773.414 6                  21092065.391    21092065.535
  21092069.465                          38.200          41.700
 121180748.890 5  94251703.039 6                  22709220.727    22709217.648
  22709225.305                          35.600          37.600
 121575636.965 6  94734260.17744  90787007.164 7  23135060.273
  23135069.293    23135069.121          37.000          24.900          46.400
 108830434.018 7  84802954.20746                  20709735.766
  20709741.684                          44.900          37.900
 128023973.893 5  99758878.70342                  24362127.586
  24362133.879                          33.800          17.400
 105285054.682 7  81888419.121 6                  19695737.906    19695736.457
  19695743.133                          42.000          40.600
 120113351.668 7  93594756.34644                  22856784.914
  22856791.094                          42.300          27.900
 109526408.012 7  85345293.41046                  20842174.477
  20842177.910                          44.100          38.600
 123780522.994 5  96273733.960 5                  23131349.906    23131347.891
  23131354.246                          33.300          35.400
 105305001.834 7  81903989.073 6                  19685652.875    19685651.676
  19685659.457                          46.900          39.500
 107755544.351 7  83965448.66546                  20505192.469
  20505198.332                          47.200          39.600
 125636550.874 6                  93819515.233 6  23907840.734
                  23907844.285          37.700                          41.300
 124180404.572 7                  92732167.183 8  23630734.195
                  23630738.250          45.900                          50.800
 113690890.666 7                  84899051.870 7  21634655.219
                  21634656.844          43.000                          45.900
 132464601.567 6                  98918395.062 7  25207174.227
                  25207181.082          41.200                          45.100
 143751225.541 5                 107346724.461 5  27354945.461
                  27354950.508          31.300                          34.700
 118894531.091 7                  88784892.741 7  22624878.070
                  22624882.883          44.500                          47.200
 118403202.740 7                  88418026.846 8  22531371.977
                  22531377.875          45.300                          48.300
 19  7  9 10 45 34.0000000  0 21G06G29R24R08R02G30G13G07R01G15G02R17
                                R23G05E12E04E11E36E19E14E09
 124491365.559 5  97006364.67043  92964429.653 7  23689930.938
  23689939.203    23689941.145          34.500          21.500          45.500
 116515446.774 7  90791415.79544                  22172183.500
  22172189.852                          42.900          29.500
 106162407.535 6  82570724.467 5                  19852907.500    19852905.996
  19852909.879                          39.900          32.900
 112949709.225 6  87849802.383 6                  21092553.266    21092552.871
  21092556.602                          38.000          41.600
 121178053.883 5  94249606.909 6                  22708715.164    22708712.531
  22708720.590                          35.600          37.900
 121574949.993 6  94733724.85544  90786494.178 7  23134929.219
  23134938.441    23134938.301          36.700          25.200          46.600
 108828539.973 7  84801478.32446                  20709375.102
  20709381.223                          45.200          38.200
 128024888.157 5  99759591.07343                  24362301.461
  24362308.016                          34.300          18.300
 105285266.421 7  81888583.823 6                  19695776.336    19695776.012
  19695782.965                          42.300          40.900
 120110040.443 7  93592176.18244                  22856154.969
  22856161.152                          42.500          27.100
 109527432.136 7  85346091.42946                  20842369.727
  20842373.379                          44.000          38.900
 123776449.031 5  96270565.294 5                  23130588.742    23130587.195
  23130592.848                          33.600          35.000
 105307347.271 7  81905813.294 6                  19686091.508    19686090.098
  19686098.074                          46.300          39.600
 107755793.653 7  83965642.92746                  20505239.813
  20505245.578                          47.300          39.600
 125639242.147 6                  93821524.966 6  23908352.930
                  23908356.277          38.300                          41.100
 124181346.815 7                  92732870.807 8  23630913.391
                  23630917.547          46.100                          50.800
 113691310.831 7                  84899365.629 7  21634735.227
                  21634736.754          43.300                          46.100
 132462442.459 6                  98916782.762 7  25206763.469
                  25206770.047          41.100                          45.400
 143753729.560 5                 107348594.348 5  27355421.805
                  27355426.977          31.500                          34.400
 118900035.263 7                  88789002.979 7  22625925.359
                  22625930.293          44.600                          47.400
 118401765.655 7                  88416953.692 8  22531098.688
                  22531104.414          45.400                          48.400
 19  7  9 10 45 35.0000000  0 21G06G29R24R08R02G30G13G07R01G15G02R17
                                R23G05E12E04E11E36E19E14E09
 124494528.703 5  97008829.46543  92966791.750 7  23690532.781
  23690540.867    23690543.152          34.600          20.600          45.600
 116514904.622 7  90790993.34644                  22172080.078
  22172086.648                          42.900          29.800
 106160868.249 6  82569527.221 5                  19852619.313    19852618.184
  19852621.984                          39.400          32.700
 112952317.895 6  87851831.326 6                  21093040.063    21093039.996
  21093043.820                          38.100          41.600
 121175358.891 5  94247510.844 6                  22708209.430    22708207.781
  22708215.371                          35.000          38.600
 121574263.388 6  94733189.85944  90785981.447 7  23134798.836
  23134807.832    23134807.648          37.100          25.700          46.300
 108826646.288 7  84800002.72346                  20709015.422
  20709020.773                          45.200          38.400
 128025802.757 5  99760303.75743                  24362475.148
  24362482.191                          34.300          18.600
 105285478.404 7  81888748.691 6                  19695817.133    19695815.801
  19695822.496                          42.300          40.600
 120106729.288 7  93589596.05344                  22855524.586
  22855530.625                          42.400          27.300
 109528456.553 7  85346889.67146                  20842564.508
  20842568.141                          44.200          39.000
 123772375.156 5  96267396.724 5                  23129826.570    23129825.844
  23129831.234                          33.600          35.100
 105309693.295 7  81907638.001 6                  19686529.828    19686528.676
  19686536.664                          46.000          39.400
 107756043.024 7  83965837.24046                  20505287.211
  20505293.219                          47.300          39.500
 125641933.432 6                  93823534.697 6  23908865.148
                  23908868.328          37.900                          41.100
 124182289.109 7                  92733574.454 8  23631092.867
                  23631096.852          46.000                          50.600
 113691731.259 7                  84899679.579 7  21634815.320
                  21634816.875          42.800                          46.100
 132460283.404 6                  98915170.482 7  25206352.609
                  25206359.273          41.200                          45.100
 143756233.378 5                 107350464.056 5  27355898.344
                  27355903.281          31.100                          34.300
 118905539.528 7                  88793113.306 7  22626972.922
                  22626977.707          44.500                          47.200
 118400328.630 7                  88415880.597 8  22530825.313
                  22530830.926          45.400                          48.500
 19  7  9 10 45 36.0000000  0 21G06G29R24R08R02G30G13G07R01G15G02R17
                                R23G05E12E04E11E36E19E14E09
 124497692.246 5  97011294.55643  92969154.124 7  23691135.008
  23691143.109    23691144.922          34.600          21.500          45.600
 116514363.268 7  90790571.51144                  22171977.305
  22171983.406                          43.100          29.900
 106159329.924 6  82568330.788 5                  19852331.789    19852330.637
  19852333.996                          39.700          32.700
 112954926.839 6  87853860.530 6                  21093527.563    21093527.262
  21093530.895                          38.400          41.500
 121172664.445 5  94245415.128 6                  22707703.516    22707702.875
  22707710.469                          35.400          38.400
 121573577.434 6  94732655.34644  90785469.217 7  23134667.359
  23134676.738    23134676.996          36.300          25.700          46.300
 108824753.301 7  84798527.67246                  20708655.305
  20708660.547                          45.300          38.300
 128026718.051 5  99761016.96543                  24362650.297
  24362656.012                          34.400          18.300
 105285690.947 7  81888913.994 6                  19695856.063    19695855.574
  19695862.359                          42.500          40.200
 120103418.572 7  93587016.27244                  22854894.742
  22854900.969                          42.200          27.200
 109529481.631 7  85347688.43246                  20842759.727
  20842763.695                          44.200          39.200
 123768301.701 5  96264228.512 5                  23129066.453    23129064.250
  23129070.078                          33.800          35.400
 105312040.229 7  81909463.382 6                  19686968.297    19686967.355
  19686975.367                          46.200          39.800
 107756292.801 7  83966031.87246                  20505334.797
  20505340.953                          47.100          39.900
 125644625.108 6                  93825544.703 6  23909377.063
                  23909380.496          38.600                          40.800
 124183231.776 7                  92734278.416 8  23631271.820
                  23631276.234          45.900                          50.800
 113692152.258 7                  84899993.949 7  21634895.508
                  21634896.898          43.300                          46.100
 132458124.780 6                  98913558.507 7  25205942.141
                  25205948.500          41.200                          45.300
 143758737.337 5                 107352333.942 5  27356374.664
                  27356379.961          31.300                          34.400
 118911044.264 7                  88797223.994 7  22628020.516
                  22628025.137          44.600                          47.400
 118398892.011 7                  88414807.795 8  22530551.852
                  22530557.484          45.300                          48.000
 19  7  9 10 45 37.0000000  0 21G06G29R24R08R02G30G13G07R01G15G02R17
                                R23G05E12E04E11E36E19E14E09
 124500856.101 5  97013759.91243  92971516.726 7  23691736.188
  23691745.289    23691747.055          35.000          21.300          45.400
 116513822.687 7  90790150.27345                  22171874.281
  22171880.418                          42.500          30.200
 106157792.529 6  82567134.979 5                  19852044.539    19852043.270
  19852046.250                          39.800          32.500
 112957536.053 6  87855889.892 6                  21094015.836    21094014.293
  21094018.148                          38.400          41.300
 121169970.327 5  94243319.722 6                  22707198.789    22707197.727
  22707205.441                          35.000          38.400
 121572892.170 6  94732121.38844  90784957.471 7  23134537.648
  23134546.648    23134546.629          36.400          25.300          46.200
 108822860.931 7  84797053.09946                  20708294.664
  20708300.395                          45.200          37.900
 128027633.933 5  99761730.63443                  24362824.211
  24362830.102                          34.400          18.600
 105285903.972 7  81889079.692 6                  19695896.070    19695895.441
  19695902.145                          42.400          40.300
 120100108.235 7  93584436.78644                  22854264.703
  22854270.930                          42.500          25.800
 109530507.250 7  85348487.62146                  20842954.969
  20842958.648                          43.800          39.500
 123764228.654 5  96261060.564 5                  23128304.578    23128303.195
  23128308.586                          33.900          35.300
 105314388.005 7  81911289.456 6                  19687407.547    19687406.348
  19687414.223                          46.100          39.600
 107756542.883 7  83966226.74446                  20505382.391
  20505388.414                          46.700          40.300
 125647317.050 6                  93827554.949 6  23909889.422
                  23909892.715          38.200                          41.300
 124184174.758 7                  92734982.579 8  23631451.453
                  23631455.656          45.700                          50.900
 113692573.756 7                  84900308.714 7  21634975.594
                  21634977.137          43.100                          46.000
 132455966.434 6                  98911946.766 7  25205531.375
                  25205537.785          41.400                          45.400
 143761241.323 5                 107354203.823 5  27356850.891
                  27356856.246          31.300                          34.300
 118916549.402 7                  88801334.962 7  22629067.891
                  22629072.813          44.500                          47.500
 118397455.743 7                  88413735.261 8  22530278.594
                  22530284.133          45.100                          48.400
 19  7  9 10 45 38.0000000  0 21G06G29R24R08R02G30G13G07R01G15G02R17
                                R23G05E12E04E11E36E19E14E09
 124504020.095 5  97016225.36243  92973879.485 7  23692338.859
  23692346.762    23692349.148          34.600          20.900          45.400
 116513282.729 7  90789729.52545                  22171771.797
  22171777.859                          42.500          30.100
 106156255.924 6  82565939.830 5                  19851757.055    19851756.277
  19851758.969                          39.600          32.600
 112960145.292 6  87857919.284 6                  21094502.039    21094501.527
  21094505.578                          38.100          41.600
 121167276.530 5  94241224.535 6                  22706695.289    22706693.172
  22706700.637                          35.700          38.300
 121572207.369 6  94731587.77244  90784446.117 7  23134407.719
  23134416.469    23134416.250          36.600          26.200          46.000
 108820969.102 7  84795578.94346                  20707934.688
  20707940.453                          45.100          38.100
 128028550.281 5  99762444.66943                  24362998.336
  24363004.453                          34.600          18.600
 105286117.384 7  81889245.676 6                  19695935.750    19695935.191
  19695942.016                          42.000          40.200
 120096798.151 7  93581857.51344                  22853634.602
  22853640.984                          42.500          26.200
 109531533.367 7  85349287.19646                  20843150.563
  20843154.180                          43.800          39.500
 123760155.689 5  96257892.730 5                  23127543.867    23127541.898
  23127547.535                          33.800          35.300
 105316736.543 7  81913116.069 6                  19687846.508    19687845.379
  19687853.324                          46.300          39.900
 107756793.216 7  83966421.80246                  20505430.039
  20505435.863                          46.900          39.400
 125650009.233 6                  93829565.314 6  23910401.727
                  23910405.137          38.300                          41.200
 124185117.928 7                  92735686.897 8  23631630.898
                  23631635.074          45.800                          50.700
 113692995.646 7                  84900623.763 7  21635056.141
                  21635057.508          43.200                          46.000
 132453808.346 6                  98910335.201 7  25205120.445
                  25205127.137          41.700                          45.500
 143763745.271 5                 107356073.688 5  27357327.578
                  27357332.734          31.700                          34.500
 118922054.814 7                  88805446.156 7  22630115.609
                  22630120.477          44.700                          47.200
 118396019.695 7                  88412662.884 8  22530005.242
                  22530010.938          44.900                          48.200
 19  7  9 10 45 39.0000000  0 21G06G29R24R08R02G30G13G07R01G15G02R17
                                R23G05E12E04E11E36E19E14E09
 124507184.382 5  97018691.05243  92976242.430 7  23692940.445
  23692949.348    23692951.137          34.500          20.400          44.900
 116512743.448 7  90789309.30645                  22171669.109
  22171675.430                          42.700          30.400
 106154720.147 6  82564745.366 5                  19851469.602    19851469.180
  19851471.703                          39.900          32.500
 112962754.644 6  87859948.829 6                  21094989.172    21094989.082
  21094992.715                          38.600          41.600
 121164582.982 6  94239129.601 6                  22706189.906    22706188.938
  22706195.996                          36.300          38.300
 121571523.122 6  94731054.58544  90783935.151 7  23134276.914
  23134286.141    23134286.059          36.800          26.100          46.300
 108819077.824 7  84794105.22546                  20707574.813
  20707580.855                          45.200          37.700
 128029467.208 5  99763159.17843                  24363173.219
  24363178.578                          34.600          18.600
 105286331.233 7  81889412.007 6                  19695975.805    19695975.105
  19695982.004                          42.300          40.400
 120093488.354 7  93579278.44944                  22853004.336
  22853011.289                          42.200          27.200
 109532559.959 7  85350087.13446                  20843345.148
  20843349.016                          44.100          38.600
 123756083.103 5  96254725.136 5                  23126784.375    23126780.926
  23126786.730                          32.800          35.400
 105319085.863 7  81914943.333 6                  19688285.859    19688284.684
  19688292.359                          46.400          39.700
 107757043.823 7  83966617.08046                  20505477.969
  20505483.629                          46.800          39.900
 125652701.615 6                  93831575.855 6  23910914.141
                  23910917.406          38.700                          41.300
 124186061.391 7                  92736391.419 8  23631810.492
                  23631814.609          46.200                          50.600
 113693418.024 7                  84900939.179 7  21635136.523
                  21635137.938          43.200                          45.900
 132451650.499 6                  98908723.844 7  25204709.969
                  25204716.355          41.600                          45.300
 143766249.179 5                 107357943.468 5  27357804.219
                  27357809.438          31.100                          34.600
 118927560.584 7                  88809557.599 7  22631163.383
                  22631168.027          44.400                          47.400
 118394583.935 7                  88411590.729 7  22529732.242
                  22529737.645          45.000                          47.800
 19  7  9 10 45 40.0000000  0 21G06G29R24R08R02G30G13G07R01G15G02R17
                                R23G05E12E04E11E36E19E14E09
 124510348.924 5  97021156.92543  92978605.543 7  23693543.445
  23693551.746    23693553.340          34.600          20.400          45.200
 116512204.805 7  90788889.58944                  22171566.359
  22171572.840                          42.900          29.900
 106153185.204 6  82563551.522 5                  19851182.844    19851181.762
  19851184.496                          40.200          32.100
 112965364.134 6  87861978.404 6                  21095476.844    21095476.098
  21095480.098                          38.700          41.400
 121161889.750 6  94237034.828 6                  22705684.656    22705684.371
  22705691.230                          36.000          38.100
 121570839.425 6  94730521.84644  90783424.587 7  23134147.078
  23134155.922    23134155.887          36.600          24.700          46.400
 108817187.103 7  84792631.93946                  20707214.984
  20707220.813                          45.200          37.600
 128030384.642 5  99763874.06342                  24363346.867
  24363353.750                          34.600          17.800
 105286545.495 7  81889578.651 6                  19696016.453    19696015.402
  19696022.008                          42.100          40.400
 120090178.853 7  93576699.61244                  22852375.359
  22852381.250                          42.000          26.900
 109533587.041 7  85350887.46646                  20843541.094
  20843544.625                          44.300          38.600
 123752010.772 5  96251557.753 5                  23126023.719    23126020.410
  23126025.328                          33.200          35.300
 105321435.957 7  81916771.187 6                  19688725.164    19688723.871
  19688731.668                          46.300          39.500
 107757294.653 7  83966812.52946                  20505525.453
  20505531.535                          46.300          40.200
 125655394.190 6                  93833586.573 6  23911426.875
                  23911429.758          39.100                          41.400
 124187005.017 7                  92737096.092 8  23631989.836
                  23631994.227          46.300                          50.300
 113693840.797 7                  84901254.895 7  21635216.945
                  21635218.348          43.000                          46.000
 132449492.905 6                  98907112.665 7  25204299.602
                  25204305.828          41.800                          45.200
 143768753.145 5                 107359813.285 5  27358281.070
                  27358285.629          31.100                          34.300
 118933066.631 7                  88813669.272 7  22632211.070
                  22632215.813          44.600                          47.700
 118393148.429 7                  88410518.757 7  22529459.203
                  22529464.551          45.200                          47.800
 19  7  9 10 45 41.0000000  0 21G06G29R24R08R02G30G13G07R01G15G02R17
                                R23G05E12E04E11E36E19E14E09
 124513513.702 5  97023622.97743  92980968.841 7  23694145.133
  23694153.980    23694155.559          34.600          20.600          45.000
 116511666.899 7  90788470.43444                  22171464.055
  22171470.387                          43.000          29.800
 106151651.113 6  82562358.324 5                  19850895.555    19850894.660
  19850897.934                          39.800          32.700
 112967973.742 6  87864008.163 6                  21095963.945    21095963.574
  21095967.273                          38.300          41.500
 121159196.760 5  94234940.295 6                  22705179.883    22705179.078
  22705186.582                          35.900          38.000
 121570156.281 6  94729989.52444  90782914.450 7  23134016.828
  23134025.555    23134025.969          36.900          26.000          46.300
 108815296.960 7  84791159.10346                  20706855.063
  20706861.352                          45.400          37.900
 128031302.609 5  99764589.34843                  24363522.336
  24363527.949                          34.900          19.000
 105286760.183 7  81889745.642 6                  19696056.375    19696055.582
  19696062.219                          42.000          40.200
 120086869.665 6  93574121.02944                  22851745.469
  22851751.746                          41.900          26.700
 109534614.657 7  85351688.19746                  20843736.508
  20843740.090                          44.200          38.300
 123747938.725 5  96248390.610 5                  23125261.797    23125259.922
  23125264.395                          33.200          35.200
 105323786.875 7  81918599.675 6                  19689164.680    19689163.434
  19689171.234                          46.200          39.600
 107757545.754 7  83967008.19946                  20505573.242
  20505578.840                          46.600          40.100
 125658087.039 6                  93835597.434 6  23911939.336
                  23911942.184          38.700                          41.100
 124187948.945 7                  92737800.966 8  23632169.594
                  23632173.836          46.300                          50.700
 113694264.073 7                  84901570.962 7  21635297.406
                  21635298.809          43.000                          46.000
 132447335.602 6                  98905501.666 7  25203888.867
                  25203895.277          41.800                          45.200
 143771257.072 5                 107361683.106 5  27358757.398
                  27358762.121          31.500                          34.600
 118938573.008 7                  88817781.172 7  22633258.703
                  22633263.676          44.600                          47.900
 118391713.204 7                  88409447.006 8  22529185.969
                  22529191.367          45.400                          48.100
 19  7  9 10 45 42.0000000  0 21G06G29R24R08R02G30G13G07R01G15G02R17
                                R23G05E12E04E11E36E19E14E09
 124516678.743 5  97026089.24843  92983332.329 7  23694746.914
  23694756.371    23694757.883          34.600          20.400          45.000
 116511129.662 7  90788051.80745                  22171361.477
  22171368.148                          43.000          30.200
 106150117.862 6  82561165.792 5                  19850608.938    19850608.066
  19850611.453                          39.400          32.900
 112970583.591 6  87866037.982 6                  21096451.375    21096450.910
  21096454.801                          38.600          41.200
 121156504.076 5  94232845.982 6                  22704675.227    22704674.563
  22704681.992                          35.900          38.300
 121569473.695 6  94729457.64344  90782404.738 7  23133887.445
  23133895.938    23133895.938          37.600          26.000          46.500
 108813407.386 7  84789686.70846                  20706495.656
  20706501.563                          45.200          37.800
 128032221.143 5  99765305.12943                  24363697.008
  24363703.227                          35.000          19.300
 105286975.333 7  81889912.945 6                  19696096.328    19696096.074
  19696102.605                          42.200          40.300
 120083560.773 7  93571542.68644                  22851116.023
  22851122.199                          42.100          26.900
 109535642.776 7  85352489.33146                  20843931.625
  20843936.031                          44.100          38.400
 123743867.002 5  96245223.722 5                  23124500.523    23124498.977
  23124503.813                          32.800          34.900
 105326138.596 7  81920428.788 6                  19689603.906    19689603.199
  19689610.949                          46.300          40.000
 107757797.172 7  83967204.10846                  20505621.164
  20505626.688                          46.600          40.100
 125660780.118 6                  93837608.499 6  23912452.133
                  23912454.547          38.300                          41.000
 124188893.125 7                  92738506.034 8  23632349.375
                  23632353.527          46.200                          50.800
 113694687.762 7                  84901887.366 7  21635378.031
                  21635379.555          42.700                          46.100
 132445178.568 6                  98903890.906 7  25203478.164
                  25203484.750          41.800                          45.000
 143773760.964 5                 107363552.911 5  27359234.266
                  27359238.656          31.700                          34.800
 118944079.765 7                  88821893.362 7  22634306.523
                  22634311.609          44.500                          47.500
 118390278.277 7                  88408375.462 8  22528913.055
                  22528918.320          44.900                          48.500
 19  7  9 10 45 43.0000000  0 21G06G29R24R08R02G30G13G07R01G15G02R17
                                R23G05E12E04E11E36E19E14E09
 124519843.990 5  97028555.66843  92985695.997 7  23695349.773
  23695358.430    23695360.152          34.300          21.300          45.100
 116510593.112 7  90787633.71445                  22171260.055
  22171266.363                          43.400          30.000
 106148585.435 6  82559973.902 5                  19850321.781    19850320.887
  19850324.508                          39.300          32.900
 112973193.521 6  87868067.952 6                  21096939.219    21096938.496
  21096942.090                          38.600          41.600
 121153811.645 6  94230751.899 6                  22704170.875    22704170.281
  22704177.531                          36.000          38.100
 121568791.700 6  94728926.21644  90781895.440 7  23133757.305
  23133766.609    23133766.121          37.300          24.700          46.200
 108811518.364 7  84788214.74046                  20706136.469
  20706142.336                          45.800          38.700
 128033140.184 5  99766021.25743                  24363871.250
  24363877.949                          35.200          19.000
 105287190.888 7  81890080.634 6                  19696137.086    19696135.965
  19696143.063                          42.400          40.200
 120080252.196 7  93568964.56544                  22850486.305
  22850492.645                          42.000          26.500
 109536671.401 7  85353290.85546                  20844127.641
  20844130.984                          44.500          38.700
 123739795.495 5  96242056.970 5                  23123741.836    23123737.707
  23123742.883                          32.600          35.100
 105328491.118 7  81922258.540 6                  19690043.844    19690042.996
  19690050.676                          46.700          39.800
 107758048.865 7  83967400.23646                  20505668.781
  20505674.852                          47.300          39.900
 125663473.382 6                  93839619.746 6  23912964.438
                  23912967.141          38.300                          41.100
 124189837.541 7                  92739211.288 8  23632528.945
                  23632533.145          46.300                          50.800
 113695111.922 7                  84902204.109 7  21635458.797
                  21635460.262          42.800                          46.000
 132443021.794 7                  98902280.328 7  25203067.773
                  25203074.379          42.100                          45.100
 143776264.887 5                 107365422.721 5  27359710.539
                  27359715.246          31.800                          34.400
 118949586.838 7                  88826005.773 7  22635354.688
                  22635359.484          44.400                          47.600
 118388843.642 7                  88407304.141 8  22528639.906
                  22528645.285          45.300                          48.200
 19  7  9 10 45 44.0000000  0 21G06G29R24R08R02G30G13G07R01G15G02R17
                                R23G05E12E04E11E36E19E14E09
 124523009.450 5  97031022.27743  92988059.841 7  23695952.781
  23695960.980    23695962.375          34.100          21.100          44.900
 116510057.197 7  90787216.11645                  22171157.570
  22171163.910                          43.500          30.400
 106147053.868 6  82558782.643 5                  19850035.781    19850034.910
  19850038.191                          39.000          33.200
 112975803.588 6  87870098.014 6                  21097425.344    21097425.723
  21097429.313                          38.500          41.400
 121151119.531 5  94228657.998 6                  22703667.016    22703665.977
  22703673.109                          35.900          38.000
 121568110.152 6  94728395.12644  90781386.519 7  23133627.492
  23133636.484    23133636.531          37.000          24.500          46.200
 108809629.882 7  84786743.19246                  20705776.836
  20705782.734                          45.900          38.200
 128034059.781 5  99766737.81143                  24364046.719
  24364053.285                          35.400          18.300
 105287406.833 7  81890248.569 6                  19696177.484    19696176.809
  19696183.277                          42.400          40.100
 120076943.874 7  93566386.65344                  22849856.688
  22849862.758                          42.300          27.800
 109537700.476 7  85354092.73346                  20844324.141
  20844327.438                          44.500          39.100
 123735724.215 5  96238890.433 5                  23122979.852    23122976.707
  23122982.020                          32.800          34.600
 105330844.369 7  81924088.836 6                  19690483.844    19690482.832
  19690490.477                          46.400          40.100
 107758300.787 7  83967596.53846                  20505716.938
  20505722.871                          47.200          40.500
 125666166.889 6                  93841631.109 6  23913476.734
                  23913479.805          38.400                          40.900
 124190782.184 7                  92739916.695 8  23632708.953
                  23632713.023          45.900                          50.700
 113695536.481 7                  84902521.148 7  21635539.672
                  21635541.004          43.000                          46.100
 132440865.270 7                  98900669.917 7  25202657.586
                  25202663.844          42.000                          45.200
 143778768.730 5                 107367292.490 5  27360186.969
                  27360191.563          31.500                          34.800
 118955094.229 7                  88830118.427 7  22636402.633
                  22636407.543          44.600                          47.300
 118387409.221 7                  88406232.998 8  22528366.586
                  22528372.406          45.300                          48.200
 19  7  9 10 45 45.0000000  0 21G06G29R24R08R02G30G13G07R01G15G02R17
                                R23G05E12E04E11E36E19E14E09
 124526175.204 5  97033489.07643  92990423.849 7  23696554.055
  23696563.074    23696564.727          34.600          21.100          45.000
 116509521.991 7  90786799.07845                  22171055.844
  22171062.098                          43.400          30.200
 106145523.103 6  82557592.095 5                  19849749.461    19849748.969
  19849752.121                          39.400          32.600
 112978413.793 6  87872128.154 6                  21097912.898    21097913.230
  21097917.023                          38.300          41.600
 121148427.714 6  94226564.389 6                  22703161.680    22703161.250
  22703168.281                          36.400          38.000
 121567429.219 6  94727864.54044  90780878.017 7  23133498.508
  23133506.934    23133506.863          36.800          25.800          46.400
 108807741.982 7  84785272.10846                  20705417.508
  20705423.422                          45.700          37.900
 128034979.899 5  99767454.75743                  24364222.195
  24364228.102                          35.100          18.600
 105287623.197 7  81890416.873 6                  19696217.563    19696217.027
  19696223.926                          42.500          40.500
 120073635.881 6  93563808.99244                  22849227.648
  22849233.668                          41.900          27.600
 109538730.104 7  85354895.04546                  20844519.898
  20844523.301                          44.600          39.200
 123731653.249 5  96235724.154 5                  23122218.805    23122216.223
  23122221.262                          32.600          35.000
 105333198.416 7  81925919.752 6                  19690924.188    19690922.941
  19690930.691                          46.400          40.200
 107758552.985 7  83967793.05246                  20505764.648
  20505770.496                          47.100          40.400
 125668860.643 6                  93843642.684 6  23913989.430
                  23913992.258          38.900                          40.800
 124191727.077 7                  92740622.290 8  23632888.805
                  23632892.746          45.900                          50.900
 113695961.508 7                  84902838.530 7  21635620.500
                  21635621.906          42.800                          46.000
 132438708.997 6                  98899059.719 7  25202247.203
                  25202253.676          41.400                          45.000
 143781272.619 5                 107369162.290 5  27360663.367
                  27360668.039          31.100                          34.600
 118960601.910 7                  88834231.305 7  22637450.609
                  22637455.648          44.400                          47.500
 118385975.082 7                  88405162.049 8  22528093.805
                  22528099.598          45.100                          48.400
 19  7  9 10 45 46.0000000  0 21G06G29R24R08R02G30G13G07R01G15G02R17
                                R23G05E12E04E11E36E19E14E09
 124529341.093 5  97035956.03643  92992788.020 7  23697157.078
  23697165.367    23697167.027          34.300          20.900          44.900
 116508987.384 7  90786382.50345                  22170954.195
  22170960.656                          43.400          30.800
 106143993.147 6  82556402.133 5                  19849463.141    19849462.719
  19849465.980                          39.500          32.400
 112981024.094 6  87874158.417 6                  21098401.789    21098401.020
  21098404.320                          38.400          41.600
 121145736.159 6  94224470.959 6                  22702657.430    22702656.977
  22702664.105                          36.500          38.100
 121566748.786 6  94727334.33444  90780369.892 7  23133368.391
  23133377.535    23133377.406          36.500          24.700          46.600
 108805854.590 7  84783801.41146                  20705058.250
  20705064.254                          46.000          37.900
 128035900.462 5  99768172.10443                  24364397.234
  24364403.273                          35.300          18.600
 105287839.935 7  81890585.449 6                  19696258.430    19696257.543
  19696264.328                          42.800          40.600
 120070328.113 7  93561231.50644                  22848597.555
  22848603.730                          42.500          26.900
 109539760.135 7  85355697.66146                  20844716.148
  20844719.219                          45.000          38.800
 123727582.539 5  96232558.037 5                  23121457.383    23121455.320
  23121460.082                          33.000          35.100
 105335553.215 7  81927751.248 6                  19691364.797    19691363.129
  19691370.813                          46.400          40.000
 107758805.399 7  83967989.74146                  20505812.859
  20505818.602                          46.700          40.100
 125671554.548 6                  93845654.361 6  23914501.922
                  23914504.742          38.700                          41.100
 124192672.136 7                  92741328.029 8  23633068.594
                  23633072.656          46.000                          50.700
 113696386.925 7                  84903156.216 7  21635701.328
                  21635702.965          43.100                          46.000
 132436552.927 7                  98897449.660 7  25201836.664
                  25201843.242          42.000                          45.200
 143783776.399 5                 107371031.947 5  27361139.828
                  27361144.582          32.600                          34.500
 118966109.865 7                  88838344.398 7  22638498.750
                  22638503.742          44.400                          47.600
 118384541.177 7                  88404091.281 8  22527821.094
                  22527826.629          45.000                          48.400
 19  7  9 10 45 47.0000000  0 21G06G29R24R08R02G30G13G07R01G15G02R17
                                R23G05E12E04E11E36E19E14E09
 124532507.299 5  97038423.21343  92995152.381 7  23697759.563
  23697767.629    23697769.676          34.600          20.900          44.700
 116508453.484 7  90785966.47344                  22170853.133
  22170859.297                          43.200          29.700
 106142464.095 6  82555212.832 5                  19849176.922    19849176.266
  19849179.875                          39.000          32.900
 112983634.648 6  87876188.799 6                  21098889.266    21098888.660
  21098891.910                          38.600          41.400
 121143044.988 6  94222377.812 6                  22702153.094    22702152.406
  22702159.625                          36.100          38.100
 121566068.947 6  94726804.59044  90779862.212 7  23133239.508
  23133248.063    23133248.102          36.800          25.100          46.600
 108803967.801 7  84782331.18646                  20704699.367
  20704705.242                          45.700          38.200
 128036821.632 5  99768889.88443                  24364571.914
  24364578.805                          34.600          18.600
 105288057.141 7  81890754.385 6                  19696299.727    19696297.926
  19696304.727                          42.600          40.600
 120067020.709 7  93558654.31444                  22847967.789
  22847974.500                          42.400          27.200
 109540790.748 7  85356500.73646                  20844911.961
  20844915.574                          44.600          39.300
 123723512.138 5  96229392.130 5                  23120697.656    23120694.793
  23120699.516                          32.500          35.400
 105337908.800 7  81929583.389 6                  19691805.078    19691803.668
  19691811.145                          46.600          39.900
 107759058.112 7  83968186.66046                  20505861.141
  20505866.660                          46.700          40.200
 125674248.727 6                  93847666.242 6  23915014.539
                  23915017.551          38.300                          41.000
 124193617.513 7                  92742033.981 8  23633248.406
                  23633252.527          46.300                          50.500
 113696812.840 7                  84903474.263 7  21635782.578
                  21635783.949          42.800                          46.300
 132434397.165 7                  98895839.853 7  25201426.531
                  25201433.105          42.100                          45.300
 143786280.222 5                 107372901.720 5  27361616.352
                  27361620.805          31.800                          34.800
 118971618.210 7                  88842457.764 7  22639547.008
                  22639552.012          44.100                          47.500
 118383107.597 7                  88403020.746 8  22527548.320
                  22527553.832          44.800                          48.400
 19  7  9 10 45 48.0000000  0 21G06G29R24R08R02G30G13G07R01G15G02R17
                                R23G05E12E04E11E36E19E14E09
 124535673.579 5  97040890.45543  92997516.820 7  23698362.102
  23698370.203    23698372.109          33.800          20.400          44.100
 116507920.147 7  90785550.89645                  22170750.859
  22170757.668                          43.200          30.300
 106140935.701 6  82554024.132 5                  19848891.336    19848890.844
  19848894.141                          39.300          32.800
 112986245.087 6  87878219.154 6                  21099375.445    21099375.965
  21099379.539                          38.500          41.700
 121140353.890 6  94220284.745 6                  22701648.789    22701648.527
  22701655.434                          36.600          37.500
 121565389.473 6  94726275.12844  90779354.802 7  23133111.016
  23133118.609    23133118.836          36.800          25.600          46.700
 108802081.406 7  84780861.26746                  20704340.383
  20704346.223                          45.400          38.100
 128037743.172 5  99769607.97843                  24364746.477
  24364753.867                          33.900          19.000
 105288274.586 7  81890923.498 6                  19696340.008    19696339.215
  19696345.672                          42.600          40.700
 120063713.419 6  93556077.20544                  22847338.703
  22847345.195                          41.700          25.800
 109541821.694 7  85357304.06946                  20845107.789
  20845111.383                          44.600          38.900
 123719441.776 5  96226226.340 5                  23119937.289    23119934.355
  23119939.059                          32.800          35.200
 105340264.998 7  81931415.992 6                  19692245.336    19692244.324
  19692251.641                          46.600          39.800
 107759310.912 7  83968383.65146                  20505908.820
  20505914.734                          47.000          39.500
 125676942.967 6                  93849678.190 6  23915527.477
                  23915530.293          38.300                          40.900
 124194562.940 7                  92742739.992 8  23633428.281
                  23633432.477          46.400                          50.500
 113697239.015 7                  84903792.522 7  21635863.500
                  21635864.941          43.100                          46.000
 132432241.496 6                  98894230.093 7  25201016.406
                  25201022.918          41.700                          45.500
 143788783.910 5                 107374771.347 5  27362093.016
                  27362097.676          31.300                          35.100
 118977126.680 7                  88846571.250 7  22640595.359
                  22640600.168          44.300                          47.900
 118381674.086 7                  88401950.271 8  22527275.500
                  22527281.098          44.800                          48.600
 19  7  9 10 45 49.0000000  0 21G06G29R24R08R02G30G13G07R01G15G02R17
                                R23G05E12E04E11E36E19E14E09
 124538840.278 5  97043357.98843  92999881.558 7  23698964.656
  23698972.680    23698974.555          34.600          20.400          43.900
 116507387.613 7  90785135.92445                  22170649.906
  22170656.016                          43.200          30.400
 106139408.313 6  82552836.166 5                  19848607.125    19848605.152
  19848608.926                          39.700          32.700
 112988855.867 6  87880249.756 6                  21099863.844    21099863.473
  21099866.801                          38.600          41.700
 121137663.274 6  94218192.020 6                  22701145.852    22701143.898
  22701151.063                          37.100          37.400
 121564710.683 6  94725746.21644  90778847.942 7  23132981.250
  23132989.930    23132989.648          36.700          25.800          46.800
 108800195.706 7  84779391.89046                  20703981.539
  20703987.117                          45.500          37.700
 128038665.425 5  99770326.58143                  24364922.500
  24364929.527                          33.900          19.000
 105288492.621 7  81891093.081 6                  19696381.086    19696379.566
  19696386.563                          42.100          40.700
 120060406.583 6  93553500.45244                  22846709.289
  22846715.859                          41.700          27.700
 109542853.299 7  85358107.91746                  20845304.953
  20845308.004                          44.600          39.200
 123715371.882 5  96223060.855 5                  23119174.172    23119173.094
  23119178.563                          32.900          35.100
 105342622.164 7  81933249.336 6                  19692685.680    19692684.902
  19692692.434                          46.700          39.600
 107759564.148 7  83968580.97646                  20505957.188
  20505963.172                          46.700          39.700
 125679637.591 6                  93851690.419 6  23916040.227
                  23916043.238          38.000                          40.900
 124195508.782 7                  92743446.299 8  23633608.352
                  23633612.469          46.200                          50.300
 113697665.805 7                  84904111.223 7  21635944.719
                  21635946.207          42.900                          46.000
 132430086.250 6                  98892620.666 7  25200606.273
                  25200612.742          41.900                          45.100
 143791287.690 5                 107376641.065 5  27362569.656
                  27362573.934          32.200                          35.000
 118982635.671 7                  88850685.083 7  22641643.703
                  22641648.516          43.700                          47.900
 118380241.036 7                  88400880.131 8  22527002.813
                  22527008.480          45.100                          48.600
 19  7  9 10 45 50.0000000  0 21G06G29R24R08R02G30G13G07R01G15G02R17
                                R23G05E12E04E11E36E19E14E09
 124542007.174 5  97045825.67643  93002246.451 7  23699568.078
  23699575.938    23699576.941          34.600          20.600          43.800
 116506855.740 7  90784721.48944                  22170548.648
  22170554.969                          43.400          29.900
 106137881.725 6  82551648.804 5                  19848320.711    19848319.652
  19848323.156                          39.700          32.700
 112991466.719 6  87882280.443 6                  21100351.844    21100351.191
  21100354.371                          39.000          41.500
 121134972.835 6  94216099.519 6                  22700641.234    22700639.914
  22700646.750                          36.800          37.400
 121564032.462 6  94725217.72944  90778341.481 7  23132852.008
  23132860.828    23132860.668          36.700          24.400          46.600
 108798310.576 7  84777922.96346                  20703622.711
  20703629.094                          45.500          38.200
 128039588.113 5  99771045.56943                  24365098.016
  24365105.004                          34.300          19.000
 105288711.078 7  81891263.007 6                  19696421.742    19696420.152
  19696427.273                          42.100          40.700
 120057100.051 7  93550923.93844                  22846079.984
  22846086.703                          42.200          26.700
 109543885.376 7  85358912.13246                  20845500.867
  20845504.363                          44.900          39.200
 123711302.249 5  96219895.584 5                  23118414.344    23118411.930
  23118418.176                          33.100          34.900
 105344980.086 7  81935083.256 6                  19693126.422    19693125.480
  19693133.250                          46.800          39.700
 107759817.640 7  83968778.50646                  20506005.445
  20506011.465                          46.600          39.600
 125682332.456 6                  93853702.792 6  23916553.125
                  23916555.902          38.100                          41.400
 124196454.862 7                  92744152.781 8  23633788.297
                  23633792.434          46.200                          50.600
 113698093.005 7                  84904430.238 7  21636026.109
                  21636027.563          43.400                          45.900
 132427931.265 6                  98891011.414 7  25200196.117
                  25200202.496          41.800                          45.000
 143793791.429 5                 107378510.762 5  27363045.766
                  27363050.512          31.700                          35.500
 118988144.958 7                  88854799.163 7  22642692.031
                  22642696.922          44.000                          47.600
 118378808.238 7                  88399810.193 8  22526730.180
                  22526735.832          44.900                          48.800
 19  7  9 10 45 51.0000000  0 21G06G29R24R08R02G30G13G07R01G15G02R17
                                R23G05E12E04E11E36E19E14E09
 124545174.316 5  97048293.60843  93004611.499 7  23700170.141
  23700178.742    23700179.609          34.700          20.600          43.700
 116506324.521 7  90784307.54945                  22170447.336
  22170453.742                          42.800          30.600
 106136355.961 6  82550462.118 5                  19848034.875    19848034.266
  19848037.945                          39.500          32.700
 112994077.747 6  87884311.221 6                  21100839.289    21100838.285
  21100841.840                          39.000          41.600
 121132282.734 6  94214007.158 6                  22700136.406    22700135.695
  22700142.406                          36.400          37.600
 121563354.730 6  94724689.62844  90777835.391 7  23132722.688
  23132731.938    23132731.609          36.800          24.700          46.700
 108796425.975 7  84776454.44146                  20703264.211
  20703270.309                          45.600          38.100
 128040511.387 5  99771765.04343                  24365273.500
  24365280.965                          34.600          18.300
 105288929.937 6  81891433.207 6                  19696463.281    19696461.316
  19696468.035                          41.800          40.800
 120053793.787 7  93548347.62144                  22845450.867
  22845457.270                          42.000          26.900
 109544917.946 7  85359716.73746                  20845696.797
  20845700.668                          44.700          39.000
 123707232.963 5  96216730.594 5                  23117653.258    23117651.969
  23117657.957                          33.000          34.400
 105347338.795 7  81936917.826 6                  19693566.883    19693566.434
  19693573.945                          46.800          39.400
 107760071.363 7  83968976.20946                  20506053.469
  20506059.723                          46.500          39.400
 125685027.481 6                  93855715.312 6  23917065.898
                  23917068.797          38.300                          41.300
 124197401.146 7                  92744859.420 8  23633968.398
                  23633972.570          46.200                          50.700
 113698520.617 7                  84904749.576 7  21636107.477
                  21636108.953          42.900                          46.000
 132425776.496 6                  98889402.336 7  25199786.016
                  25199792.457          41.700                          45.000
 143796295.205 5                 107380380.418 5  27363522.281
                  27363526.977          32.200                          35.400
 118993654.528 7                  88858913.461 7  22643740.352
                  22643745.313          43.900                          47.500
 118377375.699 7                  88398740.429 8  22526457.398
                  22526463.191          44.400                          48.800
 19  7  9 10 45 52.0000000  0 21G06G29R24R08R02G30G13G07R01G15G02R17
                                R23G05E12E04E11E36E19E14E09
 124548341.677 5  97050761.67843  93006976.723 7  23700772.453
  23700781.191    23700782.313          34.600          20.100          43.600
 116505793.974 7  90783894.13445                  22170345.945
  22170352.816                          42.400          30.100
 106134831.013 6  82549276.052 5                  19847750.031    19847748.973
  19847752.527                          39.900          32.700
 112996688.909 6  87886342.101 6                  21101327.133    21101325.918
  21101329.699                          38.900          41.300
 121129592.870 6  94211915.093 6                  22699632.938    22699632.250
  22699638.465                          36.900          37.500
 121562677.585 6  94724161.97043  90777329.714 7  23132594.094
  23132602.660    23132602.953          37.000          23.200          46.700
 108794541.923 7  84774986.34646                  20702905.742
  20702911.387                          45.200          38.100
 128041435.175 5  99772484.90842                  24365450.102
  24365456.461                          34.500          16.900
 105289149.189 7  81891603.750 6                  19696503.734    19696502.215
  19696509.043                          42.000          40.700
 120050487.777 6  93545771.51444                  22844821.563
  22844828.207                          41.800          26.800
 109545950.998 7  85360521.71146                  20845893.680
  20845897.426                          44.500          39.100
 123703163.858 5  96213565.744 5                  23116891.711    23116891.969
  23116896.965                          33.400          34.300
 105349698.251 7  81938752.965 6                  19694008.766    19694007.332
  19694015.027                          46.800          39.400
 107760325.323 7  83969174.10246                  20506101.859
  20506107.863                          46.700          39.800
 125687722.740 6                  93857728.004 6  23917578.695
                  23917581.707          38.000                          41.100
 124198347.672 7                  92745566.246 8  23634148.492
                  23634152.539          46.000                          50.500
 113698948.711 7                  84905069.245 7  21636188.914
                  21636190.406          42.700                          46.000
 132423621.981 7                  98887793.456 7  25199375.961
                  25199382.512          42.100                          44.700
 143798798.912 5                 107382250.070 5  27363998.602
                  27364003.223          31.700                          35.100
 118999164.414 7                  88863027.994 7  22644788.750
                  22644793.824          43.800                          47.300
 118375943.398 7                  88397670.856 8  22526184.867
                  22526190.762          45.100                          48.800
 19  7  9 10 45 53.0000000  0 21G06G29R24R08R02G30G13G07R01G15G02R17
                                R23G05E12E04E11E36E19E14E09
 124551509.302 5  97053229.95243  93009342.156 7  23701375.336
  23701383.855    23701385.063          34.800          20.400          43.700
 116505264.144 7  90783481.27944                  22170245.609
  22170251.758                          42.500          29.900
 106133306.930 6  82548090.656 5                  19847464.063    19847463.781
  19847467.711                          39.900          33.000
 112999300.202 6  87888373.136 6                  21101813.727    21101813.871
  21101817.477                          38.900          41.200
 121126903.361 6  94209823.252 6                  22699128.938    22699128.086
  22699134.316                          37.100          37.800
 121562000.993 6  94723634.75144  90776824.468 7  23132465.023
  23132474.086    23132474.133          36.900          24.100          46.100
 108792658.473 7  84773518.72146                  20702547.141
  20702553.137                          45.200          38.100
 128042359.530 5  99773205.15642                  24365626.102
  24365632.555                          35.000          17.800
 105289368.923 7  81891774.645 6                  19696544.672    19696543.293
  19696550.219                          42.200          40.600
 120047182.139 6  93543195.68444                  22844192.711
  22844199.242                          41.700          26.000
 109546984.568 7  85361327.08646                  20846090.563
  20846093.840                          45.100          39.000
 123699095.027 5  96210401.087 5                  23116132.039    23116132.250
  23116136.594                          33.400          34.500
 105352058.535 7  81940588.717 6                  19694449.656    19694448.551
  19694456.074                          47.000          39.400
 107760579.593 7  83969372.23346                  20506150.797
  20506156.379                          46.800          39.900
 125690418.233 6                  93859740.876 6  23918091.688
                  23918094.395          38.600                          41.300
 124199294.441 7                  92746273.254 8  23634328.586
                  23634332.840          46.100                          50.900
 113699377.263 7                  84905389.257 7  21636270.391
                  21636271.992          42.700                          46.000
 132421467.761 6                  98886184.780 7  25198965.883
                  25198972.621          41.900                          44.300
 143801302.595 5                 107384119.742 5  27364474.719
                  27364479.668          31.800                          35.000
 119004674.674 7                  88867142.779 7  22645837.586
                  22645842.418          43.600                          47.500
 118374511.408 7                  88396601.526 8  22525912.617
                  22525918.270          44.900                          48.900
 19  7  9 10 45 54.0000000  0 21G06G29R24R08R02G30G13G07R01G15G02R17
                                R23G05E12E04E11E36E19E14E09
 124554677.199 5  97055698.46343  93011707.776 7  23701978.375
  23701986.621    23701987.641          34.600          19.000          43.600
 116504734.972 7  90783068.93445                  22170144.797
  22170151.078                          42.600          30.900
 106131783.741 6  82546905.941 5                  19847180.773    19847179.012
  19847182.930                          39.900          32.800
 113001911.571 6  87890404.207 6                  21102301.758    21102301.785
  21102304.816                          38.900          41.100
 121124214.199 6  94207731.666 6                  22698624.734    22698623.930
  22698630.480                          36.900          37.700
 121561324.969 6  94723107.99244  90776319.626 7  23132336.039
  23132345.836    23132345.461          37.500          25.600          46.500
 108790775.580 7  84772051.53346                  20702188.992
  20702194.902                          45.200          38.200
 128043284.401 5  99773925.83342                  24365802.063
  24365808.641                          34.400          17.800
 105289589.057 7  81891945.867 6                  19696585.734    19696584.754
  19696591.367                          42.100          40.500
 120043876.762 6  93540620.06844                  22843563.531
  22843570.063                          41.600          27.300
 109548018.659 7  85362132.87746                  20846287.109
  20846290.816                          45.500          38.800
 123695026.508 5  96207236.685 5                  23115372.688    23115371.844
  23115376.281                          33.200          35.000
 105354419.573 7  81942425.084 6                  19694891.547    19694890.254
  19694897.781                          46.900          39.900
 107760834.108 7  83969570.55646                  20506199.148
  20506204.891                          46.800          39.800
 125693113.964 6                  93861753.935 6  23918604.945
                  23918607.492          38.500                          41.300
 124200241.468 7                  92746980.457 8  23634508.805
                  23634513.055          46.200                          51.200
 113699806.242 7                  84905709.602 7  21636352.000
                  21636353.656          43.000                          46.400
 132419313.794 6                  98884576.293 7  25198556.031
                  25198562.648          41.700                          44.700
 143803806.372 5                 107385989.391 5  27364951.242
                  27364955.977          32.300                          34.800
 119010185.223 7                  88871257.809 7  22646885.883
                  22646891.063          43.800                          47.600
 118373079.683 7                  88395532.382 8  22525639.977
                  22525645.688          44.900                          48.400
 19  7  9 10 45 55.0000000  0 21G06G29R24R08R02G30G13G07R01G15G02R17
                                R23G05E12E04E11E36E19E14E09
 124557845.185 5  97058167.02843  93014073.540 7  23702580.352
  23702589.445    23702590.391          34.300          20.400          43.000
 116504206.436 7  90782657.08445                  22170044.359
  22170050.305                          42.500          30.900
 106130261.312 6  82545721.829 5                  19846895.820    19846894.246
  19846898.195                          39.500          33.300
 113004523.068 6  87892435.353 6                  21102788.797    21102789.316
  21102792.672                          38.900          41.100
 121121525.246 6  94205640.242 6                  22698121.219    22698120.063
  22698126.629                          37.100          37.700
 121560649.385 6  94722581.56744  90775815.166 7  23132207.852
  23132217.027    23132216.785          37.500          24.800          46.400
 108788893.178 7  84770584.72846                  20701830.539
  20701836.668                          45.200          37.900
 128044209.793 5  99774646.91142                  24365977.914
  24365984.770                          35.200          17.800
 105289809.577 7  81892117.378 6                  19696626.711    19696625.543
  19696632.617                          42.100          40.800
 120040571.664 6  93538044.66144                  22842935.063
  22842940.840                          41.600          27.000
 109549053.189 7  85362938.99746                  20846484.523
  20846487.742                          45.400          38.900
 123690958.215 5  96204072.471 5                  23114612.008    23114611.492
  23114616.191                          32.900          35.200
 105356781.377 7  81944262.025 6                  19695332.570    19695331.535
  19695339.137                          47.000          39.800
 107761088.839 7  83969769.04546                  20506247.617
  20506253.359                          46.800          39.900
 125695809.893 6                  93863767.123 6  23919117.867
                  23919120.355          38.000                          41.300
 124201188.704 7                  92747687.803 8  23634688.977
                  23634693.277          46.000                          50.800
 113700235.612 7                  84906030.234 7  21636433.719
                  21636435.320          43.100                          46.300
 132417160.050 6                  98882967.976 7  25198146.164
                  25198152.855          41.800                          44.700
 143806310.000 5                 107387858.976 5  27365427.469
                  27365432.324          32.000                          34.400
 119015696.081 7                  88875373.043 7  22647934.945
                  22647939.723          44.000                          47.600
 118371648.204 7                  88394463.406 8  22525367.641
                  22525373.293          44.900                          48.800
 19  7  9 10 45 56.0000000  0 21G06G29R24R08R02G30G13G07R01G15G02R17
                                R23G05E12E04E11E36E19E14E09
 124561013.575 5  97060635.90643  93016439.511 7  23703183.156
  23703192.148    23703193.262          34.200          20.400          42.600
 116503678.600 7  90782245.79545                  22169943.688
  22169950.012                          42.300          30.500
 106128739.786 6  82544538.433 5                  19846611.391    19846610.004
  19846613.625                          39.200          33.400
 113007134.782 6  87894466.684 6                  21103277.398    21103276.512
  21103280.426                          38.500          40.900
 121118836.682 6  94203549.148 6                  22697617.281    22697615.844
  22697622.574                          37.000          37.200
 121559974.482 6  94722055.66544  90775311.153 7  23132079.906
  23132088.648    23132088.449          37.200          24.700          46.200
 108787011.405 7  84769118.41846                  20701472.523
  20701478.398                          45.200          38.000
 128045135.717 5  99775368.38742                  24366153.961
  24366160.730                          35.100          17.400
 105290030.598 7  81892289.275 6                  19696667.820    19696666.934
  19696673.910                          42.400          40.600
 120037266.889 6  93535469.52644                  22842305.805
  22842312.352                          41.200          26.900
 109550088.266 7  85363745.56146                  20846681.102
  20846684.340                          44.500          39.000
 123686890.264 5  96200908.515 5                  23113851.273    23113850.945
  23113855.922                          32.900          34.300
 105359143.990 7  81946099.632 6                  19695774.789    19695773.379
  19695780.648                          46.900          40.000
 107761343.893 7  83969967.79146                  20506296.000
  20506302.047                          47.300          39.600
 125698506.062 6                  93865780.525 6  23919630.719
                  23919633.531          38.100                          41.100
 124202136.218 7                  92748395.362 8  23634869.492
                  23634873.547          46.400                          50.700
 113700665.487 7                  84906351.240 7  21636515.531
                  21636517.086          43.300                          46.100
 132415006.619 6                  98881359.888 7  25197736.578
                  25197742.949          41.900                          45.000
 143808813.661 5                 107389728.638 5  27365903.930
                  27365908.805          31.500                          34.600
 119021207.272 7                  88879488.555 7  22648983.602
                  22648988.457          44.200                          47.400
 118370217.043 7                  88393394.685 8  22525095.313
                  22525101.008          44.900                          49.000
 19  7  9 10 45 57.0000000  0 21G06G29R24R08R02G30G13G07R01G15G02R17
                                R23G05E12E04E11E36E19E14E09
 124564182.072 5  97063104.87343  93018805.614 7  23703786.328
  23703795.109    23703796.047          34.300          19.900          42.500
 116503151.436 6  90781835.02044                  22169843.586
  22169849.684                          41.800          29.700
 106127219.028 6  82543355.609 5                  19846326.000    19846325.555
  19846329.355                          39.100          33.800
 113009746.598 6  87896498.108 6                  21103765.180    21103764.527
  21103768.492                          38.500          41.400
 121116148.330 6  94201458.210 6                  22697113.484    22697112.023
  22697118.625                          37.300          37.500
 121559299.984 6  94721530.07144  90774807.513 7  23131951.078
  23131959.715    23131960.090          37.400          24.000          46.300
 108785130.118 7  84767652.47246                  20701114.844
  20701120.691                          45.000          38.400
 128046062.140 5  99776090.26842                  24366330.539
  24366336.770                          34.800          17.800
 105290251.923 7  81892461.427 6                  19696709.766    19696708.434
  19696715.457                          42.200          40.500
 120033962.377 6  93532894.58644                  22841676.742
  22841683.371                          41.100          26.000
 109551123.807 7  85364552.46746                  20846878.336
  20846881.570                          44.500          39.000
 123682822.477 5  96197744.661 5                  23113091.414    23113090.758
  23113095.676                          33.100          34.100
 105361507.330 7  81947937.806 6                  19696215.820    19696214.996
  19696222.551                          46.700          40.200
 107761599.141 7  83970166.68646                  20506344.656
  20506350.301                          47.400          39.700
 125701202.434 6                  93867794.019 6  23920143.773
                  23920146.566          37.800                          41.500
 124203083.929 7                  92749103.064 8  23635049.711
                  23635053.977          46.100                          50.500
 113701095.750 7                  84906672.539 7  21636597.516
                  21636598.953          43.100                          46.000
 132412853.353 7                  98879751.961 7  25197326.469
                  25197333.246          42.100                          45.000
 143811317.258 5                 107391598.182 5  27366380.398
                  27366385.496          30.900                          34.700
 119026718.755 7                  88883604.269 7  22650032.039
                  22650037.277          43.900                          47.500
 118368786.075 7                  88392326.107 8  22524823.219
                  22524828.613          44.900                          48.700
 19  7  9 10 45 58.0000000  0 21G06G29R24R08R02G30G13G07R01G15G02R17
                                R23G05E12E04E11E36E19E14E09
 124567350.821 5  97065574.04843  93021171.910 7  23704389.406
  23704397.887    23704398.973          34.000          19.900          42.200
 116502624.900 7  90781424.73045                  22169743.453
  22169749.516                          42.100          30.400
 106125699.077 6  82542173.429 5                  19846041.578    19846040.754
  19846044.871                          39.400          33.800
 113012358.519 6  87898529.631 6                  21104252.977    21104252.535
  21104255.938                          38.500          41.500
 121113460.307 6  94199367.504 6                  22696611.633    22696608.648
  22696614.941                          37.300          37.300
 121558626.109 6  94721004.98444  90774304.270 7  23131823.195
  23131832.188    23131831.863          36.600          24.500          46.800
 108783249.404 7  84766186.98046                  20700756.570
  20700762.664                          45.300          37.900
 128046989.081 5  99776812.57042                  24366506.531
  24366513.121                          34.900          16.900
 105290473.690 7  81892633.906 6                  19696751.727    19696750.113
  19696756.848                          42.500          40.400
 120030658.125 6  93530319.84244                  22841047.680
  22841054.500                          41.200          26.800
 109552159.808 7  85365359.74446                  20847075.352
  20847078.953                          44.600          38.800
 123678755.000 5  96194581.087 5                  23112331.258    23112330.555
  23112335.648                          32.900          34.600
 105363871.448 7  81949776.534 6                  19696658.086    19696656.910
  19696664.418                          47.000          39.800
 107761854.643 7  83970365.78046                  20506393.031
  20506398.875                          47.400          39.900
 125703898.985 6                  93869807.678 6  23920656.977
                  23920659.598          38.000                          41.300
 124204031.865 7                  92749810.939 8  23635230.148
                  23635234.328          46.600                          50.500
 113701526.442 7                  84906994.157 7  21636679.445
                  21636680.898          42.900                          46.000
 132410700.399 7                  98878144.202 7  25196916.953
                  25196923.656          42.200                          45.000
 143813820.860 5                 107393467.785 5  27366856.898
                  27366861.773          31.300                          34.500
 119032230.534 7                  88887720.207 7  22651080.922
                  22651086.188          43.900                          47.600
 118367355.389 7                  88391257.737 8  22524550.750
                  22524556.461          45.200                          48.100
 19  7  9 10 45 59.0000000  0 21G06G29R24R08R02G30G13G07R01G15G02R17
                                R23G05E12E04E11E36E19E14E09
 124570519.773 5  97068043.31843  93023538.331 7  23704992.109
  23705000.973    23705001.602          34.200          19.600          42.500
 116502099.040 7  90781014.96645                  22169642.969
  22169649.488                          42.200          30.000
 106124179.971 6  82540991.898 5                  19845757.844    19845756.879
  19845760.441                          39.700          33.500
 113014970.592 6  87900561.223 6                  21104740.508    21104739.926
  21104743.750                          38.800          41.000
 121110772.525 6  94197277.000 6                  22696106.484    22696104.906
  22696111.313                          37.300          37.600
 121557952.732 6  94720480.27244  90773801.413 7  23131694.414
  23131703.773    23131703.750          36.200          24.400          46.600
 108781369.208 7  84764721.89746                  20700399.016
  20700405.113                          44.900          38.000
 128047916.543 5  99777535.25642                  24366683.047
  24366689.727                          34.500          17.400
 105290695.848 7  81892806.675 6                  19696793.641    19696791.770
  19696798.324                          42.000          40.000
 120027354.166 6  93527745.31444                  22840419.813
  22840426.258                          41.300          27.300
 109553196.291 7  85366167.39346                  20847272.766
  20847275.766                          44.700          39.200
 123674687.754 5  96191417.658 5                  23111572.219    23111570.672
  23111575.840                          32.800          34.200
 105366236.307 7  81951615.881 6                  19697100.328    19697098.777
  19697106.617                          47.200          39.600
 107762110.395 7  83970565.06746                  20506442.148
  20506447.988                          47.400          40.100
 125706595.782 6                  93871821.509 6  23921170.609
                  23921172.785          38.100                          41.600
 124204980.009 7                  92750518.969 8  23635410.539
                  23635414.754          46.700                          50.200
 113701957.559 7                  84907316.108 7  21636761.352
                  21636763.031          43.100                          46.000
 132408547.635 7                  98876536.635 7  25196507.016
                  25196513.875          42.300                          45.200
 143816324.444 5                 107395337.268 5  27367333.461
                  27367338.207          31.300                          34.500
 119037742.605 7                  88891836.367 7  22652129.930
                  22652135.020          43.900                          47.200
 118365924.918 7                  88390189.537 8  22524278.648
                  22524284.352          45.500                          48.000
 19  7  9 10 46  0.0000000  0 21G06G29R24R08R02G30G13G07R01G15G02R17
                                R23G05E12E04E11E36E19E14E09
 124573688.965 5  97070512.83543  93025904.925 7  23705595.758
  23705603.734    23705604.680          33.700          19.300          42.200
 116501573.797 7  90780605.68045                  22169542.813
  22169550.008                          42.300          30.200
 106122661.663 6  82539810.994 5                  19845473.648    19845473.273
  19845477.105                          39.800          33.500
 113017582.736 6  87902592.857 6                  21105228.922    21105227.496
  21105231.320                          38.700          41.000
 121108084.939 6  94195186.653 6                  22695603.422    22695601.188
  22695607.480                          36.800          37.400
 121557279.808 5  94719955.90744  90773298.943 7  23131566.992
  23131575.305    23131575.727          35.800          24.600          46.600
 108779489.544 7  84763257.23246                  20700041.484
  20700047.320                          44.900          38.700
 128048844.485 5  99778258.33742                  24366859.609
  24366866.516                          34.900          16.300
 105290918.356 7  81892979.753 6                  19696834.367    19696833.457
  19696839.945                          42.100          40.300
 120024050.452 6  93525170.98744                  22839790.641
  22839797.371                          41.600          27.100
 109554233.225 7  85366975.39446                  20847470.227
  20847473.379                          44.400          39.100
 123670620.719 5  96188254.432 5                  23110811.992    23110810.539
  23110815.680                          33.100          34.300
 105368601.892 7  81953455.769 6                  19697542.156    19697541.262
  19697548.707                          47.100          39.600
 107762366.343 7  83970764.50446                  20506490.203
  20506496.266                          47.600          39.900
 125709292.723 6                  93873835.471 6  23921683.469
                  23921686.027          38.100                          41.600
 124205928.355 7                  92751227.147 8  23635591.266
                  23635595.137          46.200                          50.300
 113702389.086 7                  84907638.329 7  21636843.758
                  21636845.164          43.200                          46.200
 132406395.094 7                  98874929.227 7  25196097.570
                  25196104.266          42.100                          45.400
 143818827.875 5                 107397206.797 5  27367809.641
                  27367814.555          31.700                          34.300
 119043254.958 7                  88895952.736 7  22653178.844
                  22653184.059          43.700                          47.200
 118364494.707 7                  88389121.510 7  22524006.047
                  22524012.039          45.300                          47.900
 19  7  9 10 46  1.0000000  0 21G06G29R24R08R02G30G13G07R01G15G02R17
                                R23G05E12E04E11E36E19E14E09
 124576858.462 5  97072982.56743  93028271.776 7  23706198.648
  23706206.750    23706208.000          32.200          18.600          42.100
 116501049.317 6  90780196.99744                  22169443.555
  22169450.270                          41.900          29.200
 106121144.274 6  82538630.804 5                  19845189.422    19845189.234
  19845193.395                          39.600          33.000
 113020195.075 6  87904624.705 6                  21105717.008    21105715.582
  21105719.074                          38.800          40.700
 121105397.734 6  94193096.615 6                  22695100.492    22695098.070
  22695103.813                          37.600          36.500
 121556607.629 6  94719432.15143  90772796.955 7  23131438.141
  23131447.281    23131447.801          36.100          22.900          46.600
 108777610.536 7  84761793.06546                  20699683.922
  20699689.723                          44.600          37.900
 128049773.063 5  99778981.93342                  24367036.016
  24367042.844                          33.800          16.300
 105291141.405 7  81893153.250 6                  19696876.484    19696875.199
  19696881.605                          42.200          40.200
 120020747.137 6  93522596.98444                  22839162.477
  22839169.168                          41.400          27.200
 109555270.767 7  85367783.87046                  20847667.398
  20847670.461                          44.400          38.900
 123666554.119 5  96185091.448 5                  23110050.742    23110050.836
  23110055.504                          32.600          33.800
 105370968.394 7  81955296.392 6                  19697984.523    19697983.559
  19697991.094                          46.700          39.100
 107762622.687 7  83970964.25346                  20506539.484
  20506545.152                          47.300          39.300
 125711990.011 6                  93875849.667 6  23922196.961
                  23922199.383          38.100                          41.300
 124206877.053 7                  92751935.587 8  23635771.555
                  23635775.770          46.100                          50.100
 113702821.144 7                  84907960.979 7  21636925.672
                  21636927.262          42.800                          46.200
 132404242.928 6                  98873322.089 7  25195688.102
                  25195694.590          41.400                          45.300
 143821331.45515                 107399076.336 5  27368286.758
                  27368290.988          31.500                          34.300
 119048767.738 7                  88900069.421 7  22654227.969
                  22654233.055          44.000                          47.100
 118363064.858 7                  88388053.775 7  22523734.336
                  22523740.160          45.300                          47.900
 19  7  9 10 46  2.0000000  0 21G06G29R24R08R02G30G13G07R01G15G02R17
                                R23G05E12E04E11E36E19E14E09
 124580028.115 5  97075452.43443  93030638.720 7  23706801.719
  23706809.711    23706810.891          33.000          18.300          42.300
 116500525.456 7  90779788.79645                  22169343.492
  22169350.238                          42.200          30.400
 106119627.707 6  82537451.237 5                  19844905.984    19844905.633
  19844909.711                          39.300          32.900
 113022807.524 6  87906656.586 6                  21106204.219    21106203.426
  21106207.172                          39.200          40.900
 121102710.774 6  94191006.755 6                  22694596.000    22694594.188
  22694600.008                          37.700          36.700
 121555935.863 6  94718908.68944  90772295.322 7  23131311.273
  23131319.836    23131319.969          36.300          24.800          46.800
 108775732.036 7  84760329.29746                  20699326.125
  20699332.055                          45.200          37.800
 128050702.072 5  99779705.82642                  24367212.188
  24367219.113                          33.900          16.300
 105291364.799 7  81893326.995 6                  19696917.734    19696917.035
  19696923.488                          42.200          39.900
 120017444.071 6  93520023.16444                  22838533.703
  22838540.266                          41.500          27.700
 109556308.745 7  85368592.67846                  20847864.883
  20847868.410                          44.600          39.000
 123662487.643 5  96181928.702 5                  23109289.953    23109291.059
  23109295.570                          32.900          34.600
 105373335.580 7  81957137.540 6                  19698427.172    19698426.043
  19698433.691                          46.700          39.400
 107762879.218 7  83971164.14846                  20506588.406
  20506593.949                          47.400          39.800
 125714687.454 6                  93877863.990 6  23922710.172
                  23922712.668          38.200                          40.900
 124207825.924 7                  92752644.155 8  23635952.164
                  23635956.238          46.700                          50.300
 113703253.560 7                  84908283.889 7  21637008.234
                  21637009.629          43.000                          46.000
 132402090.962 6                  98871715.090 7  25195278.523
                  25195285.262          41.900                          45.000
 143823834.992 5                 107400945.875 5  27368762.953
                  27368767.273          31.300                          34.700
 119054280.786 7                  88904186.299 7  22655276.805
                  22655282.051          44.200                          47.200
 118361635.217 7                  88386986.182 8  22523462.242
                  22523467.996          45.100                          48.100
 19  7  9 10 46  3.0000000  0 21G06G29R24R08R02G30G13G07R01G15G02R17
                                R23G05E12E04E11E36E19E14E09
 124583198.112 5  97077922.55843  93033005.896 7  23707405.500
  23707413.074    23707414.277          32.800          19.600          42.000
 116500002.296 7  90779381.13944                  22169244.227
  22169250.398                          42.800          29.300
 106118112.004 6  82536272.355 5                  19844623.211    19844622.152
  19844625.781                          39.400          33.000
 113025420.105 6  87908688.615 6                  21106693.125    21106691.418
  21106695.066                          38.900          40.900
 121100024.129 6  94188917.100 6                  22694092.703    22694091.148
  22694096.758                          37.200          36.800
 121555264.718 6  94718385.71944  90771794.122 7  23131182.961
  23131192.105    23131192.270          36.700          25.200          46.300
 108773854.113 7  84758865.98046                  20698968.766
  20698975.027                          45.300          38.100
 128051631.663 5  99780430.19142                  24367389.469
  24367396.191                          33.900          16.900
 105291588.653 7  81893501.117 6                  19696959.594    19696958.730
  19696965.227                          42.400          39.700
 120014141.294 6  93517449.56444                  22837905.094
  22837911.816                          41.600          27.700
 109557347.240 7  85369401.89946                  20848062.570
  20848065.738                          44.500          39.200
 123658421.574 5  96178766.190 5                  23108531.211    23108530.602
  23108535.637                          32.800          34.000
 105375703.594 7  81958979.335 6                  19698870.898    19698868.668
  19698876.594                          46.900          39.500
 107763136.035 7  83971364.26246                  20506637.133
  20506643.070                          47.500          40.100
 125717385.137 6                  93879878.501 6  23923223.602
                  23923225.852          38.400                          41.300
 124208775.033 7                  92753352.918 8  23636132.797
                  23636136.961          46.700                          50.500
 113703686.464 7                  84908607.159 7  21637090.531
                  21637092.023          43.000                          46.200
 132399939.278 6                  98870108.302 7  25194869.156
                  25194875.852          41.500                          44.900
 143826338.471 5                 107402815.357 5  27369239.008
                  27369243.602          30.600                          34.400
 119059794.133 7                  88908303.421 7  22656326.102
                  22656331.105          44.300                          47.600
 118360205.876 7                  88385918.810 8  22523190.211
                  22523196.066          44.600                          48.500
 19  7  9 10 46  4.0000000  0 21G06G29R24R08R02G30G13G07R01G15G02R17
                                R23G05E12E04E11E36E19E14E09
 124586368.231 5  97080392.77643  93035373.241 7  23708008.461
  23708016.004    23708017.500          33.200          19.300          42.100
 116499479.817 7  90778974.01645                  22169145.047
  22169151.387                          43.400          30.500
 106116597.140 6  82535094.139 5                  19844338.969    19844339.203
  19844343.086                          39.600          33.300
 113028032.840 6  87910720.729 6                  21107179.461    21107178.902
  21107183.125                          39.000          40.900
 121097337.769 6  94186827.758 6                  22693588.594    22693587.859
  22693593.160                          37.100          36.400
 121554594.056 6  94717863.12744  90771293.326 7  23131055.188
  23131064.324    23131064.641          37.000          24.700          46.500
 108771976.739 7  84757403.09346                  20698611.445
  20698617.602                          45.600          38.000
 128052561.813 5  99781155.01542                  24367567.297
  24367573.090                          33.800          17.400
 105291812.932 7  81893675.535 6                  19697001.195    19697000.848
  19697007.109                          42.100          40.100
 120010838.804 7  93514876.20744                  22837276.922
  22837283.387                          42.000          26.100
 109558386.223 7  85370211.49946                  20848260.195
  20848263.625                          44.700          38.800
 123654355.703 5  96175603.874 5                  23107771.789    23107771.133
  23107775.969                          33.000          34.600
 105378072.405 7  81960821.753 6                  19699313.063    19699311.488
  19699319.398                          46.600          39.200
 107763393.096 7  83971564.56846                  20506686.133
  20506691.695                          47.400          40.100
 125720083.041 6                  93881893.187 6  23923737.008
                  23923739.387          38.600                          41.300
 124209724.421 7                  92754061.868 8  23636313.344
                  23636317.645          47.000                          50.200
 113704119.783 7                  84908930.756 7  21637172.813
                  21637174.516          42.900                          46.200
 132397787.829 6                  98868501.708 7  25194459.711
                  25194466.418          41.700                          44.900
 143828841.972 5                 107404684.861 5  27369715.523
                  27369719.984          31.700                          34.800
 119065307.845 7                  88912420.777 7  22657375.320
                  22657380.395          44.300                          47.500
 118358776.794 7                  88384851.634 8  22522918.313
                  22522924.227          44.400                          48.300
 19  7  9 10 46  5.0000000  0 21G06G29R24R08R02G30G13G07R01G15G02R17
                                R23G05E12E04E11E36E19E14E09
 124589538.691 5  97082863.27543  93037740.782 7  23708612.953
  23708619.465    23708620.809          32.300          19.300          42.200
 116498957.995 7  90778567.39945                  22169045.844
  22169051.734                          43.200          30.000
 106115083.060 6  82533916.547 5                  19844055.898    19844055.945
  19844059.816                          39.900          32.900
 113030645.737 6  87912752.971 6                  21107667.734    21107666.754
  21107671.102                          39.300          41.200
 121094651.767 6  94184738.622 6                  22693085.820    22693084.125
  22693089.395                          37.300          36.800
 121553923.989 6  94717340.98943  90770792.953 7  23130927.914
  23130936.883    23130937.203          36.200          23.300          46.400
 108770099.960 7  84755940.66846                  20698254.703
  20698260.586                          45.200          38.400
 128053492.466 5  99781880.14642                  24367743.336
  24367750.250                          34.300          17.800
 105292037.637 7  81893850.325 6                  19697043.680    19697042.863
  19697049.262                          42.700          40.400
 120007536.659 6  93512303.10744                  22836648.234
  22836654.758                          41.900          27.100
 109559425.750 7  85371021.51646                  20848458.266
  20848461.355                          45.000          39.200
 123650290.095 5  96172441.745 5                  23107012.547    23107011.141
  23107016.039                          32.800          34.600
 105380442.000 7  81962664.744 6                  19699755.555    19699754.660
  19699762.320                          46.700          39.400
 107763650.453 7  83971765.10646                  20506735.445
  20506740.789                          47.500          40.200
 125722781.172 6                  93883908.018 6  23924250.313
                  23924252.781          38.700                          41.700
 124210674.027 7                  92754770.992 8  23636494.008
                  23636498.270          47.000                          50.300
 113704553.576 7                  84909254.688 7  21637255.367
                  21637257.055          42.900                          45.900
 132395636.658 6                  98866895.327 7  25194050.453
                  25194056.980          41.300                          45.200
 143831345.441 5                 107406554.350 5  27370191.805
                  27370196.559          31.100                          34.700
 119070821.848 7                  88916538.394 7  22658424.734
                  22658429.758          44.000                          47.200
 118357347.981 7                  88383784.685 8  22522646.383
                  22522652.168          44.600                          48.100
 19  7  9 10 46  6.0000000  0 21G06G29R24R08R02G30G13G07R01G15G02R17
                                R23G05E12E04E11E36E19E14E09
 124592709.298 5  97085333.89643  93040108.410 7  23709215.063
  23709222.504    23709224.176          33.200          18.600          42.300
 116498436.803 7  90778161.27445                  22168946.781
  22168952.547                          43.500          30.100
 106113569.784 6  82532739.520 5                  19843774.180    19843772.746
  19843776.813                          39.900          33.400
 113033258.710 6  87914785.310 6                  21108155.648    21108154.738
  21108158.980                          39.000          41.300
 121091965.976 6  94182649.671 6                  22692582.047    22692580.445
  22692586.289                          37.600          36.600
 121553254.399 6  94716819.24644  90770292.934 7  23130800.594
  23130809.781    23130809.758          36.000          25.300          46.100
 108768223.651 7  84754478.61646                  20697897.391
  20697903.129                          45.100          37.700
 128054423.582 5  99782605.70542                  24367920.367
  24367927.402                          34.300          17.800
 105292262.732 7  81894025.392 6                  19697085.430    19697084.941
  19697091.613                          42.500          40.000
 120004234.726 7  93509730.16644                  22836020.148
  22836026.445                          42.100          26.800
 109560465.688 7  85371831.85446                  20848656.008
  20848659.387                          44.600          39.400
 123646224.735 5  96169279.819 5                  23106252.813    23106251.523
  23106256.477                          33.300          34.000
 105382812.301 7  81964508.317 6                  19700198.867    19700197.668
  19700205.258                          47.000          39.500
 107763907.991 7  83971965.78546                  20506783.719
  20506789.750                          47.200          39.400
 125725479.454 6                  93885922.965 6  23924763.703
                  23924766.238          38.600                          41.600
 124211623.807 7                  92755480.244 8  23636674.766
                  23636679.109          46.200                          50.500
 113704987.766 7                  84909578.920 7  21637338.086
                  21637339.773          43.100                          46.100
 132393485.689 6                  98865289.062 7  25193641.047
                  25193647.602          41.300                          45.400
 143833848.852 5                 107408423.765 5  27370668.367
                  27370672.813          31.300                          34.700
 119076336.123 7                  88920656.194 7  22659474.078
                  22659479.059          43.900                          47.500
 118355919.384 7                  88382717.871 8  22522374.656
                  22522380.383          44.600                          48.300
 19  7  9 10 46  7.0000000  0 21G06G29R24R08R02G30G13G07R01G15G02R17
                                R23G05E12E04E11E36E19E14E09
 124595880.183 5  97087804.72043  93042476.292 6  23709818.453
  23709825.668    23709827.504          33.200          19.000          41.700
 116497916.339 7  90777755.72044                  22168847.563
  22168853.785                          43.500          29.900
 106112057.411 6  82531563.236 5                  19843490.609    19843490.469
  19843493.801                          39.900          32.400
 113035871.885 6  87916817.773 6                  21108643.789    21108643.090
  21108647.047                          39.000          41.100
 121089280.540 6  94180561.027 6                  22692078.305    22692077.383
  22692083.000                          37.600          36.500
 121552585.431 5  94716297.95044  90769793.370 7  23130673.508
  23130682.301    23130682.398          35.900          25.600          46.200
 108766347.953 7  84753017.03146                  20697540.852
  20697546.453                          45.100          38.100
 128055355.338 5  99783331.74442                  24368098.461
  24368104.934                          34.400          17.800
 105292488.287 7  81894200.818 6                  19697126.742    19697126.863
  19697133.727                          42.100          40.000
 120000933.149 6  93507157.51044                  22835391.945
  22835397.848                          41.600          27.400
 109561506.207 7  85372642.65046                  20848853.844
  20848856.820                          44.500          39.000
 123642159.737 5  96166118.075 5                  23105491.727    23105491.844
  23105496.863                          33.400          34.400
 105385183.425 7  81966352.537 6                  19700642.375    19700641.059
  19700648.246                          47.100          39.800
 107764165.857 7  83972166.71546                  20506832.977
  20506838.426                          47.200          39.800
 125728178.043 6                  93887938.160 6  23925277.375
                  23925279.707          38.500                          41.300
 124212573.899 7                  92756189.729 8  23636855.703
                  23636859.879          46.200                          50.400
 113705422.435 7                  84909903.495 7  21637420.758
                  21637422.340          42.900                          46.000
 132391335.032 6                  98863683.079 7  25193231.727
                  25193238.395          41.600                          45.000
 143836352.308 5                 107410293.218 5  27371144.477
                  27371149.340          32.200                          34.300
 119081850.767 7                  88924774.268 7  22660523.617
                  22660528.398          44.200                          47.400
 118354491.122 7                  88381651.309 8  22522102.563
                  22522108.605          44.600                          48.500
 19  7  9 10 46  8.0000000  0 21G06G29R24R08R02G30G13G07R01G15G02R17
                                R23G05E12E04E11E36E19E14E09
 124599051.335 5  97090275.75743  93044844.371 6  23710422.633
  23710429.313    23710430.855          33.000          19.000          41.600
 116497396.545 7  90777350.69945                  22168748.805
  22168754.969                          43.200          30.400
 106110545.875 6  82530387.579 5                  19843208.094    19843207.578
  19843210.926                          39.900          32.800
 113038485.143 6  87918850.299 6                  21109131.719    21109131.090
  21109135.047                          38.700          40.800
 121086595.431 6  94178472.566 6                  22691574.359    22691573.980
  22691579.793                          37.400          36.600
 121551916.985 6  94715777.09143  90769294.220 7  23130546.016
  23130555.324    23130555.008          36.600          22.600          46.300
 108764472.837 7  84751555.90446                  20697183.797
  20697189.582                          45.600          37.700
 128056287.586 5  99784058.16442                  24368276.375
  24368282.438                          33.700          17.400
 105292714.261 7  81894376.577 6                  19697171.180    19697169.379
  19697176.086                          42.300          40.300
 119997631.897 6  93504585.11944                  22834763.922
  22834769.652                          41.500          26.800
 109562547.233 7  85373453.83946                  20849052.430
  20849055.219                          43.800          39.400
 123638095.006 5  96162956.626 5                  23104733.484    23104732.430
  23104737.242                          33.400          33.700
 105387555.354 7  81968197.370 6                  19701085.891    19701084.387
  19701091.609                          46.700          39.800
 107764423.991 7  83972367.85846                  20506881.953
  20506887.777                          47.500          39.800
 125730876.847 6                  93889953.492 6  23925790.750
                  23925793.422          38.500                          41.300
 124213524.249 7                  92756899.398 8  23637036.570
                  23637040.727          46.500                          50.800
 113705857.542 7                  84910228.427 7  21637503.625
                  21637505.191          43.000                          45.900
 132389184.663 6                  98862077.257 7  25192822.641
                  25192829.238          41.800                          44.900
 143838855.771 5                 107412162.671 5  27371620.664
                  27371625.730          32.200                          34.600
 119087365.741 7                  88928892.591 7  22661573.039
                  22661577.906          44.200                          47.700
 118353063.143 7                  88380584.950 8  22521830.961
                  22521836.840          44.700                          48.500
 19  7  9 10 46  9.0000000  0 21G06G29R24R08R02G30G13G07R01G15G02R17
                                R23G05E12E04E11E36E19E14E09
 124602222.608 5  97092746.88143  93047212.552 6  23711025.141
  23711032.625    23711034.148          32.300          18.300          41.400
 116496877.380 7  90776946.15045                  22168649.719
  22168656.574                          43.200          30.100
 106109035.156 6  82529212.578 5                  19842924.844    19842924.773
  19842928.387                          39.700          32.600
 113041098.479 6  87920882.928 6                  21109620.617    21109618.723
  21109623.004                          38.700          40.900
 121083910.522 6  94176384.337 6                  22691071.391    22691070.891
  22691076.535                          37.000          36.800
 121551249.078 6  94715256.64144  90768795.444 7  23130418.234
  23130427.852    23130427.934          36.900          24.800          46.200
 108762598.210 7  84750095.15746                  20696827.172
  20696832.883                          45.700          37.900
 128057220.297 5  99784784.97842                  24368453.125
  24368459.898                          34.000          17.400
 105292940.595 7  81894552.621 6                  19697211.922    19697211.527
  19697218.523                          42.400          40.500
 119994330.863 6  93502012.88044                  22834134.898
  22834141.570                          41.300          26.400
 109563588.702 7  85374265.37046                  20849250.586
  20849253.547                          43.700          39.500
 123634030.450 5  96159795.362 5                  23103972.953    23103972.883
  23103977.480                          32.800          34.100
 105389928.014 7  81970042.747 6                  19701528.750    19701527.902
  19701535.551                          46.500          39.500
 107764682.324 7  83972569.15746                  20506931.227
  20506936.746                          47.600          40.000
 125733575.836 6                  93891968.961 6  23926304.547
                  23926307.008          38.400                          41.000
 124214474.747 7                  92757609.207 8  23637217.180
                  23637221.613          46.300                          50.900
 113706293.055 7                  84910553.628 7  21637586.313
                  21637588.086          42.600                          46.000
 132387034.490 6                  98860471.605 7  25192413.469
                  25192420.113          41.900                          45.300
 143841359.127 5                 107414032.065 5  27372097.188
                  27372102.266          31.300                          35.000
 119092880.955 7                  88933011.104 7  22662622.625
                  22662627.402          43.600                          47.300
 118351635.349 7                  88379518.762 8  22521559.086
                  22521565.094          44.800                          48.500
 19  7  9 10 46 10.0000000  0 21G06G29R24R08R02G30G13G07R01G15G02R17
                                R23G05E12E04E11E36E19E14E09
 124605394.182 5  97095218.23043  93049580.930 6  23711628.188
  23711636.176    23711637.742          32.600          18.600          41.600
 116496358.880 7  90776542.12845                  22168551.094
  22168557.383                          43.200          30.200
 106107525.248 6  82528038.250 5                  19842643.445    19842642.691
  19842646.055                          39.400          32.700
 113043711.941 6  87922915.611 6                  21110108.359    21110107.238
  21110111.215                          39.100          41.200
 121081225.902 6  94174296.306 6                  22690568.352    22690567.945
  22690573.453                          37.000          36.800
 121550581.685 6  94714736.59843  90768297.064 7  23130291.273
  23130301.078    23130301.008          37.200          23.300          46.300
 108760724.156 7  84748634.85646                  20696470.734
  20696475.758                          46.000          37.900
 128058153.505 5  99785512.13442                  24368631.141
  24368637.383                          33.000          17.400
 105293167.346 7  81894728.989 6                  19697255.945    19697254.004
  19697260.652                          42.200          40.400
 119991030.125 6  93499440.88244                  22833507.297
  22833513.891                          41.300          26.300
 109564630.635 7  85375077.27146                  20849448.656
  20849451.867                          43.900          38.600
 123629966.203 5  96156634.279 5                  23103213.445    23103212.484
  23103217.930                          33.100          34.700
 105392301.422 7  81971888.743 6                  19701972.773    19701971.598
  19701979.148                          46.700          39.500
 107764940.924 7  83972770.66246                  20506980.586
  20506986.270                          47.600          39.900
 125736275.024 6                  93893984.596 6  23926818.289
                  23926820.715          38.600                          41.000
 124215425.515 7                  92758319.183 8  23637398.188
                  23637402.516          46.300                          50.900
 113706728.979 7                  84910879.170 7  21637669.477
                  21637671.098          42.800                          46.100
 132384884.532 6                  98858866.148 7  25192004.266
                  25192011.063          41.800                          45.000
 143843862.43915                 107415901.441 5  27372573.141
                  27372578.465          31.500                          34.800
 119098396.514 7                  88937129.854 7  22663672.164
                  22663676.891          43.600                          47.300
 118350207.839 7                  88378452.758 8  22521287.594
                  22521293.598          44.800                          48.600
 19  7  9 10 46 11.0000000  0 21G06G29R24R08R02G30G13G07R01G15G02R17
                                R23G05E12E04E11E36E19E14E09
 124608565.970 5  97097689.73543  93051949.507 6  23712232.023
  23712239.598    23712241.250          32.400          18.300          41.600
 116495841.081 7  90776138.64045                  22168452.719
  22168459.145                          42.700          30.000
 106106016.262 6  82526864.583 5                  19842362.227    19842360.559
  19842363.879                          39.500          33.000
 113046325.575 6  87924948.450 6                  21110595.742    21110595.090
  21110599.258                          38.900          40.600
 121078541.607 6  94172208.491 6                  22690065.094    22690064.949
  22690070.430                          36.900          36.800
 121549914.853 6  94714217.00243  90767799.123 7  23130165.219
  23130174.223    23130174.215          37.000          23.400          46.400
 108758850.667 7  84747174.99646                  20696113.984
  20696119.723                          45.500          37.500
 128059087.367 5  99786239.85342                  24368808.727
  24368814.965                          33.200          16.900
 105293394.540 6  81894905.703 6                  19697298.102    19697296.395
  19697302.902                          41.700          39.900
 119987729.716 6  93496869.13544                  22832878.773
  22832885.285                          41.500          27.100
 109565673.132 7  85375889.60046                  20849646.852
  20849650.016                          44.100          38.900
 123625902.279 5  96153473.442 5                  23102454.820    23102453.273
  23102458.621                          33.700          34.300
 105394675.641 7  81973735.360 6                  19702416.945    19702415.395
  19702422.984                          46.700          39.100
 107765199.808 7  83972972.39446                  20507029.859
  20507035.473                          47.900          39.600
 125738974.470 6                  93896000.410 6  23927331.836
                  23927334.461          38.300                          41.100
 124216376.540 7                  92759029.358 8  23637579.242
                  23637583.414          46.500                          50.900
 113707165.394 7                  84911205.069 7  21637752.477
                  21637754.180          43.000                          46.000
 132382734.930 6                  98857260.903 7  25191595.180
                  25191601.980          41.500                          45.300
 143846365.757 5                 107417770.825 5  27373049.414
                  27373054.648          31.700                          35.200
 119103912.389 7                  88941248.849 7  22664721.953
                  22664726.543          43.600                          47.400
 118348780.639 7                  88377386.986 8  22521015.961
                  22521021.887          44.800                          48.600
 19  7  9 10 46 12.0000000  0 21G06G29R24R08R02G30G13G07R01G15G02R17
                                R23G05E12E04E11E36E19E14E09
 124611738.093 5  97100161.53543  93054318.263 6  23712836.273
  23712843.273    23712844.844          32.200          19.000          41.400
 116495323.966 7  90775735.70845                  22168354.016
  22168360.453                          42.700          30.400
 106104508.122 6  82525691.576 5                  19842079.086    19842078.617
  19842081.926                          39.400          32.600
 113048939.451 6  87926981.446 6                  21111084.672    21111083.199
  21111087.387                          38.800          41.100
 121075857.567 6  94170120.916 6                  22689563.633    22689562.336
  22689567.406                          36.700          36.500
 121549248.605 6  94713697.85543  90767301.626 7  23130038.102
  23130047.434    23130047.293          36.000          23.500          46.300
 108756977.802 7  84745715.62046                  20695757.703
  20695763.180                          45.700          37.700
 128060021.732 5  99786967.91342                  24368987.016
  24368992.828                          33.500          17.800
 105293622.191 7  81895082.740 6                  19697340.922    19697339.285
  19697345.750                          42.100          40.200
 119984429.611 6  93494297.63244                  22832251.141
  22832257.285                          41.900          26.100
 109566716.140 7  85376702.33846                  20849845.398
  20849848.320                          44.400          38.800
 123621838.665 5  96150312.834 5                  23101694.844    23101693.695
  23101698.969                          33.700          34.700
 105397050.655 7  81975582.582 6                  19702859.961    19702859.605
  19702867.168                          47.200          39.200
 107765458.985 8  83973174.34846                  20507079.125
  20507084.555                          48.100          39.900
 125741674.183 6                  93898016.430 6  23927845.477
                  23927848.129          38.100                          41.100
 124217327.831 7                  92759739.741 8  23637760.156
                  23637764.555          46.000                          50.900
 113707602.289 7                  84911531.325 7  21637835.547
                  21637837.234          43.000                          45.900
 132380585.559 6                  98855655.878 7  25191186.406
                  25191192.961          41.100                          45.100
 143848869.235 5                 107419640.224 5  27373525.813
                  27373531.121          31.700                          34.900
 119109428.628 7                  88945368.123 7  22665771.570
                  22665776.188          44.000                          47.000
 118347353.725 7                  88376321.436 8  22520744.828
                  22520750.406          44.400                          48.500
 19  7  9 10 46 13.0000000  0 21G06G29R24R08R02G30G13G07R01G15G02R17
                                R23G05E12E04E11E36E19E14E09
 124614910.369 5  97102633.45743  93056687.168 6  23713440.250
  23713446.984    23713448.449          32.900          19.600          41.600
 116494807.495 7  90775333.25545                  22168255.586
  22168262.754                          43.300          31.100
 106103000.757 6  82524519.158 5                  19841796.281    19841796.633
  19841800.012                          39.600          33.100
 113051553.386 6  87929014.504 6                  21111572.328    21111571.512
  21111575.484                          38.800          41.300
 121073173.808 6  94168033.542 6                  22689061.477    22689059.313
  22689064.734                          36.900          36.500
 121548582.899 6  94713179.10843  90766804.470 7  23129911.531
  23129920.320    23129920.719          36.000          23.600          46.200
 108755105.398 7  84744256.60446                  20695400.969
  20695406.922                          45.900          37.700
 128060956.600 5  99787696.38842                  24369164.109
  24369170.688                          33.900          17.800
 105293850.205 7  81895260.082 6                  19697383.570    19697381.887
  19697388.188                          42.200          40.300
 119981129.769 6  93491726.33144                  22831622.758
  22831629.770                          41.800          25.100
 109567759.595 7  85377515.41446                  20850043.656
  20850047.449                          44.500          38.800
 123617775.238 5  96147152.403 5                  23100936.875    23100934.363
  23100939.777                          33.700          34.900
 105399426.374 7  81977430.372 6                  19703304.430    19703303.582
  19703311.105                          46.800          39.400
 107765718.364 8  83973376.46246                  20507128.383
  20507133.895                          48.000          40.000
 125744374.007 6                  93900032.551 6  23928359.281
                  23928361.840          37.700                          41.300
 124218279.285 7                  92760450.253 8  23637941.359
                  23637945.543          45.800                          50.500
 113708039.558 7                  84911857.847 7  21637918.961
                  21637920.387          42.600                          46.100
 132378436.415 6                  98854050.992 7  25190777.250
                  25190784.098          41.200                          44.800
 143851372.446 5                 107421509.576 5  27374002.000
                  27374007.512          31.300                          34.500
 119114945.113 7                  88949487.565 7  22666821.211
                  22666826.109          43.900                          47.200
 118345927.029 7                  88375256.040 8  22520473.031
                  22520478.977          44.400                          48.700
 19  7  9 10 46 14.0000000  0 21G06G29R24R08R02G30G13G07R01G15G02R17
                                R23G05E12E04E11E36E19E14E09
 124618082.911 5  97105105.56943  93059056.268 6  23714043.078
  23714051.406    23714052.129          31.600          18.600          41.900
 116494291.699 7  90774931.34245                  22168157.945
  22168164.816                          43.600          30.600
 106101494.201 6  82523347.390 5                  19841515.695    19841514.848
  19841518.195                          39.900          33.100
 113054167.510 6  87931047.700 6                  21112060.164    21112059.840
  21112063.867                          38.700          41.400
 121070490.385 6  94165946.438 6                  22688558.477    22688556.266
  22688561.730                          36.400          36.300
 121547917.710 6  94712660.76244  90766307.740 7  23129785.242
  23129793.680    23129794.152          36.800          24.200          46.400
 108753233.594 7  84742798.05546                  20695045.016
  20695050.914                          45.600          38.100
 128061891.980 5  99788425.25242                  24369342.813
  24369349.258                          34.300          17.800
 105294078.610 7  81895437.749 6                  19697425.703    19697424.488
  19697430.879                          42.200          40.400
 119977830.247 6  93489155.27244                  22830995.438
  22831001.555                          41.800          26.500
 109568803.569 7  85378328.89646                  20850242.367
  20850245.531                          44.900          38.900
 123613712.060 5  96143992.147 5                  23100177.484    23100175.422
  23100180.445                          34.200          35.000
 105401802.882 7  81979278.759 6                  19703748.852    19703747.418
  19703755.492                          46.900          39.400
 107765978.015 7  83973578.78946                  20507177.469
  20507183.348                          47.900          40.200
 125747074.138 6                  93902048.865 6  23928872.828
                  23928875.477          37.800                          41.300
 124219231.037 7                  92761160.953 8  23638122.492
                  23638126.691          46.100                          50.500
 113708477.277 7                  84912184.717 7  21638001.977
                  21638003.762          42.800                          46.500
 132376287.554 6                  98852446.310 7  25190368.352
                  25190375.188          40.900                          44.700
 143853875.764 5                 107423378.901 5  27374478.078
                  27374484.074          31.500                          34.600
 119120461.921 7                  88953607.271 7  22667870.984
                  22667875.805          43.800                          47.600
 118344500.597 7                  88374190.858 8  22520201.563
                  22520207.551          44.600                          48.800
 19  7  9 10 46 15.0000000  0 21G06G29R24R08R02G30G13G07R01G15G02R17
                                R23G05E12E04E11E36E19E14E09
 124621255.653 5  97107577.81243  93061425.538 7  23714647.039
  23714654.727    23714655.859          32.300          19.000          42.000
 116493776.596 7  90774529.96244                  22168060.484
  22168066.207                          43.600          29.800
 106099988.536 6  82522176.364 5                  19841234.125    19841233.324
  19841236.695                          39.700          32.900
 113056781.725 6  87933080.975 6                  21112547.430    21112547.691
  21112551.930                          38.800          41.700
 121067807.234 6  94163859.534 6                  22688054.719    22688053.023
  22688059.105                          36.900          36.400
 121547253.070 6  94712142.87343  90765811.426 7  23129658.320
  23129667.070    23129667.609          37.200          23.800          46.500
 108751362.335 7  84741339.93346                  20694689.063
  20694694.477                          45.400          38.000
 128062827.898 5  99789154.53043                  24369520.961
  24369527.473                          33.600          18.300
 105294307.472 7  81895615.740 6                  19697468.273    19697467.363
  19697474.055                          42.100          40.400
 119974530.987 6  93486584.40644                  22830367.750
  22830373.895                          41.400          26.900
 109569848.027 7  85379142.76346                  20850441.383
  20850444.590                          44.600          39.000
 123609649.239 5  96140832.162 5                  23099417.633    23099416.344
  23099421.086                          34.100          34.900
 105404180.183 7  81981127.772 6                  19704192.711    19704191.887
  19704199.992                          46.700          39.200
 107766237.934 7  83973781.32146                  20507227.242
  20507233.441                          47.800          40.200
 125749774.456 6                  93904065.339 6  23929386.695
                  23929389.504          38.000                          41.400
 124220182.990 7                  92761871.833 8  23638303.547
                  23638307.820          46.100                          50.600
 113708915.444 7                  84912511.902 7  21638085.430
                  21638087.109          43.200                          46.200
 132374138.937 6                  98850841.819 7  25189959.469
                  25189966.152          41.000                          44.900
 143856379.061 5                 107425248.238 5  27374954.758
                  27374960.098          31.100                          34.800
 119125979.059 7                  88957727.216 7  22668921.102
                  22668925.738          43.600                          47.400
 118343074.449 7                  88373125.871 8  22519930.250
                  22519936.008          44.900                          49.400
 19  7  9 10 46 16.0000000  0 21G06G29R24R08R02G30G13G07R01G15G02R17
                                R23G05E12E04E11E36E19E14E09
 124624428.666 5  97110050.27043  93063795.012 7  23715251.375
  23715259.016    23715259.855          31.900          19.600          42.000
 116493262.223 7  90774129.14945                  22167961.984
  22167968.121                          43.700          30.500
 106098483.796 6  82521005.990 5                  19840952.398    19840952.281
  19840955.629                          40.200          33.700
 113059396.117 6  87935114.406 6                  21113036.188    21113036.098
  21113040.129                          38.800          41.800
 121065124.456 6  94161772.945 6                  22687551.766    22687550.586
  22687555.887                          37.200          36.500
 121546589.051 6  94711625.46544  90765315.568 7  23129532.461
  23129540.957    23129541.379          36.700          24.300          46.000
 108749491.699 7  84739882.29646                  20694332.875
  20694338.730                          45.400          38.200
 128063764.453 5  99789884.31442                  24369699.133
  24369705.285                          33.600          17.800
 105294536.824 7  81895794.134 6                  19697511.898    19697510.332
  19697516.816                          42.100          40.000
 119971232.115 6  93484013.86144                  22829739.891
  22829746.492                          41.200          27.000
 109570893.063 7  85379957.07546                  20850639.992
  20850643.047                          44.700          38.700
 123605586.750 5  96137672.417 5                  23098657.961    23098657.211
  23098661.844                          34.000          34.900
 105406558.301 7  81982977.439 6                  19704638.109    19704636.418
  19704644.328                          46.400          39.000
 107766498.173 7  83973984.10546                  20507276.430
  20507282.578                          47.900          39.900
 125752475.059 6                  93906082.033 6  23929900.914
                  23929903.379          37.900                          41.600
 124221135.248 7                  92762582.951 8  23638484.867
                  23638489.063          46.300                          50.500
 113709354.107 7                  84912839.487 7  21638168.914
                  21638170.523          43.300                          46.100
 132371990.629 6                  98849237.581 7  25189550.391
                  25189557.387          41.100                          44.900
 143858882.348 5                 107427117.603 5  27375431.102
                  27375436.422          30.400                          34.700
 119131496.575 7                  88961847.432 7  22669971.070
                  22669975.680          43.900                          47.300
 118341648.635 7                  88372061.151 8  22519658.727
                  22519664.785          44.800                          49.200
 19  7  9 10 46 17.0000000  0 21G06G29R24R08R02G30G13G07R01G15G02R17
                                R23G05E12E04E11E36E19E14E09
 124627601.914 5  97112522.96143  93066164.609 7  23715853.992
  23715862.238    23715863.699          30.800          19.600          42.100
 116492748.403 7  90773728.77545                  22167864.398
  22167870.738                          43.700          30.800
 106096979.749 6  82519836.167 5                  19840670.945    19840670.781
  19840674.137                          40.300          32.700
 113062010.489 6  87937147.810 7                  21113524.945    21113524.293
  21113528.438                          39.000          42.100
 121062441.868 6  94159686.490 6                  22687047.422    22687047.934
  22687053.188                          37.100          36.400
 121545925.477 6  94711108.38844  90764820.051 7  23129406.133
  23129414.563    23129415.125          37.300          25.000          46.500
 108747621.549 7  84738425.02946                  20693977.188
  20693982.875                          45.500          37.900
 128064701.366 5  99790614.38142                  24369876.852
  24369883.547                          34.300          16.300
 105294766.466 6  81895972.749 6                  19697554.781    19697553.074
  19697559.844                          41.800          40.200
 119967933.437 6  93481443.46744                  22829112.180
  22829118.262                          41.600          27.600
 109571938.519 7  85380771.72146                  20850839.031
  20850842.449                          44.700          38.900
 123601524.398 5  96134512.888 5                  23097900.602    23097898.281
  23097902.793                          33.900          34.900
 105408937.131 7  81984827.632 6                  19705082.672    19705081.191
  19705088.949                          46.300          39.300
 107766758.561 7  83974187.00646                  20507326.234
  20507332.609                          47.700          39.900
 125755175.792 6                  93908098.818 6  23930414.352
                  23930417.184          37.900                          41.200
 124222087.667 7                  92763294.159 8  23638666.055
                  23638670.281          46.600                          50.300
 113709793.123 7                  84913167.333 7  21638252.727
                  21638254.137          43.400                          46.000
 132369842.510 6                  98847633.473 7  25189141.688
                  25189148.664          41.000                          45.000
 143861385.570 5                 107428986.870 5  27375907.039
                  27375913.082          31.100                          35.200
 119137014.299 7                  88965967.814 7  22671021.000
                  22671025.730          43.600                          47.300
 118340223.008 7                  88370996.551 8  22519387.695
                  22519393.488          45.100                          48.600
 19  7  9 10 46 18.0000000  0 21G06G29R24R08R02G30G13G07R01G15G02R17
                                R23G05E12E04E11E36E19E14E09
 124630775.315 5  97114995.74743  93068534.408 6  23716457.984
  23716466.207    23716467.656          31.600          18.300          41.800
 116492235.313 7  90773328.96745                  22167766.742
  22167772.641                          43.500          30.400
 106095476.582 6  82518667.036 5                  19840389.953    19840389.719
  19840392.930                          39.800          33.200
 113064625.037 6  87939181.339 7                  21114013.305    21114012.465
  21114016.543                          39.200          42.200
 121059759.634 6  94157600.266 6                  22686545.602    22686545.078
  22686550.773                          37.200          36.300
 121545262.474 6  94710591.77144  90764324.947 7  23129279.383
  23129288.242    23129288.957          36.500          26.000          46.400
 108745751.958 7  84736968.21246                  20693621.289
  20693627.051                          45.600          38.100
 128065638.884 5  99791344.92342                  24370055.188
  24370061.520                          34.200          17.400
 105294996.577 7  81896151.710 6                  19697597.188    19697596.066
  19697602.828                          42.100          40.200
 119964635.074 6  93478873.31344                  22828484.813
  22828490.715                          41.800          26.600
 109572984.466 7  85381586.74146                  20851038.008
  20851041.730                          44.800          38.700
 123597462.373 5  96131353.495 5                  23097140.031    23097138.906
  23097144.066                          33.500          34.600
 105411316.759 7  81986678.437 6                  19705527.383    19705526.137
  19705533.957                          46.200          39.400
 107767019.255 7  83974390.14746                  20507375.438
  20507381.582                          47.900          39.900
 125757876.786 6                  93910115.776 6  23930928.273
                  23930931.133          37.800                          41.300
 124223040.337 7                  92764005.568 8  23638847.336
                  23638851.629          46.300                          50.100
 113710232.608 7                  84913495.532 7  21638336.289
                  21638337.738          43.200                          46.000
 132367694.679 6                  98846029.570 7  25188732.953
                  25188740.031          40.900                          44.900
 143863888.777 5                 107430856.147 5  27376383.188
                  27376389.238          31.300                          35.200
 119142532.376 7                  88970088.442 7  22672070.922
                  22672075.820          43.700                          47.300
 118338797.641 7                  88369932.153 8  22519116.609
                  22519122.398          45.300                          48.600
 19  7  9 10 46 19.0000000  0 21G06G29R24R08R02G30G13G07R01G15G02R17
                                R23G05E12E04E11E36E19E14E09
 124633949.013 5  97117468.75443  93070904.371 6  23717061.836
  23717070.176    23717071.594          30.300          19.300          41.600
 116491722.862 7  90772929.66145                  22167668.719
  22167675.273                          43.600          30.600
 106093974.202 6  82517498.497 5                  19840109.820    19840108.691
  19840111.832                          40.200          33.100
 113067239.675 6  87941214.963 7                  21114500.688    21114500.762
  21114504.961                          39.100          42.200
 121057077.569 6  94155514.277 6                  22686042.938    22686042.344
  22686048.465                          37.400          36.300
 121544600.009 6  94710075.57044  90763830.259 7  23129154.008
  23129162.117    23129162.953          36.300          24.300          46.400
 108743882.902 7  84735511.80546                  20693265.805
  20693271.258                          45.800          38.000
 128066576.904 5  99792075.83142                  24370234.320
  24370240.645                          33.900          16.900
 105295227.099 7  81896331.007 6                  19697641.039    19697639.566
  19697645.613                          42.100          39.800
 119961336.993 7  93476303.38344                  22827857.578
  22827863.117                          42.100          26.400
 109574030.919 7  85382402.15946                  20851237.203
  20851240.555                          44.800          39.000
 123593400.565 5  96128194.300 5                  23096380.508    23096379.641
  23096384.863                          33.700          35.100
 105413697.169 7  81988529.874 6                  19705972.906    19705971.098
  19705978.656                          46.500          39.600
 107767280.186 7  83974593.47046                  20507425.242
  20507431.418                          47.800          40.200
 125760577.978 6                  93912132.890 6  23931442.211
                  23931445.332          38.000                          41.400
 124223993.238 7                  92764717.139 8  23639028.727
                  23639032.938          46.100                          50.200
 113710672.538 7                  84913824.032 7  21638419.828
                  21638421.348          42.800                          46.200
 132365547.064 6                  98844425.838 7  25188324.695
                  25188331.258          41.100                          44.900
 143866392.01215                 107432725.404 5  27376859.563
                  27376865.551          31.700                          35.800
 119148050.732 7                  88974209.315 7  22673121.281
                  22673125.813          43.400                          47.200
 118337372.550 7                  88368867.967 8  22518845.266
                  22518851.148          45.800                          48.700
 19  7  9 10 46 20.0000000  0 21G06G29R24R08R02G30G13G07R01G15G02R17
                                R23G05E12E04E11E36E19E14E09
 124637122.895 5  97119941.90243  93073274.501 7  23717665.141
  23717674.461    23717675.688          30.500          19.600          42.000
 116491211.075 7  90772530.85745                  22167571.977
  22167577.625                          43.600          30.900
 106092472.724 6  82516330.668 5                  19839829.109    19839827.863
  19839831.184                          40.300          33.800
 113069854.494 6  87943248.688 7                  21114990.164    21114989.137
  21114993.246                          39.000          42.000
 121054395.894 6  94153428.487 6                  22685541.094    22685539.563
  22685545.656                          37.500          36.100
 121543938.119 6  94709559.80644  90763335.973 7  23129027.883
  23129036.367    23129037.004          36.900          24.800          46.800
 108742014.428 7  84734055.84846                  20692910.125
  20692915.840                          45.500          37.700
 128067515.513 5  99792807.21242                  24370412.484
  24370418.992                          33.400          16.900
 105295457.984 7  81896510.580 6                  19697683.102    19697682.543
  19697689.156                          42.300          39.800
 119958039.210 7  93473733.68244                  22827229.297
  22827235.773                          42.100          26.200
 109575077.857 7  85383217.95146                  20851436.477
  20851439.711                          44.800          39.200
 123589339.038 5  96125035.368 5                  23095621.773    23095620.789
  23095626.156                          33.300          35.000
 105416078.346 7  81990381.906 6                  19706417.609    19706416.035
  19706424.082                          46.400          40.000
 107767541.371 7  83974796.98846                  20507475.680
  20507481.336                          47.800          40.300
 125763279.389 6                  93914150.187 6  23931956.750
                  23931959.359          37.500                          41.300
 124224946.359 7                  92765428.904 8  23639209.992
                  23639214.277          46.300                          50.200
 113711112.888 7                  84914152.845 7  21638503.766
                  21638505.297          43.400                          46.100
 132363399.732 6                  98842822.303 7  25187915.688
                  25187922.633          41.500                          45.100
 143868895.107 5                 107434594.684 5  27377336.156
                  27377342.176          32.000                          34.800
 119153569.418 7                  88978330.406 7  22674171.234
                  22674175.969          43.500                          47.000
 118335947.705 7                  88367803.974 8  22518574.039
                  22518580.035          45.600                          48.500
 19  7  9 10 46 21.0000000  0 21G06G29R24R08R02G30G13G07R01G15G02R17
                                R23G05E12E04E11E36E19E14E09
 124640297.153 5  97122415.36743  93075644.810 6  23718269.180
  23718278.703    23718279.781          30.500          19.000          41.800
 116490699.980 7  90772132.60844                  22167474.039
  22167480.695                          43.100          29.400
 106090972.032 6  82515163.52015                  19839547.875    19839547.145
  19839550.449                          39.600          32.100
 113072469.434 6  87945282.548 6                  21115478.188    21115477.863
  21115481.387                          39.200          41.900
 121051714.468 6  94151342.966 6                  22685039.359    22685037.453
  22685043.051                          37.400          36.000
 121543276.753 6  94709044.46444  90762842.098 7  23128901.813
  23128910.664    23128910.996          36.900          25.300          47.000
 108740146.509 7  84732600.33146                  20692554.398
  20692560.371                          45.200          37.600
 128068454.543 5  99793538.93642                  24370591.180
  24370597.355                          33.600          16.300
 105295689.336 7  81896690.533 6                  19697726.813    19697725.762
  19697732.289                          42.600          39.400
 119954741.719 6  93471164.19844                  22826602.133
  22826607.871                          41.900          27.300
 109576125.312 7  85384034.15346                  20851635.578
  20851638.926                          44.900          38.600
 123585277.855 5  96121876.651 5                  23094863.016    23094861.914
  23094866.973                          33.800          34.300
 105418460.317 7  81992234.539 6                  19706862.758    19706861.488
  19706869.316                          46.500          39.200
 107767802.821 7  83975000.71746                  20507524.797
  20507530.922                          47.600          39.500
 125765981.051 6                  93916167.653 6  23932470.734
                  23932473.414          37.700                          41.200
 124225899.763 7                  92766140.854 8  23639391.563
                  23639395.727          46.300                          50.300
 113711553.679 7                  84914482.022 7  21638587.516
                  21638589.098          43.100                          46.200
 132361252.662 6                  98841218.981 7  25187507.406
                  25187514.156          41.400                          44.900
 143871398.301 5                 107436463.943 5  27377812.469
                  27377818.426          31.500                          34.800
 119159088.427 7                  88982451.735 7  22675221.523
                  22675226.199          43.900                          47.400
 118334523.185 7                  88366740.199 8  22518302.867
                  22518308.926          45.600                          48.700
 19  7  9 10 46 22.0000000  0 21G06G29R24R08R02G30G13G07R01G15G02R17
                                R23G05E12E04E11E36E19E14E09
 124643471.494 5  97124888.86143  93078015.288 7  23718872.523
  23718882.828    23718883.691          30.100          18.600          42.100
 116490189.563 7  90771734.87045                  22167377.445
  22167383.754                          42.700          30.200
 106089472.215 6  82513996.961 5                  19839267.266    19839266.891
  19839270.207                          39.600          32.400
 113075084.583 6  87947316.536 6                  21115967.203    21115966.270
  21115969.699                          39.000          41.400
 121049033.346 6  94149257.593 5                  22684536.188    22684535.055
  22684540.586                          37.100          35.900
 121542615.931 6  94708529.54744  90762348.629 7  23128776.070
  23128784.891    23128785.430          36.900          24.000          47.100
 108738279.158 7  84731145.24946                  20692199.078
  20692204.898                          45.100          38.200
 128069394.167 5  99794271.12442                  24370769.633
  24370776.500                          33.200          16.300
 105295921.100 7  81896870.790 6                  19697770.000    19697769.605
  19697775.648                          42.400          39.800
 119951444.521 6  93468594.96644                  22825974.711
  22825980.785                          41.700          26.800
 109577173.277 7  85384850.74646                  20851835.203
  20851838.480                          45.000          38.900
 123581216.907 5  96118718.119 5                  23094103.672    23094103.508
  23094108.363                          34.500          34.700
 105420843.057 7  81994087.779 6                  19707307.563    19707306.949
  19707314.980                          46.300          39.200
 107768064.548 7  83975204.65646                  20507575.250
  20507580.730                          47.800          39.900
 125768682.891 6                  93918185.268 6  23932984.680
                  23932987.531          37.600                          41.000
 124226853.366 7                  92766852.963 8  23639572.820
                  23639577.156          46.800                          50.500
 113711994.899 7                  84914811.510 7  21638671.508
                  21638673.113          43.200                          46.300
 132359105.838 6                  98839615.842 7  25187098.820
                  25187105.461          41.400                          44.800
 143873901.432 5                 107438333.145 5  27378289.188
                  27378294.594          31.300                          35.000
 119164607.737 7                  88986573.307 7  22676271.891
                  22676276.547          43.800                          47.300
 118333098.911 7                  88365676.601 8  22518031.781
                  22518037.934          45.600                          48.400
 19  7  9 10 46 23.0000000  0 21G06G29R24R08R02G30G13G07R01G15G02R17
                                R23G05E12E04E11E36E19E14E09
 124646646.108 5  97127362.57843  93080385.941 7  23719477.266
  23719486.938    23719487.969          30.300          18.600          42.000
 116489679.776 7  90771337.62944                  22167280.063
  22167286.359                          43.000          29.800
 106087973.211 6  82512831.051 5                  19838987.172    19838986.469
  19838989.781                          39.400          32.600
 113077699.810 6  87949350.582 6                  21116455.563    21116454.348
  21116458.168                          39.100          41.400
 121046352.522 6  94147172.531 5                  22684033.852    22684032.813
  22684038.309                          36.700          35.500
 121541955.658 6  94708015.03444  90761855.555 7  23128650.633
  23128659.148    23128659.797          36.400          24.600          46.600
 108736412.314 7  84729690.56646                  20691844.273
  20691849.793                          44.900          38.400
 128070334.312 5  99795003.73042                  24370948.938
  24370955.582                          33.700          16.300
 105296153.251 7  81897051.363 6                  19697813.734    19697812.895
  19697819.148                          42.000          39.900
 119948147.640 7  93466025.96444                  22825347.289
  22825353.211                          42.100          27.400
 109578221.681 7  85385667.68446                  20852034.492
  20852038.199                          44.900          39.000
 123577156.191 5  96115559.771 5                  23093345.547    23093344.352
  23093349.023                          34.100          35.300
 105423226.542 7  81995941.604 6                  19707753.633    19707752.246
  19707760.488                          46.300          39.500
 107768326.499 7  83975408.77846                  20507624.273
  20507630.281                          47.900          40.000
 125771384.954 6                  93920203.042 6  23933498.828
                  23933501.465          37.700                          41.400
 124227807.201 7                  92767565.234 8  23639754.609
                  23639758.680          46.900                          50.700
 113712436.563 7                  84915141.328 7  21638755.352
                  21638757.102          43.000                          45.900
 132356959.288 6                  98838012.875 7  25186690.414
                  25186697.043          41.200                          44.600
 143876404.561 5                 107440202.352 5  27378765.352
                  27378770.988          31.300                          34.800
 119170127.346 7                  88990695.083 7  22677322.289
                  22677326.785          43.700                          47.300
 118331674.875 7                  88364613.197 8  22517760.797
                  22517766.867          45.600                          48.500
 19  7  9 10 46 24.0000000  0 21G06G29R24R08R02G30G13G07R01G15G02R17
                                R23G05E12E04E11E36E19E14E09
 124649820.917 5  97129836.46843  93082756.769 7  23720080.586
  23720090.734    23720092.188          30.300          18.600          42.400
 116489170.655 7  90770940.91644                  22167183.734
  22167189.953                          43.300          29.900
 106086475.048 6  82511665.821 5                  19838707.703    19838706.738
  19838709.445                          39.500          32.600
 113080315.100 6  87951384.735 6                  21116943.797    21116942.863
  21116946.566                          39.200          41.500
 121043671.927 6  94145087.638 6                  22683531.867    22683530.430
  22683535.965                          36.900          36.000
 121541295.838 5  94707500.88244  90761362.884 7  23128524.766
  23128533.699    23128534.359          35.700          25.800          46.700
 108734546.042 7  84728236.32746                  20691489.023
  20691494.945                          45.300          38.400
 128071274.981 5  99795736.70542                  24371127.570
  24371134.156                          33.200          16.900
 105296385.804 7  81897232.246 6                  19697857.766    19697856.387
  19697862.574                          42.100          39.700
 119944851.017 6  93463457.17144                  22824719.445
  22824726.070                          41.700          26.100
 109579270.589 7  85386485.01646                  20852234.211
  20852237.715                          44.900          39.100
 123573095.772 5  96112401.736 5                  23092587.383    23092585.250
  23092590.477                          34.000          35.400
 105425610.792 7  81997796.014 6                  19708199.313    19708198.043
  19708206.164                          46.300          39.600
 107768588.686 7  83975613.07546                  20507674.531
  20507680.145                          47.800          39.900
 125774087.230 6                  93922220.962 6  23934013.000
                  23934015.785          37.900                          40.900
 124228761.242 7                  92768277.679 8  23639935.930
                  23639940.234          46.700                          50.900
 113712878.650 7                  84915471.456 7  21638839.641
                  21638841.254          43.000                          46.100
 132354812.924 6                  98836410.094 7  25186282.070
                  25186288.613          41.000                          44.600
 143878907.593 5                 107442071.525 5  27379241.961
                  27379247.516          31.500                          34.600
 119175647.249 7                  88994817.094 7  22678372.813
                  22678377.305          44.400                          47.600
 118330251.077 7                  88363549.992 8  22517489.734
                  22517495.973          45.500                          48.800
 19  7  9 10 46 25.0000000  0 21G06G29R24R08R02G30G13G07R01G15G02R17
                                R23G05E12E04E11E36E19E14E09
 124652996.028 4  97132310.57442  93085127.771 7  23720684.813
  23720695.613    23720696.313          29.100          17.400          42.100
 116488662.267 7  90770544.77045                  22167086.523
  22167092.645                          43.600          30.200
 106084977.728 6  82510501.286 5                  19838426.625    19838426.391
  19838429.512                          39.200          32.600
 113082930.649 6  87953419.017 6                  21117432.289    21117431.145
  21117435.086                          39.200          41.600
 121040991.652 6  94143002.980 6                  22683029.195    22683028.039
  22683033.797                          36.800          36.000
 121540636.686 6  94706987.25244  90760870.636 7  23128399.445
  23128408.828    23128408.758          36.100          25.300          46.800
 108732680.340 7  84726782.54346                  20691133.961
  20691139.559                          45.200          38.500
 128072216.173 5  99796470.05942                  24371307.344
  24371313.246                          33.300          17.400
 105296618.827 7  81897413.480 6                  19697900.695    19697900.090
  19697906.180                          42.400          39.900
 119941554.729 6  93460888.63744                  22824092.195
  22824098.680                          41.800          26.800
 109580320.061 7  85387302.78646                  20852433.906
  20852437.637                          44.500          39.200
 123569035.633 5  96109243.854 5                  23091827.344    23091827.086
  23091831.906                          33.700          34.900
 105427995.860 7  81999651.030 6                  19708645.742    19708644.074
  19708651.871                          46.600          39.800
 107768851.191 7  83975817.62546                  20507724.484
  20507730.168                          47.500          40.400
 125776789.745 6                  93924239.080 6  23934527.422
                  23934530.117          38.300                          41.100
 124229715.575 7                  92768990.322 8  23640117.734
                  23640121.867          46.400                          50.900
 113713321.213 7                  84915801.950 7  21638923.875
                  21638925.473          43.200                          46.000
 132352666.915 6                  98834807.554 7  25185873.922
                  25185880.227          40.900                          44.500
 143881410.680 5                 107443940.689 5  27379718.289
                  27379723.719          31.800                          34.600
 119181167.502 7                  88998939.345 7  22679423.203
                  22679427.781          44.500                          47.900
 118328827.617 7                  88362487.003 8  22517218.938
                  22517225.008          45.700                          48.600
 19  7  9 10 46 26.0000000  0 21G06G29R24R08R02G30G13G07R01G15G02R17
                                R23G05E12E04E11E36E19E14E09
 124656171.303 4  97134784.82842  93087498.958 6  23721289.375
  23721299.535    23721300.855          29.600          17.400          41.900
 116488154.525 7  90770149.13145                  22166989.859
  22166995.988                          43.500          31.000
 106083481.281 6  82509337.349 5                  19838147.727    19838146.715
  19838149.918                          39.300          32.300
 113085546.262 6  87955453.404 6                  21117920.500    21117919.309
  21117923.676                          38.500          41.900
 121038311.723 6  94140918.565 6                  22682526.617    22682525.438
  22682531.340                          37.200          36.000
 121539978.067 6  94706474.04744  90760378.797 7  23128274.078
  23128283.313    23128283.559          36.300          25.500          46.500
 108730815.203 7  84725329.19446                  20690778.867
  20690784.363                          45.400          37.900
 128073157.918 5  99797203.89142                  24371487.172
  24371492.699                          33.600          17.800
 105296852.232 7  81897594.994 6                  19697944.617    19697943.918
  19697949.836                          42.600          40.300
 119938258.711 6  93458320.31244                  22823465.313
  22823471.230                          41.500          26.700
 109581369.995 7  85388120.91046                  20852633.781
  20852637.309                          44.600          39.400
 123564975.783 5  96106086.200 5                  23091069.766    23091068.805
  23091073.070                          33.800          35.100
 105430381.677 7  82001506.702 6                  19709090.609    19709090.184
  19709098.023                          46.500          39.800
 107769113.926 7  83976022.35946                  20507774.359
  20507780.156                          47.500          40.000
 125779492.469 6                  93926257.359 6  23935041.875
                  23935044.551          38.200                          41.200
 124230670.137 7                  92769703.139 8  23640299.367
                  23640303.508          46.400                          50.600
 113713764.229 7                  84916132.747 7  21639008.109
                  21639009.594          43.200                          46.200
 132350521.139 6                  98833205.179 7  25185465.406
                  25185471.961          40.900                          44.100
 143883913.723 5                 107445809.883 5  27380194.375
                  27380200.129          31.100                          34.700
 119186688.049 7                  89003061.845 7  22680473.633
                  22680478.293          44.200                          47.700
 118327404.388 7                  88361424.213 8  22516948.102
                  22516954.145          45.600                          48.800
 19  7  9 10 46 27.0000000  0 21G06G29R24R08R02G30G13G07R01G15G02R17
                                R23G05E12E04E11E36E19E14E09
 124659346.940 4  97137259.35842  93089870.315 6  23721893.328
  23721904.074    23721905.012          29.400          16.900          41.600
 116487647.446 7  90769753.99345                  22166893.781
  22166899.727                          43.800          30.500
 106081985.660 6  82508174.104 5                  19837868.344    19837866.465
  19837869.902                          39.200          32.900
 113088162.072 6  87957487.908 6                  21118408.984    21118408.074
  21118411.793                          38.800          41.600
 121035632.048 6  94138834.404 6                  22682024.664    22682023.883
  22682029.293                          36.600          36.000
 121539319.984 6  94705961.25843  90759887.366 7  23128148.375
  23128157.750    23128158.176          36.700          23.900          46.800
 108728950.604 7  84723876.25146                  20690423.984
  20690429.879                          45.300          37.600
 128074100.150 5  99797938.10642                  24371665.563
  24371671.984                          34.000          17.400
 105297086.109 7  81897776.894 6                  19697988.297    19697987.574
  19697993.430                          42.600          40.200
 119934963.012 6  93455752.23344                  22822838.383
  22822844.441                          41.400          26.600
 109582420.420 7  85388939.43346                  20852834.086
  20852836.992                          44.800          39.600
 123560916.251 5  96102928.716 5                  23090310.500    23090310.008
  23090314.355                          34.000          35.300
 105432768.275 7  82003362.966 6                  19709538.023    19709536.520
  19709544.375                          46.600          39.400
 107769376.930 7  83976227.29646                  20507824.773
  20507830.633                          47.200          39.900
 125782195.429 6                  93928275.800 6  23935556.422
                  23935558.988          38.100                          41.300
 124231624.921 7                  92770416.131 8  23640481.016
                  23640485.137          46.200                          50.300
 113714207.641 7                  84916463.874 7  21639092.594
                  21639094.090          43.100                          45.900
 132348375.604 6                  98831603.002 7  25185057.344
                  25185063.590          41.500                          44.100
 143886416.789 5                 107447679.048 5  27380670.703
                  27380676.238          30.600                          34.500
 119192208.912 7                  89007184.566 7  22681524.266
                  22681528.902          44.100                          47.600
 118325981.431 7                  88360361.619 8  22516677.375
                  22516683.449          45.500                          48.500
 19  7  9 10 46 28.0000000  0 21G06G29R24R08R02G30G13G07R01G15G02R17
                                R23G05E12E04E11E36E19E14E09
 124662522.686 5  97139733.95743  93092241.837 6  23722498.016
  23722508.473    23722509.430          30.100          18.300          41.300
 116487141.047 7  90769359.40045                  22166797.359
  22166803.477                          43.300          30.400
 106080490.841 6  82507011.469 5                  19837588.172    19837587.020
  19837590.984                          39.200          32.900
 113090777.950 6  87959522.492 7                  21118897.234    21118896.465
  21118900.539                          38.700          42.100
 121032952.639 6  94136750.413 6                  22681524.055    22681521.656
  22681527.148                          36.800          36.000
 121538662.445 6  94705448.90344  90759396.349 7  23128023.883
  23128032.941    23128033.121          36.800          26.200          46.700
 108727086.566 7  84722423.76046                  20690069.531
  20690075.027                          45.600          37.300
 128075042.929 5  99798672.74542                  24371845.242
  24371851.230                          34.500          17.400
 105297320.335 7  81897959.092 6                  19698031.000    19698031.238
  19698037.332                          42.600          40.500
 119931667.575 6  93453184.36544                  22822210.789
  22822216.902                          41.300          26.400
 109583471.331 7  85389758.31846                  20853033.914
  20853037.418                          45.300          39.500
 123556856.860 5  96099771.474 5                  23089550.336    23089550.781
  23089555.965                          33.800          35.300
 105435155.639 7  82005219.799 6                  19709984.672    19709982.605
  19709990.484                          46.600          39.600
 107769640.166 7  83976432.41946                  20507874.922
  20507880.098                          47.300          40.200
 125784898.606 6                  93930294.385 6  23936070.750
                  23936073.211          37.900                          41.100
 124232579.925 7                  92771129.293 8  23640662.711
                  23640666.938          46.200                          50.100
 113714651.502 7                  84916795.326 7  21639176.891
                  21639178.504          43.100                          46.100
 132346230.341 6                  98830000.998 7  25184648.734
                  25184655.336          41.300                          44.700
 143888919.781 5                 107449548.203 5  27381147.023
                  27381152.535          31.800                          34.500
 119197730.065 7                  89011307.518 7  22682574.672
                  22682579.535          44.500                          47.600
 118324558.748 7                  88359299.215 8  22516406.531
                  22516412.727          45.400                          48.600
 19  7  9 10 46 29.0000000  0 21G06G29R24R08R02G30G13G07R01G15G02R17
                                R23G05E12E04E11E36E19E14E09
 124665698.745 4  97142208.77843  93094613.585 6  23723102.141
  23723113.008    23723113.801          28.600          18.600          41.800
 116486635.326 7  90768965.32645                  22166700.570
  22166707.406                          43.700          30.700
 106078996.868 6  82505849.527 5                  19837308.852    19837307.676
  19837311.219                          39.400          33.100
 113093393.976 6  87961557.157 7                  21119384.852    21119384.715
  21119388.867                          38.900          42.100
 121030273.592 6  94134666.690 6                  22681020.648    22681018.953
  22681024.906                          36.600          36.000
 121538005.423 6  94704936.93744  90758905.738 7  23127898.641
  23127907.422    23127908.152          37.000          24.800          46.600
 108725223.108 7  84720971.71646                  20689714.719
  20689720.230                          45.700          37.500
 128075986.239 5  99799407.78843                  24372024.406
  24372030.430                          34.700          18.300
 105297555.025 7  81898141.624 6                  19698075.953    19698075.160
  19698081.602                          42.600          40.500
 119928372.461 6  93450616.74344                  22821584.148
  22821590.137                          41.600          26.400
 109584522.770 7  85390577.62946                  20853233.789
  20853237.387                          45.000          39.400
 123552797.885 5  96096614.438 5                  23088794.156    23088792.094
  23088797.363                          34.100          35.100
 105437543.798 7  82007077.223 6                  19710429.992    19710429.121
  19710436.883                          46.600          39.800
 107769903.692 7  83976637.76346                  20507924.570
  20507930.328                          47.600          39.900
 125787602.003 6                  93932313.176 6  23936584.758
                  23936587.918          38.000                          41.100
 124233535.215 7                  92771842.642 8  23640844.422
                  23640848.703          46.100                          50.400
 113715095.815 7                  84917127.126 7  21639261.500
                  21639263.098          42.900                          46.000
 132344085.316 6                  98828399.216 7  25184240.500
                  25184247.207          41.100                          44.700
 143891422.795 5                 107451417.267 5  27381623.148
                  27381629.098          31.300                          34.600
 119203251.547 7                  89015430.694 7  22683625.633
                  22683630.258          44.600                          47.300
 118323136.332 7                  88358237.029 8  22516135.828
                  22516141.816          45.900                          48.800
 19  7  9 10 46 30.0000000  0 21G06G29R24R08R02G30G13G07R01G15G02R17
                                R23G05E12E04E11E36E19E14E09
 124668875.001 4  97144683.74543  93096985.435 6  23723705.625
  23723717.781    23723718.250          28.600          19.000          41.700
 116486130.249 7  90768571.76145                  22166604.359
  22166611.305                          43.700          30.500
 106077503.771 6  82504688.179 5                  19837028.820    19837028.680
  19837031.984                          39.600          33.000
 113096010.066 6  87963591.919 7                  21119873.086    21119873.723
  21119877.418                          38.900          42.100
 121027594.750 6  94132583.122 6                  22680518.211    22680516.844
  22680523.125                          36.500          36.500
 121537348.975 6  94704425.42544  90758415.529 7  23127774.328
  23127782.766    23127783.035          37.300          25.100          46.500
 108723360.190 7  84719520.08946                  20689360.359
  20689365.902                          45.800          37.700
 128076930.053 5  99800143.22043                  24372204.180
  24372210.484                          34.800          18.600
 105297790.108 7  81898324.469 6                  19698120.398    19698119.230
  19698125.441                          42.600          40.500
 119925077.615 6  93448049.32544                  22820956.758
  22820963.195                          41.700          24.700
 109585574.661 7  85391397.28146                  20853434.070
  20853437.453                          45.100          39.200
 123548739.068 5  96093457.651 5                  23088035.758    23088033.555
  23088038.785                          34.200          35.300
 105439932.708 7  82008935.280 6                  19710876.820    19710875.902
  19710883.379                          46.600          39.700
 107770167.467 7  83976843.30246                  20507974.930
  20507980.406                          47.500          40.100
 125790305.592 6                  93934332.081 6  23937099.070
                  23937102.039          37.800                          41.300
 124234490.685 7                  92772556.154 8  23641026.273
                  23641030.547          45.900                          50.200
 113715540.542 7                  84917459.241 7  21639346.344
                  21639347.680          42.800                          46.200
 132341940.562 6                  98826797.608 7  25183832.789
                  25183839.020          41.200                          44.700
 143893925.769 5                 107453286.393 5  27382099.563
                  27382105.094          31.700                          34.900
 119208773.345 7                  89019554.109 7  22684676.250
                  22684681.031          44.600                          47.100
 118321714.174 7                  88357175.033 8  22515865.297
                  22515871.270          45.500                          48.600
 19  7  9 10 46 31.0000000  0 21G06G29R24R08R02G30G13G07R01G15G02R17
                                R23G05E12E04E11E36E19E14E09
 124672051.446 4  97147158.92443  93099357.482 6  23724309.672
  23724322.066    23724322.520          28.900          19.000          41.900
 116485625.861 7  90768178.73345                  22166509.000
  22166515.328                          43.900          30.800
 106076011.461 6  82503527.496 5                  19836749.852    19836749.406
  19836752.965                          39.100          32.400
 113098626.334 6  87965626.770 6                  21120362.438    21120362.254
  21120366.012                          39.400          41.100
 121024916.143 6  94130499.805 6                  22680015.461    22680014.586
  22680021.273                          36.300          36.000
 121536693.078 6  94703914.32044  90757925.716 7  23127648.656
  23127658.293    23127658.270          37.300          24.900          46.600
 108721497.808 7  84718068.88646                  20689005.828
  20689011.352                          45.100          37.300
 128077874.427 5  99800879.11643                  24372384.008
  24372390.355                          34.800          18.300
 105298025.578 7  81898507.634 6                  19698163.781    19698163.082
  19698169.379                          42.300          39.800
 119921783.090 6  93445482.16644                  22820329.719
  22820335.855                          41.700          25.700
 109586627.051 7  85392217.32146                  20853634.266
  20853637.887                          45.300          38.500
 123544680.611 5  96090301.025 5                  23087277.563    23087275.359
  23087280.430                          34.500          34.600
 105442322.375 7  82010793.911 6                  19711323.773    19711322.410
  19711330.504                          46.300          39.400
 107770431.489 7  83977049.03546                  20508025.680
  20508031.387                          47.500          39.500
 125793009.408 6                  93936351.167 6  23937613.758
                  23937616.598          37.900                          41.500
 124235446.407 7                  92773269.839 8  23641208.211
                  23641212.422          46.000                          50.700
 113715985.738 7                  84917791.684 7  21639430.766
                  21639432.352          43.400                          45.900
 132339796.054 6                  98825196.193 7  25183424.445
                  25183431.035          41.200                          44.800
 143896428.726 5                 107455155.482 5  27382576.109
                  27382581.512          31.800                          35.400
 119214295.425 7                  89023677.737 7  22685726.984
                  22685731.879          44.200                          47.200
 118320292.283 7                  88356113.212 8  22515594.773
                  22515600.711          45.400                          48.400
 19  7  9 10 46 32.0000000  0 21G06G29R24R08R02G30G13G07R01G15G02R17
                                R23G05E12E04E11E36E19E14E09
 124675228.134 4  97149634.25143  93101729.675 6  23724914.977
  23724926.609    23724927.039          28.900          19.000          41.700
 116485122.104 7  90767786.19045                  22166412.977
  22166419.219                          43.800          30.800
 106074519.947 6  82502367.467 5                  19836470.922    19836470.266
  19836474.184                          38.900          32.700
 113101242.685 6  87967661.736 6                  21120852.078    21120850.840
  21120854.586                          39.300          41.200
 121022237.844 6  94128416.662 6                  22679512.914    22679512.391
  22679519.023                          36.300          36.000
 121536037.655 6  94703403.59544  90757436.295 7  23127525.219
  23127533.684    23127533.730          37.300          26.900          46.200
 108719635.972 7  84716618.09746                  20688651.563
  20688657.438                          45.000          38.400
 128078819.251 5  99801615.33342                  24372564.070
  24372570.430                          34.900          16.900
 105298261.424 7  81898691.069 6                  19698208.016    19698207.316
  19698213.805                          42.200          40.600
 119918488.806 6  93442915.19144                  22819702.914
  22819708.934                          41.900          27.600
 109587679.927 7  85393037.74446                  20853834.773
  20853838.238                          45.300          38.800
 123540622.363 5  96087144.599 5                  23086519.133    23086516.953
  23086522.145                          34.600          34.900
 105444712.816 7  82012653.144 6                  19711770.641    19711769.582
  19711777.324                          46.400          39.300
 107770695.738 7  83977254.94246                  20508075.383
  20508081.449                          47.800          39.800
 125795713.418 6                  93938370.402 6  23938128.844
                  23938131.430          38.300                          40.900
 124236402.322 7                  92773983.667 8  23641389.945
                  23641394.320          46.500                          50.600
 113716431.326 7                  84918124.415 7  21639515.422
                  21639517.164          43.000                          46.000
 132337651.779 6                  98823594.947 7  25183016.484
                  25183022.914          41.400                          44.700
 143898931.575 5                 107457024.514 5  27383052.609
                  27383057.949          30.900                          35.400
 119219817.799 7                  89027801.576 7  22686777.836
                  22686782.766          44.300                          47.300
 118318870.608 7                  88355051.587 8  22515324.211
                  22515330.266          45.400                          48.300
 19  7  9 10 46 33.0000000  0 21G06G29R24R08R02G30G13G07R01G15G02R17
                                R23G05E12E04E11E36E19E14E09
 124678405.180 4  97152109.90743  93104102.083 6  23725519.297
  23725531.574    23725531.535          28.300          18.600          41.700
 116484619.032 7  90767394.19045                  22166317.156
  22166323.895                          43.700          30.100
 106073029.380 6  82501208.099 5                  19836192.750    19836191.738
  19836195.121                          39.000          32.900
 113103859.248 6  87969696.853 6                  21121340.797    21121339.137
  21121343.262                          39.000          40.800
 121019559.860 6  94126333.800 6                  22679012.383    22679010.359
  22679017.262                          36.300          36.300
 121535382.867 6  94702893.36844  90756947.301 7  23127399.664
  23127408.730    23127408.918          37.300          25.300          46.000
 108717774.735 7  84715167.78846                  20688297.570
  20688302.965                          45.200          38.200
 128079764.631 5  99802351.99142                  24372743.945
  24372749.734                          35.400          17.400
 105298497.701 7  81898874.833 6                  19698252.211    19698251.324
  19698257.902                          42.300          40.400
 119915194.840 6  93440348.46744                  22819075.547
  22819082.191                          41.900          27.800
 109588733.327 7  85393858.57346                  20854035.344
  20854038.828                          45.400          39.200
 123536564.461 5  96083988.492 5                  23085761.438    23085758.387
  23085763.547                          34.400          34.900
 105447104.057 7  82014513.018 6                  19712217.578    19712216.496
  19712224.121                          46.400          39.600
 107770960.285 7  83977461.07646                  20508125.492
  20508131.137                          47.800          40.300
 125798417.661 6                  93940389.808 6  23938643.047
                  23938646.004          37.600                          41.100
 124237358.530 7                  92774697.718 8  23641571.961
                  23641576.266          47.000                          50.800
 113716877.376 7                  84918457.514 7  21639600.555
                  21639602.125          42.800                          45.900
 132335507.793 6                  98821993.916 7  25182608.547
                  25182614.941          41.400                          44.900
 143901434.546 5                 107458893.580 5  27383528.492
                  27383534.266          31.500                          35.200
 119225340.497 7                  89031925.693 7  22687828.750
                  22687833.730          44.100                          47.600
 118317449.250 7                  88353990.177 8  22515053.852
                  22515059.770          45.400                          48.400
 19  7  9 10 46 34.0000000  0 21G06G29R24R08R02G30G13G07R01G15G02R17
                                R23G05E12E04E11E36E19E14E09
 124681582.280 4  97154585.57543  93106474.592 6  23726123.813
  23726135.504    23726136.121          28.300          19.000          41.600
 116484116.596 7  90767002.68045                  22166221.797
  22166228.172                          43.600          30.800
 106071539.554 6  82500049.329 5                  19835913.469    19835913.117
  19835916.105                          39.200          32.800
 113106475.910 6  87971731.994 6                  21121827.727    21121827.801
  21121831.961                          39.300          40.900
 121016882.158 6  94124251.169 6                  22678510.922    22678509.414
  22678515.270                          36.200          36.600
 121534728.486 6  94702383.44744  90756458.691 7  23127274.555
  23127284.922    23127284.395          37.400          25.400          46.200
 108715913.973 7  84713717.83846                  20687943.445
  20687949.137                          44.700          38.400
 128080710.506 5  99803089.03042                  24372923.430
  24372929.676                          34.700          16.900
 105298734.336 7  81899058.874 6                  19698297.297    19698295.215
  19698302.113                          42.200          40.300
 119911901.144 6  93437781.95044                  22818449.500
  22818455.688                          41.600          27.300
 109589787.148 7  85394679.73946                  20854235.594
  20854239.398                          45.200          38.800
 123532506.733 5  96080832.468 5                  23085002.594    23085000.484
  23085005.063                          34.500          35.100
 105449495.977 7  82016373.384 6                  19712664.391    19712663.473
  19712671.453                          46.600          39.900
 107771225.031 7  83977667.37646                  20508176.406
  20508182.207                          47.400          39.900
 125801122.064 6                  93942409.339 6  23939157.438
                  23939160.680          38.000                          40.500
 124238314.885 7                  92775411.890 8  23641753.922
                  23641758.254          47.000                          50.800
 113717323.828 7                  84918790.885 7  21639685.375
                  21639686.992          42.800                          46.100
 132333364.000 6                  98820393.036 7  25182200.586
                  25182206.949          41.700                          44.800
 143903937.326 5                 107460762.568 5  27384004.930
                  27384010.652          31.700                          35.300
 119230863.435 7                  89036049.963 7  22688879.930
                  22688884.715          44.300                          47.600
 118316028.092 7                  88352928.930 8  22514783.469
                  22514789.230          45.100                          48.400
 19  7  9 10 46 35.0000000  0 21G06G29R24R08R02G30G13G07R01G15G02R17
                                R23G05E12E04E11E36E19E14E09
 124684759.690 4  97157061.46543  93108847.348 6  23726728.828
  23726740.578    23726740.422          28.900          19.000          41.700
 116483614.881 7  90766611.72945                  22166125.875
  22166132.473                          43.600          30.900
 106070050.646 6  82498891.344 5                  19835635.664    19835634.559
  19835638.180                          39.600          32.800
 113109092.711 6  87973767.285 6                  21122315.930    21122316.566
  21122320.430                          39.200          41.500
 121014204.824 6  94122168.784 6                  22678008.516    22678007.477
  22678013.719                          36.300          36.300
 121534074.821 6  94701874.12344  90755970.521 7  23127150.484
  23127160.586    23127160.086          37.500          25.100          46.600
 108714053.858 7  84712268.40246                  20687589.313
  20687594.922                          45.000          37.900
 128081657.008 5  99803826.58142                  24373103.625
  24373109.957                          35.000          17.800
 105298971.446 7  81899243.327 6                  19698341.188    19698340.090
  19698346.395                          42.500          40.500
 119908607.792 6  93435215.70444                  22817823.148
  22817829.063                          41.700          26.000
 109590841.552 7  85395501.35146                  20854436.617
  20854440.242                          45.300          38.600
 123528449.323 5  96077676.701 5                  23084243.938    23084241.945
  23084247.031                          33.700          35.600
 105451888.771 7  82018234.438 6                  19713111.742    19713110.684
  19713118.609                          46.800          40.100
 107771490.091 7  83977873.91346                  20508226.930
  20508232.438                          47.700          39.900
 125803826.780 6                  93944429.083 6  23939672.086
                  23939675.480          38.100                          40.500
 124239271.556 7                  92776126.288 8  23641936.023
                  23641940.285          46.900                          50.700
 113717770.741 7                  84919124.647 7  21639770.633
                  21639771.961          42.800                          46.100
 132331220.516 6                  98818792.389 7  25181792.875
                  25181799.117          41.900                          44.800
 143906440.221 5                 107462631.582 5  27384481.133
                  27384486.773          31.800                          34.700
 119236386.780 7                  89040174.526 7  22689930.992
                  22689935.777          44.800                          47.600
 118314607.280 7                  88351867.929 8  22514512.992
                  22514518.895          45.200                          48.500
 19  7  9 10 46 36.0000000  0 21G06G29R24R08R02G30G13G07R01G15G02R17
                                R23G05E12E04E11E36E19E14E09
 124687937.302 4  97159537.53543  93111220.247 6  23727333.391
  23727345.434    23727345.020          29.600          19.300          41.700
 116483113.790 7  90766221.26745                  22166030.977
  22166037.109                          43.400          30.400
 106068562.511 6  82497733.878 5                  19835357.484    19835356.285
  19835359.648                          39.700          33.300
 113111709.589 6  87975802.629 6                  21122805.320    21122805.207
  21122809.211                          38.700          41.100
 121011527.789 6  94120086.627 6                  22677506.828    22677505.883
  22677511.875                          36.300          36.600
 121533421.576 6  94701365.10744  90755482.715 7  23127025.797
  23127035.289    23127035.680          37.100          25.000          46.500
 108712194.219 7  84710819.33846                  20687235.227
  20687241.305                          45.100          37.900
 128082603.905 5  99804564.39842                  24373282.734
  24373290.238                          35.100          16.900
 105299208.914 7  81899427.992 6                  19698386.141    19698384.270
  19698391.023                          42.300          40.600
 119905314.645 6  93432649.61244                  22817196.102
  22817202.770                          41.700          26.200
 109591896.394 7  85396323.29946                  20854636.984
  20854640.703                          44.400          39.100
 123524392.195 5  96074521.129 5                  23083484.484    23083483.711
  23083488.848                          33.700          35.700
 105454282.268 7  82020096.043 6                  19713559.148    19713558.301
  19713566.195                          47.000          39.500
 107771755.342 7  83978080.60646                  20508277.227
  20508282.957                          47.600          40.000
 125806531.647 6                  93946448.951 6  23940186.992
                  23940190.191          37.900                          40.400
 124240228.401 7                  92776840.814 8  23642118.156
                  23642122.383          46.800                          50.900
 113718218.083 7                  84919458.678 7  21639855.609
                  21639857.141          42.900                          46.200
 132329077.270 7                  98817191.910 7  25181384.938
                  25181391.137          42.200                          44.700
 143908943.001 5                 107464500.576 5  27384957.469
                  27384962.867          31.300                          35.700
 119241910.358 7                  89044299.281 7  22690981.961
                  22690986.930          44.700                          47.600
 118313186.644 7                  88350807.072 8  22514242.531
                  22514248.488          44.800                          48.000
 19  7  9 10 46 37.0000000  0 21G06G29R24R08R02G30G13G07R01G15G02R17
                                R23G05E12E04E11E36E19E14E09
 124691115.173 4  97162013.76342  93113593.365 6  23727938.492
  23727949.773    23727949.816          29.100          17.800          41.600
 116482613.453 7  90765831.39045                  22165935.852
  22165941.520                          43.500          30.300
 106067075.312 6  82496577.137 5                  19835079.266    19835078.207
  19835081.668                          39.400          33.200
 113114326.651 6  87977838.137 6                  21123294.813    21123293.387
  21123297.844                          38.400          41.300
 121008851.115 5  94118004.768 6                  22677004.508    22677004.340
  22677010.332                          35.700          36.100
 121532768.967 6  94700856.56644  90754995.403 7  23126901.984
  23126911.457    23126911.625          37.400          24.900          46.600
 108710335.237 7  84709370.77546                  20686881.680
  20686887.445                          44.600          38.300
 128083551.477 5  99805302.75742                  24373464.320
  24373470.609                          34.300          16.300
 105299446.910 7  81899613.104 6                  19698429.227    19698428.691
  19698435.367                          42.300          40.400
 119902021.941 6  93430083.87144                  22816569.469
  22816576.230                          41.700          26.700
 109592951.803 7  85397145.70246                  20854838.203
  20854841.660                          44.600          39.000
 123520335.396 5  96071365.851 5                  23082726.789    23082725.641
  23082730.953                          33.700          35.200
 105456676.643 7  82021958.344 6                  19714007.023    19714005.824
  19714013.785                          47.100          39.700
 107772020.961 7  83978287.57746                  20508327.594
  20508333.387                          47.000          39.600
 125809236.814 6                  93948469.043 6  23940702.039
                  23940705.082          37.300                          40.500
 124241185.587 7                  92777555.597 8  23642300.258
                  23642304.504          47.200                          50.900
 113718665.927 7                  84919793.131 7  21639940.836
                  21639942.418          42.800                          46.400
 132326934.345 6                  98815591.671 7  25180976.953
                  25180983.305          41.900                          44.700
 143911445.879 5                 107466369.633 5  27385434.227
                  27385439.410          31.800                          34.800
 119247434.320 7                  89048424.332 7  22692033.234
                  22692038.047          44.300                          47.800
 118311766.391 7                  88349746.500 7  22513972.289
                  22513978.238          44.900                          47.900
