     2.11           OBSERVATION DATA    M (MIXED)           RINEX VERSION / TYPE
teqc  2016Nov7      KASI/KOREA          20190709 10:17:36UTCPGM / RUN BY / DATE
Linux 2.4.20-8|Pentium IV|gcc|Linux|486/DX+                 COMMENT
  0.0000      (antenna height)                              COMMENT
 +36.39942714 (latitude)                                    COMMENT
+127.37448264 (longitude)                                   COMMENT
0116.859      (elevation)                                   COMMENT
BIT 2 OF LLI FLAGS DATA COLLECTED UNDER A/S CONDITION       COMMENT
23902M002 (COGO code)                                       COMMENT
DAEJ                                                        MARKER NAME
23902M002                                                   MARKER NUMBER
KASI GPS            KASI/KOREA                              OBSERVER / AGENCY
5412K48145          TRIMBLE NETR9       5.20                REC # / TYPE / VERS
4923363230          TRM59800.00     SCIS                    ANT # / TYPE
 -3120042.0002  4084614.9459  3764026.7419                  APPROX POSITION XYZ
        0.0000        0.0000        0.0000                  ANTENNA: DELTA H/E/N
     1     1                                                WAVELENGTH FACT L1/2
    10    L1    L2    L5    C1    P1    P2    C5    S1    S2# / TYPES OF OBSERV
          S5                                                # / TYPES OF OBSERV
    18                                                      LEAP SECONDS
 SNR is mapped to RINEX snr flag value [0-9]                COMMENT
  L1 & L2: min(max(int(snr_dBHz/6), 0), 9)                  COMMENT
  2019     7     9    10     0    0.0000000     GPS         TIME OF FIRST OBS
                                                            END OF HEADER
 19  7  9 10  0  0.0000000  0 21G06G29R24R08G30R22G13G07R01G15G09G02
                                R07R23G05E12E04E11E19E14E09
 116868984.796 6  91066848.17945  87272393.095 8  22239438.320
  22239447.508    22239448.594          40.000          30.500          49.000
 120388813.375 6  93809623.42044                  22909260.859
  22909267.445                          40.900          26.800
 113064030.423 5                                  21143545.211    21143544.766
                                        35.300
 106614465.973 7  82922391.490 7                  19909491.336    19909490.309
  19909494.160                          42.800          44.400
 125249128.587 5  97596718.57543  93530195.948 7  23834103.188
  23834113.000    23834113.469          33.700          21.300          44.400
 116866581.934 6  90896245.342 6                  21893046.859    21893045.707
  21893051.723                          40.200          39.600
 115877760.015 7  90294375.58744                  22050798.313
  22050804.352                          42.000          28.900
 127505849.182 6  99355143.56443                  24263532.125
  24263538.945                          38.600          19.900
 106466397.486 6  82807240.254 6                  19916732.234    19916732.051
  19916738.918                          41.900          39.700
 130016385.653 5                                  24741271.906
                                        32.500
 126793335.236 5  98800080.00043  94683402.089 7  24127970.422
  24127978.305    24127979.320          34.500          19.000          42.400
 108510266.053 7  84553495.05146                  20648809.078
  20648812.129                          45.900          40.100
 124758823.596 5  97034663.296 6                  23305991.789    23305990.957
  23305997.367                          35.300          36.800
 102019302.746 7  79348446.307 6                  19071425.000    19071424.223
  19071431.852                          45.300          39.900
 108084324.796 8  84221640.84246                  20567757.773
  20567763.293                          48.400          39.800
 119241908.334 6                  89044296.094 7  22690980.250
                  22690983.180          41.800                          45.300
 122634848.410 7                  91578017.527 8  23336624.742
                  23336629.188          46.300                          50.700
 114113041.845 7                  85214295.091 7  21714987.836
                  21714989.359          43.200                          45.500
 136964974.468 5                 102279072.578 6  26063562.414
                  26063566.918          34.400                          37.500
 105848777.693 7                  79042935.052 8  20142352.711
                  20142357.570          47.000                          50.300
 123324709.227 7                  92093176.623 7  23467904.531
                  23467910.344          42.300                          45.300
 19  7  9 10  0  1.0000000  0 21G06G29R24R08G30R22G13G07R01G15G09G02
                                R07R23G05E12E04E11E19E14E09
 116871354.154 6  91068694.43845  87274162.437 8  22239889.750
  22239898.078    22239899.602          40.200          31.200          49.000
 120386588.581 6  93807889.82344                  22908837.367
  22908844.219                          40.500          25.200
 113060694.887 5                                  21142921.336    21142920.891
                                        35.800
 106616373.385 7  82923875.034 7                  19909847.719    19909846.504
  19909850.273                          42.800          44.600
 125247228.871 5  97595238.30643  93528777.334 7  23833742.500
  23833752.090    23833752.059          33.900          21.700          44.100
 116870401.103 6  90899215.811 6                  21893762.641    21893760.922
  21893766.875                          40.300          39.500
 115874585.971 7  90291902.30444                  22050194.156
  22050200.512                          42.100          29.300
 127505332.793 6  99354741.21243                  24263433.328
  24263440.836                          37.300          20.100
 106465260.143 6  82806355.667 6                  19916520.508    19916519.316
  19916526.176                          41.800          39.800
 130012540.247 5                                  24740539.820
                                        32.400
 126796704.310 5  98802705.23643  94685917.964 6  24128611.406
  24128619.305    24128620.309          34.300          19.000          41.800
 108510025.802 7  84553307.83846                  20648763.320
  20648766.664                          46.000          40.400
 124762419.956 5  97037460.455 6                  23306663.641    23306663.020
  23306669.379                          35.400          36.800
 102019325.669 7  79348464.142 6                  19071430.297    19071428.559
  19071435.781                          45.400          40.100
 108083816.734 8  84221244.94646                  20567661.273
  20567666.848                          48.100          39.800
 119243855.502 6                  89045750.174 7  22691350.625
                  22691353.730          41.700                          45.100
 122634988.480 7                  91578122.119 8  23336651.383
                  23336655.832          46.100                          51.100
 114112348.717 7                  85213777.495 7  21714855.867
                  21714857.344          42.700                          45.500
 136967384.831 5                 102280872.536 6  26064021.180
                  26064025.816          34.300                          37.600
 105852507.705 7                  79045720.426 8  20143062.586
                  20143067.379          47.000                          49.800
 123322553.201 7                  92091566.610 7  23467494.055
                  23467499.988          42.400                          45.100
 19  7  9 10  0  2.0000000  0 21G06G29R24R08G30R22G13G07R01G15G09G02
                                R07R23G05E12E04E11E19E14E09
 116873723.943 6  91070541.02145  87275932.088 8  22240340.945
  22240349.191    22240350.418          40.000          31.300          48.900
 120384364.453 6  93806156.72544                  22908414.430
  22908420.957                          40.800          26.500
 113057359.842 6                                  21142298.367    21142297.781
                                        36.200
 106618281.284 7  82925358.971 7                  19910203.266    19910202.871
  19910206.461                          42.800          44.900
 125245329.585 5  97593758.31443  93527359.010 7  23833380.828
  23833390.590    23833390.641          33.800          21.800          44.300
 116874220.771 6  90902186.665 6                  21894478.531    21894476.742
  21894482.496                          40.400          39.400
 115871412.423 6  90289429.41044                  22049590.234
  22049596.445                          41.700          29.400
 127504816.962 6  99354339.25343                  24263335.852
  24263342.539                          37.600          21.500
 106464123.461 6  82805471.567 6                  19916307.563    19916306.676
  19916313.344                          41.800          39.500
 130008695.032 5                                  24739808.094
                                        32.600
 126800073.734 5  98805330.75043  94688434.057 7  24129252.656
  24129260.461    24129261.555          34.300          19.000          42.300
 108509786.067 7  84553121.03246                  20648717.969
  20648721.234                          45.300          40.200
 124766016.373 5  97040257.681 6                  23307336.445    23307334.910
  23307340.918                          35.300          36.300
 102019349.546 7  79348482.730 6                  19071433.742    19071432.965
  19071440.398                          45.600          40.300
 108083309.031 8  84220849.33846                  20567564.281
  20567570.031                          48.400          39.400
 119245803.075 6                  89047204.531 7  22691721.422
                  22691724.352          41.600                          45.300
 122635128.996 7                  91578227.048 8  23336678.164
                  23336682.594          46.100                          51.400
 114111656.031 7                  85213260.229 7  21714724.203
                  21714725.445          42.800                          45.700
 136969795.422 5                 102282672.632 6  26064479.688
                  26064484.258          34.400                          38.000
 105856238.776 7                  79048506.618 8  20143772.586
                  20143777.395          47.000                          50.000
 123320397.501 7                  92089956.819 7  23467083.820
                  23467089.727          42.100                          45.300
 19  7  9 10  0  3.0000000  0 21G06G29R24R08G30R22G13G07R01G15G09G02
                                R07R23G05E12E04E11E19E14E09
 116876093.979 6  91072387.80745  87277701.917 8  22240791.656
  22240800.156    22240801.492          40.200          31.600          48.800
 120382140.718 6  93804423.95344                  22907991.422
  22907997.629                          41.100          26.900
 113054025.195 5                                  21141674.758    21141673.652
                                        35.600
 106620189.485 7  82926843.113 7                  19910560.055    19910559.262
  19910563.031                          43.000          44.900
 125243430.490 5  97592278.48643  93525940.856 7  23833019.492
  23833029.520    23833029.289          33.300          21.800          44.200
 116878040.744 6  90905157.735 6                  21895193.680    21895192.242
  21895198.023                          40.600          39.500
 115868239.101 6  90286956.69544                  22048986.688
  22048992.434                          41.800          29.500
 127504301.512 6  99353937.59043                  24263237.836
  24263244.473                          38.100          21.500
 106462987.199 6  82804587.826 6                  19916094.281    19916094.145
  19916100.500                          41.400          39.400
 130004849.764 5                                  24739076.672
                                        33.100
 126803443.174 5  98807956.30943  94690950.200 6  24129893.648
  24129901.969    24129902.723          34.600          19.600          41.800
 108509546.643 7  84552934.47646                  20648672.000
  20648675.070                          45.100          40.600
 124769612.644 5  97043054.788 6                  23308008.109    23308006.762
  23308012.984                          35.300          36.000
 102019374.177 7  79348501.878 6                  19071438.016    19071437.637
  19071445.043                          45.800          40.500
 108082801.565 8  84220453.91246                  20567467.680
  20567473.336                          48.000          40.000
 119247750.864 6                  89048659.057 7  22692091.945
                  22692095.133          41.600                          45.300
 122635269.745 7                  91578332.149 8  23336704.945
                  23336709.340          46.100                          51.600
 114110963.620 7                  85212743.171 7  21714592.313
                  21714593.844          42.800                          45.700
 136972205.978 5                 102284472.741 6  26064938.563
                  26064942.988          34.600                          37.900
 105859970.760 7                  79051293.499 8  20144482.961
                  20144487.582          47.300                          50.100
 123318241.962 7                  92088347.163 7  23466673.719
                  23466679.469          42.200                          45.600
 19  7  9 10  0  4.0000000  0 21G06G29R24R08G30R22G13G07R01G15G09G02
                                R07R23G05E12E04E11E19E14E09
 116878464.323 6  91074234.83145  87279471.975 8  22241242.109
  22241251.789    22241252.469          40.600          31.100          48.700
 120379917.497 6  93802691.58244                  22907568.008
  22907574.457                          41.200          24.800
 113050690.964 6                                  21141051.047    21141049.918
                                        36.500
 106622098.036 7  82928327.566 7                  19910916.648    19910915.621
  19910919.254                          43.000          44.900
 125241531.710 5  97590798.93443  93524522.948 7  23832657.836
  23832668.074    23832667.773          33.700          21.300          43.900
 116881861.091 6  90908129.134 6                  21895909.742    21895907.883
  21895913.582                          40.600          39.500
 115865066.126 6  90284484.24244                  22048383.148
  22048389.098                          41.800          29.400
 127503786.556 6  99353536.34343                  24263139.914
  24263146.590                          38.400          21.100
 106461851.479 6  82803704.489 6                  19915882.500    19915881.543
  19915888.516                          41.600          39.700
 130001004.549 5                                  24738344.109
                                        33.200
 126806812.739 5  98810581.94243  94693466.440 7  24130535.070
  24130542.895    24130543.977          34.600          19.300          42.200
 108509307.585 7  84552748.19346                  20648626.602
  20648629.895                          45.000          41.000
 124773208.857 5  97045851.878 6                  23308679.914    23308678.637
  23308684.797                          35.500          36.100
 102019399.647 7  79348521.678 6                  19071443.539    19071442.223
  19071450.035                          45.600          40.500
 108082294.345 7  84220058.67846                  20567370.922
  20567376.930                          47.900          40.100
 119249698.965 6                  89050113.793 7  22692462.805
                  22692465.816          41.900                          45.300
 122635410.808 7                  91578437.497 8  23336731.992
                  23336736.070          46.100                          51.400
 114110271.565 7                  85212226.372 7  21714460.789
                  21714462.066          42.700                          45.700
 136974616.614 5                 102286272.881 6  26065397.359
                  26065401.816          34.600                          38.200
 105863703.713 7                  79054081.082 8  20145193.156
                  20145197.875          47.000                          50.300
 123316086.643 7                  92086737.676 7  23466263.586
                  23466269.508          42.100                          45.900
 19  7  9 10  0  5.0000000  0 21G06G29R24R08G30R22G13G07R01G15G09G02
                                R07R23G05E12E04E11E19E14E09
 116880835.065 6  91076082.16045  87281242.330 8  22241693.344
  22241702.316    22241703.742          40.600          31.200          48.700
 120377694.904 6  93800959.68144                  22907144.797
  22907151.383                          41.300          25.900
 113047357.268 6                                  21140428.063    21140426.723
                                        36.500
 106624007.085 7  82929812.368 7                  19911273.133    19911272.223
  19911275.871                          42.900          44.700
 125239633.318 5  97589319.66643  93523105.329 7  23832296.570
  23832306.727    23832306.574          34.200          20.600          43.800
 116885681.954 6  90911100.917 6                  21896624.820    21896623.855
  21896629.332                          41.100          39.700
 115861893.594 6  90282012.13844                  22047778.734
  22047784.887                          41.700          29.200
 127503272.156 6  99353135.51143                  24263042.781
  24263048.547                          38.800          21.100
 106460716.416 6  82802821.676 6                  19915670.273    19915668.848
  19915676.016                          41.700          39.800
 129997159.603 5                                  24737612.352
                                        32.300
 126810182.627 5  98813207.82143  94695982.900 7  24131176.570
  24131183.910    24131185.184          34.300          19.900          42.400
 108509069.037 7  84552562.31146                  20648581.719
  20648584.586                          45.200          40.800
 124776805.139 5  97048648.963 6                  23309350.289    23309350.395
  23309356.594                          35.300          36.100
 102019426.049 7  79348542.214 6                  19071449.000    19071447.426
  19071455.016                          45.800          40.900
 108081787.525 7  84219663.75546                  20567274.539
  20567280.426                          47.500          40.100
 119251647.451 7                  89051568.818 7  22692833.398
                  22692836.402          42.100                          45.100
 122635552.301 7                  91578543.158 8  23336758.539
                  23336763.148          46.000                          51.200
 114109579.931 7                  85211709.897 7  21714329.297
                  21714330.457          42.800                          45.500
 136977027.446 5                 102288073.150 6  26065856.148
                  26065860.574          34.100                          37.500
 105867437.746 7                  79056869.501 8  20145903.852
                  20145908.348          47.400                          50.100
 123313931.655 7                  92085128.415 7  23465853.594
                  23465859.387          42.400                          45.800
 19  7  9 10  0  6.0000000  0 21G06G29R24R08G30R22G13G07R01G15G09G02
                                R07R23G05E12E04E11E19E14E09
 116883205.960 6  91077929.61345  87283012.802 8  22242144.852
  22242154.004    22242155.008          40.800          31.300          48.600
 120375472.628 6  93799228.03044                  22906722.195
  22906728.688                          40.900          25.800
 113044023.851 6                                  21139805.203    21139803.020
                                        36.400
 106625916.324 7  82931297.333 7                  19911629.469    19911628.699
  19911632.129                          42.700          44.600
 125237735.064 5  97587840.50843  93521687.813 7  23831936.383
  23831945.488    23831945.281          34.600          20.900          43.800
 116889503.026 6  90914072.832 6                  21897340.953    21897339.563
  21897345.121                          40.900          39.600
 115858721.246 7  90279540.17844                  22047175.383
  22047181.223                          42.000          29.600
 127502758.083 6  99352734.93443                  24262944.688
  24262950.770                          38.500          20.600
 106459581.727 6  82801939.115 6                  19915458.148    19915456.957
  19915463.613                          41.800          39.500
 129993314.510 5                                  24736880.391
                                        34.200
 126813552.473 5  98815833.66443  94698499.342 7  24131817.758
  24131825.414    24131826.355          34.400          19.900          42.400
 108508830.692 7  84552376.58646                  20648536.047
  20648538.918                          45.200          40.600
 124780401.147 5  97051445.871 6                  23310022.375    23310021.941
  23310028.398                          34.900          36.000
 102019453.119 7  79348563.266 6                  19071453.633    19071452.387
  19071459.945                          45.900          40.600
 108081280.832 7  84219268.92246                  20567177.891
  20567183.875                          47.500          40.100
 119253596.054 6                  89053023.952 7  22693203.914
                  22693207.316          41.700                          44.700
 122635693.940 7                  91578648.936 8  23336785.656
                  23336790.082          45.700                          50.900
 114108888.491 7                  85211193.555 7  21714197.281
                  21714198.840          42.700                          45.600
 136979438.165 5                 102289873.386 6  26066314.508
                  26066319.301          33.900                          37.100
 105871172.617 7                  79059658.508 8  20146614.555
                  20146619.191          47.200                          49.900
 123311776.726 7                  92083519.221 7  23465443.359
                  23465449.289          42.400                          45.100
 19  7  9 10  0  7.0000000  0 21G06G29R24R08G30R22G13G07R01G15G09G02
                                R07R23G05E12E04E11E19E14E09
 116885577.297 6  91079777.40245  87284783.599 8  22242596.195
  22242605.172    22242606.270          40.900          31.700          48.900
 120373250.995 6  93797496.88844                  22906299.234
  22906306.672                          40.900          25.600
 113040691.050 6                                  21139180.797    21139180.066
                                        36.100
 106627826.093 7  82932782.698 7                  19911986.430    19911985.426
  19911988.918                          43.100          44.400
 125235837.308 5  97586361.75443  93520270.626 7  23831575.531
  23831584.750    23831584.012          34.800          21.100          44.000
 116893324.584 6  90917045.178 6                  21898057.078    21898055.359
  21898060.883                          40.600          39.900
 115855549.364 6  90277068.58244                  22046571.813
  22046577.746                          41.500          29.000
 127502244.599 6  99352334.80843                  24262846.898
  24262852.883                          38.400          21.300
 106458447.690 6  82801057.096 6                  19915245.156    19915244.738
  19915252.031                          41.800          39.600
 129989469.570 5                                  24736148.859
                                        34.300
 126816922.581 5  98818459.72243  94701016.002 7  24132458.672
  24132466.930    24132467.641          33.700          19.000          42.400
 108508592.910 7  84552191.29846                  20648490.227
  20648493.883                          45.200          40.800
 124783997.300 5  97054242.845 6                  23310695.391    23310693.457
  23310700.102                          35.100          36.200
 102019481.160 7  79348585.072 6                  19071458.508    19071457.707
  19071465.035                          45.800          40.200
 108080774.539 7  84218874.41446                  20567081.875
  20567087.496                          47.400          39.500
 119255545.076 6                  89054479.399 7  22693575.086
                  22693578.281          41.700                          44.700
 122635836.064 7                  91578755.062 8  23336812.758
                  23336817.172          45.600                          51.200
 114108197.507 7                  85210677.572 7  21714065.875
                  21714067.438          42.600                          45.700
 136981849.088 5                 102291673.747 6  26066773.617
                  26066778.238          33.900                          37.300
 105874908.587 7                  79062448.374 8  20147325.398
                  20147330.145          47.200                          50.100
 123309622.172 7                  92081910.310 7  23465033.492
                  23465039.164          42.000                          45.000
 19  7  9 10  0  8.0000000  0 21G06G29R24R08G30R22G13G07R01G15G09G02
                                R07R23G05E12E04E11E19E14E09
 116887948.985 6  91081625.46345  87286554.674 8  22243047.750
  22243056.500    22243057.504          40.600          31.500          48.800
 120371029.921 6  93795766.18544                  22905876.438
  22905883.512                          40.700          25.100
 113037358.674 6                                  21138557.180    21138556.758
                                        36.100
 106629736.248 7  82934268.381 7                  19912341.492    19912342.012
  19912345.766                          43.200          44.100
 125233939.851 5  97584883.22243  93518853.688 7  23831214.117
  23831223.645    23831223.051          35.700          20.900          44.100
 116897146.576 6  90920017.827 6                  21898772.859    21898771.188
  21898777.258                          40.900          39.400
 115852377.866 7  90274597.29244                  22045968.086
  22045974.621                          42.000          29.600
 127501731.602 6  99351935.07543                  24262749.359
  24262755.441                          38.700          20.900
 106457314.253 6  82800175.513 6                  19915033.781    19915032.637
  19915039.469                          41.800          39.700
 129985624.803 5 101287434.01652                  24735418.055
  24735426.383                          34.300          17.400
 126820292.966 5  98821085.98943  94703532.810 7  24133099.828
  24133107.758    24133109.250          34.800          19.600          42.500
 108508355.544 7  84552006.34446                  20648445.969
  20648448.805                          45.200          40.200
 124787593.387 5  97057039.811 6                  23311367.469    23311366.074
  23311371.813                          35.200          36.400
 102019510.114 7  79348607.617 6                  19071463.570    19071462.793
  19071470.625                          45.400          40.300
 108080268.564 7  84218480.15046                  20566985.625
  20566991.664                          47.400          39.500
 119257494.437 6                  89055935.089 7  22693946.102
                  22693949.082          41.800                          44.900
 122635978.556 7                  91578861.456 8  23336839.703
                  23336844.250          45.500                          50.800
 114107506.944 7                  85210161.862 7  21713934.367
                  21713935.965          43.100                          45.700
 136984260.16415                 102293474.199 6  26067232.359
                  26067236.910          34.400                          37.700
 105878645.577 7                  79065238.980 8  20148036.633
                  20148041.203          47.400                          50.000
 123307467.879 7                  92080301.570 7  23464623.281
                  23464629.449          42.100                          44.900
 19  7  9 10  0  9.0000000  0 21G06G29R24R08G30R22G13G07R01G15G09G02
                                R07R23G05E12E04E11E19E14E09
 116890321.024 6  91083473.80345  87288325.980 8  22243498.930
  22243507.816    22243508.895          40.400          30.800          48.800
 120368809.340 6  93794035.86744                  22905453.445
  22905461.129                          40.900          24.500
 113034026.805 5                                  21137934.789    21137933.918
                                        35.800
 106631646.802 7  82935754.366 7                  19912698.453    19912698.949
  19912702.492                          43.000          44.100
 125232042.678 5  97583404.90543  93517437.008 7  23830853.063
  23830862.621    23830862.250          35.500          20.600          44.300
 116900968.969 6  90922990.816 6                  21899489.398    21899487.094
  21899493.129                          40.500          39.200
 115849206.721 6  90272126.26944                  22045364.891
  22045370.758                          41.500          29.500
 127501219.098 6  99351535.73043                  24262651.594
  24262658.105                          38.100          21.500
 106456181.349 6  82799294.382 6                  19914821.898    19914820.754
  19914827.586                          41.700          39.700
 129981780.116 5 101284438.17042                  24734686.656
  24734694.871                          34.600          17.400
 126823663.447 5  98823712.34843  94706049.747 7  24133741.031
  24133749.207    24133750.680          33.900          19.900          42.500
 108508118.563 7  84551821.68546                  20648400.359
  20648403.871                          45.300          40.700
 124791189.318 5  97059836.706 6                  23312038.773    23312037.590
  23312043.652                          34.700          36.200
 102019539.894 7  79348630.748 6                  19071469.070    19071468.504
  19071476.180                          45.100          40.400
 108079762.887 7  84218086.10946                  20566889.461
  20566895.055                          47.500          39.500
 119259444.090 6                  89057391.012 7  22694317.242
                  22694320.184          41.800                          44.800
 122636121.363 7                  91578968.108 8  23336867.070
                  23336871.402          46.100                          50.800
 114106816.685 7                  85209646.428 7  21713803.070
                  21713804.625          43.100                          45.500
 136986671.331 5                 102295274.733 6  26067691.156
                  26067695.645          34.100                          37.800
 105882383.577 7                  79068030.348 8  20148748.031
                  20148752.492          47.100                          50.000
 123305313.818 7                  92078693.037 7  23464213.680
                  23464219.578          42.000                          45.100
 19  7  9 10  0 10.0000000  0 21G06G29R24R08G30R22G13G07R01G15G09G02
                                R07R23G05E12E04E11E19E14E09
 116892693.347 6  91085322.36245  87290097.541 8  22243949.813
  22243959.238    22243960.289          40.600          31.500          48.800
 120366589.284 6  93792305.96144                  22905031.422
  22905038.211                          40.700          25.400
 113030695.314 6                                  21137312.445    21137310.543
                                        36.300
 106633557.718 7  82937240.641 7                  19913056.477    19913055.520
  19913059.125                          42.900          44.300
 125230145.887 5  97581926.88243  93516020.541 7  23830491.961
  23830501.660    23830501.004          35.100          20.100          44.100
 116904791.726 6  90925964.106 6                  21900204.742    21900203.211
  21900209.242                          40.600          39.000
 115846035.920 6  90269655.52144                  22044761.406
  22044767.063                          41.300          29.000
 127500707.096 6  99351136.76343                  24262554.641
  24262560.559                          38.000          21.300
 106455048.978 6  82798413.642 6                  19914609.883    19914608.879
  19914615.691                          41.500          39.700
 129977935.489 5 101281442.36142                  24733954.570
  24733963.234                          33.800          16.900
 126827034.080 5  98826338.83443  94708566.786 7  24134382.430
  24134390.633    24134392.105          33.500          19.300          42.300
 108507881.990 7  84551637.33646                  20648355.383
  20648358.625                          45.500          40.900
 124794785.289 5  97062633.572 6                  23312708.727    23312709.137
  23312715.309                          35.400          36.300
 102019570.539 7  79348654.583 6                  19071474.820    19071474.137
  19071481.965                          45.100          40.700
 108079257.496 7  84217692.30246                  20566793.359
  20566798.660                          47.800          39.500
 119261394.074 6                  89058847.151 7  22694688.281
                  22694691.348          41.600                          44.800
 122636264.503 7                  91579075.002 8  23336894.156
                  23336898.645          46.300                          51.000
 114106126.779 7                  85209131.242 7  21713671.914
                  21713673.340          43.200                          45.500
 136989082.512 5                 102297075.317 6  26068149.914
                  26068154.617          34.700                          37.600
 105886122.554 7                  79070822.433 8  20149459.445
                  20149463.984          47.100                          50.300
 123303160.005 7                  92077084.670 7  23463803.719
                  23463809.813          42.300                          45.400
 19  7  9 10  0 11.0000000  0 21G06G29R24R08G30R22G13G07R01G15G09G02
                                R07R23G05E12E04E11E19E14E09
 116895066.002 6  91087171.19445  87291869.326 8  22244401.125
  22244411.070    22244411.887          40.100          30.600          48.500
 120364369.730 6  93790576.43244                  22904609.508
  22904616.020                          40.700          24.800
 113027364.334 6                                  21136688.531    21136687.875
                                        36.100
 106635469.065 7  82938727.232 7                  19913413.234    19913412.301
  19913416.336                          42.900          44.400
 125228249.345 5  97580449.05943  93514604.319 7  23830131.492
  23830140.770    23830140.469          35.700          21.100          44.500
 116908614.886 6  90928937.634 6                  21900921.336    21900919.547
  21900925.371                          40.500          39.600
 115842865.481 6  90267185.04544                  22044157.758
  22044163.930                          41.500          29.700
 127500195.556 6  99350738.17243                  24262457.641
  24262463.313                          38.100          21.500
 106453917.152 6  82797533.352 6                  19914398.430    19914397.473
  19914404.066                          41.100          39.900
 129974090.970 5 101278446.58442                  24733223.055
  24733231.355                          34.700          16.300
 126830404.952 5  98828965.44243  94711083.952 7  24135024.438
  24135032.258    24135033.551          34.000          19.000          42.800
 108507645.830 7  84551453.31946                  20648310.344
  20648313.637                          45.700          40.500
 124798381.160 5  97065430.307 6                  23313381.172    23313380.527
  23313387.262                          35.100          36.400
 102019602.010 7  79348679.067 6                  19071480.836    19071480.105
  19071487.723                          45.400          40.700
 108078752.392 7  84217298.71446                  20566697.047
  20566702.707                          47.700          39.200
 119263344.338 6                  89060303.531 7  22695059.141
                  22695062.336          41.900                          45.200
 122636407.998 7                  91579182.141 8  23336921.586
                  23336925.945          46.400                          50.900
 114105437.250 7                  85208616.334 7  21713540.867
                  21713542.090          42.900                          45.600
 136991493.797 5                 102298875.966 6  26068608.922
                  26068613.430          34.900                          37.700
 105889862.518 7                  79073615.275 8  20150171.148
                  20150175.809          46.900                          50.200
 123301006.424 7                  92075476.485 7  23463394.297
                  23463399.891          42.000                          45.400
 19  7  9 10  0 12.0000000  0 21G06G29R24R08G30R22G13G07R01G15G09G02
                                R07R23G05E12E04E11E19E14E09
 116897439.013 6  91089020.29345  87293641.368 8  22244853.000
  22244862.164    22244863.355          40.500          31.100          48.700
 120362150.737 6  93788847.34244                  22904186.891
  22904193.809                          41.000          24.500
 113024033.803 5                                  21136065.930    21136064.871
                                        35.900
 106637380.803 7  82940214.160 7                  19913770.422    19913769.324
  19913773.320                          42.700          44.300
 125226353.176 5  97578971.54843  93513188.323 7  23829769.805
  23829779.859    23829779.625          35.300          21.300          44.100
 116912438.471 6  90931911.540 6                  21901637.313    21901635.641
  21901641.379                          40.500          39.200
 115839695.385 6  90264714.84344                  22043554.750
  22043560.754                          41.800          29.600
 127499684.497 6  99350339.94543                  24262359.414
  24262365.625                          38.300          20.400
 106452785.873 6  82796653.446 6                  19914186.227    19914185.645
  19914192.598                          41.300          39.900
 129970246.562 5 101275450.96742                  24732492.117
  24732499.711                          35.000          16.900
 126833775.947 5  98831592.13843  94713601.290 7  24135666.055
  24135673.637    24135675.059          33.900          18.300          42.900
 108507410.093 7  84551269.62346                  20648265.570
  20648268.879                          45.600          40.400
 124801977.010 5  97068227.087 6                  23314053.414    23314052.277
  23314058.957                          35.400          36.200
 102019634.366 7  79348704.250 6                  19071487.242    19071486.559
  19071493.578                          45.500          40.200
 108078247.608 7  84216905.37446                  20566601.094
  20566607.012                          47.500          39.300
 119265294.925 6                  89061760.131 7  22695430.578
                  22695433.652          41.900                          45.700
 122636551.833 7                  91579289.564 8  23336948.883
                  23336953.273          46.300                          50.900
 114104748.100 7                  85208101.706 7  21713409.695
                  21713410.965          43.000                          45.500
 136993905.233 5                 102300676.708 6  26069067.750
                  26069072.254          34.600                          37.700
 105893603.497 7                  79076408.854 8  20150883.086
                  20150887.516          47.000                          50.200
 123298853.118 7                  92073868.486 7  23462984.055
                  23462990.277          42.100                          45.400
 19  7  9 10  0 13.0000000  0 21G06G29R24R08G30R22G13G07R01G15G09G02
                                R07R23G05E12E04E11E19E14E09
 116899812.385 6  91090869.66645  87295413.693 8  22245304.750
  22245314.086    22245314.941          40.400          31.000          48.300
 120359932.302 6  93787118.69944                  22903764.930
  22903771.387                          41.100          25.700
 113020703.734 6                                  21135442.648    21135442.180
                                        36.200
 106639292.995 7  82941701.386 7                  19914127.250    19914126.457
  19914130.367                          42.800          44.600
 125224457.417 5  97577494.31943  93511772.641 7  23829410.023
  23829419.035    23829418.730          35.100          22.500          44.000
 116916262.501 6  90934885.793 6                  21902352.672    21902351.988
  21902358.090                          40.500          39.100
 115836525.732 7  90262244.98444                  22042951.602
  22042957.652                          42.000          29.400
 127499173.977 6  99349942.11843                  24262262.109
  24262268.496                          37.600          20.600
 106451655.178 6  82795774.040 6                  19913974.617    19913973.965
  19913981.074                          41.700          40.200
 129966402.288 5 101272455.40642                  24731760.281
  24731768.184                          35.100          17.400
 126837147.227 5  98834219.11443  94716118.740 7  24136307.852
  24136315.043    24136316.551          34.400          19.600          42.800
 108507174.807 7  84551086.28446                  20648220.703
  20648223.984                          45.900          40.300
 124805572.861 5  97071023.850 6                  23314724.797    23314723.871
  23314730.590                          35.200          36.500
 102019667.636 7  79348730.129 6                  19071492.859    19071492.457
  19071499.855                          45.700          40.300
 108077743.170 7  84216512.30946                  20566504.969
  20566510.828                          47.400          39.600
 119267245.870 6                  89063217.001 7  22695801.828
                  22695804.867          41.800                          45.500
 122636696.055 7                  91579397.260 8  23336976.250
                  23336980.688          46.200                          50.900
 114104059.350 7                  85207587.374 7  21713278.828
                  21713279.961          42.500                          45.800
 136996316.789 5                 102302477.514 6  26069527.008
                  26069531.027          34.400                          37.700
 105897345.522 7                  79079203.231 8  20151595.109
                  20151599.691          47.200                          50.600
 123296700.100 7                  92072260.708 7  23462574.422
                  23462580.410          42.400                          45.600
 19  7  9 10  0 14.0000000  0 21G06G29R24R08G30R22G13G07R01G15G09G02
                                R07R23G05E12E04E11E19E14E09
 116902186.127 6  91092719.33545  87297186.291 8  22245755.805
  22245765.484    22245766.676          40.500          30.800          48.400
 120357714.447 6  93785390.50244                  22903342.570
  22903349.566                          41.100          26.000
 113017374.181 6                                  21134820.625    21134819.707
                                        36.300
 106641205.567 7  82943188.967 7                  19914483.813    19914483.652
  19914487.570                          42.400          44.800
 125222561.957 5  97576017.32043  93510357.204 7  23829048.844
  23829058.750    23829058.484          35.200          22.800          44.100
 116920086.963 6  90937860.353 6                  21903069.664    21903068.582
  21903074.000                          40.200          39.000
 115833356.460 7  90259775.41944                  22042348.586
  22042354.707                          42.100          29.100
 127498663.997 6  99349544.74743                  24262164.484
  24262171.059                          36.800          20.900
 106450525.062 6  82794895.052 6                  19913763.258    19913762.535
  19913769.555                          41.600          39.900
 129962558.163 5 101269459.94542                  24731028.211
  24731036.492                          35.200          16.300
 126840518.617 5  98836846.19743  94718636.401 7  24136948.656
  24136956.637    24136958.074          34.300          19.900          42.400
 108506939.978 7  84550903.29646                  20648176.063
  20648179.594                          46.000          40.500
 124809168.676 5  97073820.605 6                  23315396.766    23315395.605
  23315402.105                          35.000          36.400
 102019701.789 7  79348756.669 6                  19071500.156    19071499.004
  19071506.289                          45.800          40.200
 108077239.040 7  84216119.47546                  20566409.297
  20566415.270                          47.600          39.400
 119269197.170 6                  89064674.139 7  22696173.148
                  22696176.105          41.900                          45.000
 122636840.654 7                  91579505.241 8  23337003.789
                  23337008.305          46.300                          50.900
 114103370.975 7                  85207073.330 7  21713147.852
                  21713148.887          43.000                          45.700
 136998728.464 5                 102304278.461 6  26069985.961
                  26069989.961          34.700                          37.400
 105901088.583 7                  79081998.360 8  20152307.188
                  20152311.945          47.400                          50.400
 123294547.362 7                  92070653.144 7  23462164.750
                  23462170.781          42.400                          45.200
 19  7  9 10  0 15.0000000  0 21G06G29R24R08G30R22G13G07R01G15G09G02
                                R07R23G05E12E04E11E19E14E09
 116904560.118 6  91094569.20045  87298959.082 8  22246208.086
  22246217.492    22246218.426          41.000          30.300          48.500
 120355497.064 6  93783662.66544                  22902920.914
  22902927.500                          41.100          25.600
 113014045.004 6                                  21134197.656    21134197.258
                                        36.500
 106643118.459 7  82944676.774 7                  19914841.242    19914840.895
  19914844.777                          42.900          45.000
 125220666.759 5  97574540.54543  93508941.969 7  23828687.859
  23828698.055    23828697.621          34.300          22.300          44.200
 116923911.731 6  90940835.188 6                  21903786.844    21903785.172
  21903790.750                          40.200          39.500
 115830187.484 7  90257306.09345                  22041745.523
  22041751.523                          42.200          30.400
 127498154.415 6  99349147.68643                  24262067.734
  24262074.750                          37.500          20.400
 106449395.433 6  82794016.440 6                  19913552.617    19913551.496
  19913557.988                          41.600          39.400
 129958714.066 5 101266464.59042                  24730297.266
  24730304.855                          34.800          15.600
 126843890.224 5  98839473.44143  94721154.091 7  24137591.258
  24137598.543    24137599.652          34.000          19.300          42.200
 108506705.489 7  84550720.58246                  20648131.516
  20648135.051                          45.900          40.500
 124812764.401 5  97076617.277 6                  23316068.711    23316067.691
  23316074.164                          35.600          36.700
 102019736.718 7  79348783.854 6                  19071506.430    19071505.605
  19071512.820                          45.700          40.200
 108076735.159 7  84215726.84846                  20566313.055
  20566319.078                          47.300          39.500
 119271148.685 6                  89066131.457 7  22696544.383
                  22696547.461          41.700                          45.100
 122636985.530 7                  91579613.430 8  23337031.344
                  23337035.816          46.400                          51.200
 114102682.937 7                  85206559.517 7  21713016.703
                  21713017.996          42.900                          45.700
 137001140.192 5                 102306079.403 6  26070444.969
                  26070449.090          34.400                          37.900
 105904832.579 7                  79084794.201 8  20153020.141
                  20153024.344          47.000                          50.400
 123292394.795 7                  92069045.711 7  23461755.422
                  23461761.246          42.300                          45.600
 19  7  9 10  0 16.0000000  0 21G06G29R24R08G30R22G13G07R01G15G09G02
                                R07R23G05E12E04E11E19E14E09
 116906934.464 6  91096419.33145  87300732.133 8  22246660.172
  22246669.098    22246670.199          40.600          30.500          48.800
 120353280.178 6  93781935.22144                  22902499.547
  22902505.859                          41.100          25.700
 113010716.342 6                                  21133575.195    21133574.418
                                        36.300
 106645031.757 7  82946164.886 7                  19915198.297    19915198.277
  19915201.926                          42.700          45.000
 125218771.861 5  97573064.01643  93507526.953 7  23828327.203
  23828337.059    23828337.285          34.900          22.800          44.000
 116927736.943 6  90943810.329 6                  21904503.000    21904501.895
  21904507.566                          40.200          39.400
 115827018.906 7  90254837.06944                  22041142.555
  22041148.320                          42.100          28.900
 127497645.351 6  99348750.98443                  24261971.188
  24261977.648                          37.400          20.600
 106448266.362 6  82793138.294 6                  19913341.438    19913340.152
  19913347.023                          41.600          40.000
 129954870.014 5 101263469.23142                  24729565.398
  24729573.379                          34.800          16.900
 126847261.968 5  98842100.74343  94723671.947 7  24138232.609
  24138240.094    24138241.363          34.300          19.000          42.600
 108506471.377 7  84550538.15146                  20648087.047
  20648090.363                          45.900          40.600
 124816360.072 5  97079413.935 6                  23316739.578    23316739.402
  23316746.008                          35.400          36.400
 102019772.522 7  79348811.688 6                  19071513.828    19071512.137
  19071519.566                          45.700          40.500
 108076231.552 7  84215334.42446                  20566217.461
  20566223.441                          47.300          39.400
 119273100.563 6                  89067589.016 7  22696916.195
                  22696918.875          41.600                          45.200
 122637130.748 7                  91579721.880 8  23337059.195
                  23337063.387          46.200                          51.100
 114101995.226 7                  85206045.987 7  21712885.648
                  21712887.191          43.000                          45.500
 137003551.988 5                 102307880.458 6  26070903.539
                  26070907.727          34.800                          38.000
 105908577.551 7                  79087590.782 8  20153732.578
                  20153737.031          46.800                          50.500
 123290242.499 7                  92067438.486 7  23461345.570
                  23461351.699          42.200                          45.500
 19  7  9 10  0 17.0000000  0 21G06G29R24R08G30R22G13G07R01G15G09G02
                                R07R23G05E12E04E11E19E14E09
 116909309.136 6  91098269.72945  87302505.419 8  22247111.391
  22247121.219    22247122.129          40.300          30.400          48.500
 120351063.857 6  93780208.21744                  22902077.617
  22902084.121                          40.700          24.400
 113007388.136 5                                  21132952.242    21132952.430
                                        35.800
 106646945.445 7  82947653.312 7                  19915556.461    19915555.457
  19915559.480                          42.500          45.100
 125216877.339 5  97571587.77243  93506112.210 7  23827966.797
  23827976.902    23827976.730          34.800          22.000          44.100
 116931562.509 6  90946785.818 6                  21905219.961    21905218.594
  21905224.195                          40.500          39.400
 115823850.654 7  90252368.30844                  22040539.695
  22040545.727                          42.700          29.500
 127497136.768 6  99348354.72043                  24261874.219
  24261880.852                          37.400          19.900
 106447137.846 6  82792260.528 6                  19913130.555    19913129.152
  19913135.676                          41.600          40.000
 129951026.085 5 101260473.96242                  24728834.242
  24728842.000                          34.300          16.300
 126850633.867 5  98844728.18643  94726189.922 7  24138874.969
  24138881.848    24138883.035          34.800          19.600          42.300
 108506237.709 7  84550356.07346                  20648042.445
  20648045.590                          45.800          40.600
 124819955.652 5  97082210.511 6                  23317411.961    23317410.285
  23317417.602                          35.600          36.100
 102019809.173 7  79348840.183 6                  19071520.109    19071519.098
  19071526.500                          45.700          40.600
 108075728.263 7  84214942.25446                  20566121.633
  20566127.285                          47.600          38.800
 119275052.717 6                  89069046.787 7  22697287.016
                  22697290.398          41.700                          45.600
 122637276.334 7                  91579830.580 8  23337086.648
                  23337091.199          46.200                          50.600
 114101307.884 7                  85205532.705 7  21712754.922
                  21712756.328          43.100                          45.600
 137005963.894 5                 102309681.544 6  26071362.602
                  26071366.867          34.000                          38.000
 105912323.541 7                  79090388.117 8  20154445.430
                  20154449.844          46.800                          50.500
 123288090.456 7                  92065831.419 7  23460935.828
                  23460942.203          42.200                          45.600
 19  7  9 10  0 18.0000000  0 21G06G29R24R08G30R22G13G07R01G15G09G02
                                R07R23G05E12E04E11E19E14E09
 116911684.121 6  91100120.36645  87304278.966 8  22247563.648
  22247573.336    22247574.039          40.200          30.400          48.400
 120348848.068 6  93778481.62144                  22901654.883
  22901662.438                          40.700          24.700
 113004060.434 6                                  21132330.102    21132329.680
                                        36.200
 106648859.539 7  82949142.045 7                  19915913.281    19915913.004
  19915916.887                          42.500          44.400
 125214983.107 5  97570111.75143  93504697.696 7  23827606.531
  23827616.238    23827616.449          35.000          22.200          44.200
 116935388.569 6  90949761.611 6                  21905936.625    21905935.070
  21905940.578                          40.500          39.400
 115820682.808 7  90249899.84944                  22039936.711
  22039942.699                          42.500          29.800
 127496628.678 6  99347958.80443                  24261778.336
  24261784.355                          37.600          20.100
 106446009.907 6  82791383.260 6                  19912919.445    19912918.207
  19912924.781                          41.700          39.900
 129947182.245 5 101257478.81542                  24728102.266
  24728110.773                          34.200          17.400
 126854005.959 5  98847355.78143  94728708.026 7  24139516.023
  24139523.328    24139524.621          34.600          19.000          42.300
 108506004.447 7  84550174.30846                  20647998.453
  20648001.207                          46.000          40.300
 124823551.264 5  97085007.085 6                  23318083.172    23318082.176
  23318089.125                          35.900          36.000
 102019846.706 7  79348869.385 6                  19071526.305    19071525.926
  19071533.398                          45.700          40.200
 108075225.290 8  84214550.32346                  20566026.266
  20566031.547                          48.000          39.400
 119277005.200 6                  89070504.809 7  22697659.086
                  22697661.832          41.300                          45.400
 122637422.262 7                  91579939.554 8  23337114.516
                  23337119.074          46.100                          50.700
 114100620.918 7                  85205019.722 7  21712624.281
                  21712625.566          43.100                          45.600
 137008375.880 5                 102311482.702 6  26071821.766
                  26071825.855          34.400                          37.700
 105916070.533 7                  79093186.182 8  20155158.586
                  20155162.832          46.900                          50.300
 123285938.641 7                  92064224.571 7  23460526.180
                  23460532.688          42.500                          45.500
 19  7  9 10  0 19.0000000  0 21G06G29R24R08G30R22G13G07R01G15G09G02
                                R07R23G05E12E04E11E19E14E09
 116914059.421 6  91101971.25245  87306052.717 8  22248015.898
  22248025.691    22248026.027          39.800          30.900          48.700
 120346632.759 6  93776755.39244                  22901233.758
  22901240.828                          40.600          26.200
 113000733.151 6                                  21131708.594    21131707.395
                                        36.100
 106650773.967 7  82950631.047 7                  19916271.188    19916270.723
  19916274.301                          42.300          44.000
 125213089.167 5  97568635.93743  93503283.409 7  23827247.266
  23827256.160    23827255.938          34.500          22.300          44.000
 116939214.933 6  90952737.697 6                  21906653.523    21906651.594
  21906657.785                          40.200          39.200
 115817515.283 7  90247431.64744                  22039334.047
  22039340.160                          43.100          29.100
 127496121.060 6  99347563.26743                  24261680.898
  24261687.531                          37.900          20.400
 106444882.479 6  82790506.391 6                  19912708.453    19912707.215
  19912714.086                          41.700          39.300
 129943338.494 5 101254483.66042                  24727371.016
  24727378.828                          34.400          16.300
 126857378.169 5  98849983.49943  94731226.245 7  24140157.750
  24140165.090    24140166.633          34.700          18.300          42.300
 108505771.576 7  84549992.85046                  20647953.328
  20647956.965                          45.900          40.600
 124827146.744 5  97087803.559 6                  23318754.273    23318753.652
  23318760.762                          35.200          36.000
 102019885.045 7  79348899.202 6                  19071534.391    19071533.004
  19071540.738                          46.100          40.300
 108074722.566 7  84214158.58746                  20565930.344
  20565935.949                          47.900          39.400
 119278957.972 6                  89071963.032 7  22698030.516
                  22698033.578          41.700                          45.100
 122637568.493 7                  91580048.752 8  23337142.406
                  23337146.773          46.400                          50.800
 114099934.261 7                  85204506.963 7  21712493.578
                  21712494.785          43.400                          45.700
 137010787.961 5                 102313283.935 6  26072280.242
                  26072284.770          33.900                          37.500
 105919818.479 7                  79095984.985 8  20155871.758
                  20155876.074          47.600                          50.200
 123283787.052 7                  92062617.863 7  23460116.875
                  23460123.297          42.300                          45.400
 19  7  9 10  0 20.0000000  0 21G06G29R24R08G30R22G13G07R01G15G09G02
                                R07R23G05E12E04E11E19E14E09
 116916435.144 6  91103822.46545  87307826.780 8  22248468.172
  22248477.395    22248478.211          39.900          31.000          48.900
 120344418.039 6  93775029.63844                  22900812.609
  22900819.512                          40.400          26.000
 112997406.319 6                                  21131086.805    21131085.699
                                        36.100
 106652688.851 7  82952120.400 7                  19916628.141    19916628.426
  19916631.855                          42.400          44.300
 125211195.697 5  97567160.52643  93501869.414 7  23826886.367
  23826895.590    23826895.742          35.200          22.500          44.100
 116943041.800 6  90955714.149 6                  21907370.609    21907369.008
  21907374.801                          39.800          39.200
 115814348.181 7  90244963.77845                  22038731.195
  22038737.563                          42.100          30.100
 127495613.995 6  99347168.16643                  24261585.195
  24261591.332                          38.200          20.900
 106443755.669 6  82789629.977 6                  19912497.094    19912496.512
  19912502.898                          41.800          39.200
 129939494.875 5 101251488.61542                  24726639.602
  24726647.816                          34.300          15.600
 126860750.648 5  98852611.39343  94733744.640 7  24140798.586
  24140806.801    24140808.250          34.100          18.600          42.400
 108505539.168 7  84549811.75846                  20647909.492
  20647913.215                          45.900          40.400
 124830742.282 5  97090600.110 6                  23319425.828    23319425.652
  23319432.238                          35.300          36.500
 102019924.299 7  79348929.749 6                  19071541.102    19071540.043
  19071547.801                          46.000          40.800
 108074220.217 8  84213767.15046                  20565834.641
  20565840.633                          48.000          39.900
 119280911.092 6                  89073421.559 7  22698401.930
                  22698405.102          41.700                          45.000
 122637715.139 7                  91580158.257 8  23337170.398
                  23337174.723          46.400                          50.700
 114099248.084 7                  85203994.534 7  21712362.852
                  21712364.371          43.500                          45.500
 137013200.196 5                 102315085.246 6  26072739.117
                  26072743.777          34.300                          37.600
 105923567.502 7                  79098784.574 8  20156585.180
                  20156589.566          47.500                          50.100
 123281635.802 7                  92061011.405 7  23459707.781
                  23459714.043          42.400                          45.600
 19  7  9 10  0 21.0000000  0 21G06G29R24R08G30R22G13G07R01G15G09G02
                                R07R23G05E12E04E11E19E14E09
 116918811.102 6  91105673.85745  87309601.052 8  22248920.266
  22248929.438    22248930.164          39.700          31.200          49.000
 120342203.836 6  93773304.28844                  22900391.570
  22900398.152                          40.600          24.700
 112994079.950 6                                  21130464.109    21130463.664
                                        36.400
 106654604.087 7  82953610.027 7                  19916986.781    19916986.105
  19916989.707                          42.600          44.600
 125209302.417 5  97565685.24543  93500455.625 7  23826526.414
  23826535.398    23826535.539          34.900          22.600          44.100
 116946868.996 6  90958690.856 6                  21908087.289    21908086.016
  21908091.438                          40.200          39.000
 115811181.395 7  90242496.16045                  22038128.422
  22038134.762                          42.100          30.100
 127495107.381 6  99346773.38443                  24261489.219
  24261495.027                          38.400          20.900
 106442629.379 6  82788753.971 6                  19912287.242    19912285.535
  19912292.414                          41.800          39.900
 129935651.321 5 101248493.62042                  24725908.867
  24725916.090                          34.300          16.300
 126864123.260 5  98855239.40042  94736263.142 7  24141440.531
  24141448.938    24141450.148          34.100          17.800          42.600
 108505307.152 7  84549630.97046                  20647865.031
  20647868.754                          46.300          40.300
 124834337.723 5  97093396.550 6                  23320097.531    23320097.262
  23320103.949                          35.400          36.400
 102019964.399 7  79348960.924 6                  19071548.859    19071548.035
  19071555.398                          45.600          40.600
 108073718.125 8  84213375.91446                  20565739.398
  20565744.746                          48.100          39.900
 119282864.515 6                  89074880.259 7  22698774.000
                  22698776.758          41.900                          44.800
 122637862.067 7                  91580267.990 8  23337198.297
                  23337202.684          46.300                          50.500
 114098562.178 7                  85203482.336 7  21712232.570
                  21712233.813          42.700                          45.700
 137015612.434 5                 102316886.627 6  26073198.320
                  26073202.984          34.900                          37.600
 105927317.475 7                  79101584.884 8  20157298.844
                  20157303.141          47.100                          50.000
 123279484.736 7                  92059405.092 7  23459298.281
                  23459304.637          42.000                          45.000
 19  7  9 10  0 22.0000000  0 21G06G29R24R08G30R22G13G07R01G15G09G02
                                R07R23G05E12E04E11E19E14E09
 116921187.459 6  91107525.56645  87311375.596 8  22249372.227
  22249381.457    22249382.332          40.100          31.300          49.000
 120339990.150 6  93771579.34744                  22899970.031
  22899977.148                          40.800          26.000
 112990754.046 6                                  21129843.461    21129841.605
                                        36.200
 106656519.765 7  82955099.999 7                  19917344.063    19917343.832
  19917347.293                          42.600          44.300
 125207409.530 5  97564210.27743  93499042.101 7  23826165.625
  23826175.344    23826175.395          35.500          22.500          43.900
 116950696.629 6  90961667.897 6                  21908804.148    21908802.805
  21908808.566                          40.100          39.000
 115808014.984 7  90240028.81744                  22037525.625
  22037532.012                          42.200          29.700
 127494601.246 6  99346378.98343                  24261392.602
  24261399.129                          38.800          21.100
 106441503.648 6  82787878.394 6                  19912076.047    19912074.879
  19912081.742                          41.900          39.900
 129931807.924 5 101245498.79842                  24725176.492
  24725185.109                          34.700          16.900
 126867496.041 5  98857867.52143  94738781.768 7  24142082.125
  24142090.699    24142092.008          34.500          19.000          42.500
 108505075.547 7  84549450.49946                  20647821.508
  20647824.406                          46.000          40.500
 124837933.073 5  97096192.929 6                  23320770.016    23320768.832
  23320775.809                          35.100          36.200
 102020005.346 7  79348992.773 6                  19071556.172    19071555.465
  19071563.246                          45.500          40.300
 108073216.340 8  84212984.91246                  20565643.977
  20565649.621                          48.000          39.700
 119284818.248 6                  89076339.221 7  22699145.742
                  22699148.629          41.900                          44.900
 122638009.366 7                  91580377.983 8  23337226.313
                  23337230.672          45.700                          50.600
 114097876.653 7                  85202970.424 7  21712101.969
                  21712103.422          42.900                          45.700
 137018024.846 5                 102318688.075 6  26073657.586
                  26073661.949          34.500                          37.900
 105931068.463 7                  79104385.943 8  20158012.602
                  20158016.949          47.000                          50.300
 123277333.942 7                  92057798.972 7  23458888.898
                  23458895.449          42.100                          45.400
 19  7  9 10  0 23.0000000  0 21G06G29R24R08G30R22G13G07R01G15G09G02
                                R07R23G05E12E04E11E19E14E09
 116923564.099 6  91109377.49045  87313150.359 8  22249824.797
  22249833.777    22249834.652          39.500          31.800          48.800
 120337776.969 6  93769854.78444                  22899548.984
  22899555.848                          40.800          24.800
 112987428.561 6                                  21129221.992    21129220.301
                                        36.300
 106658435.794 7  82956590.245 7                  19917702.625    19917701.668
  19917704.977                          42.600          44.400
 125205516.918 5  97562735.49943  93497628.794 7  23825805.016
  23825815.137    23825815.176          35.600          22.200          44.100
 116954524.567 6  90964645.208 6                  21909521.234    21909520.035
  21909525.660                          40.300          38.900
 115804848.937 7  90237561.77344                  22036923.313
  22036929.773                          42.000          29.000
 127494095.591 6  99345984.96343                  24261295.930
  24261302.020                          39.200          21.100
 106440378.440 7  82787003.228 6                  19911865.859    19911864.551
  19911871.508                          42.100          39.900
 129927964.506 5 101242503.91542                  24724445.109
  24724453.758                          33.700          16.300
 126870868.983 5  98860495.77843  94741300.520 7  24142724.516
  24142732.656    24142733.902          34.100          19.300          42.700
 108504844.310 7  84549270.31446                  20647777.320
  20647780.746                          46.000          40.700
 124841528.379 5  97098989.256 6                  23321442.875    23321440.801
  23321447.223                          35.100          36.400
 102020047.176 7  79349025.306 6                  19071564.203    19071563.402
  19071571.086                          45.600          40.300
 108072714.825 8  84212594.12046                  20565548.086
  20565554.418                          48.200          39.400
 119286772.272 7                  89077798.387 7  22699517.320
                  22699520.457          42.100                          45.000
 122638157.004 7                  91580488.225 8  23337254.500
                  23337258.797          45.600                          50.700
 114097191.488 7                  85202458.782 7  21711971.633
                  21711972.887          42.500                          45.600
 137020437.263 5                 102320489.602 6  26074116.297
                  26074121.102          34.700                          37.900
 105934820.423 7                  79107187.735 8  20158726.484
                  20158730.895          46.800                          50.200
 123275183.370 7                  92056193.026 7  23458479.844
                  23458486.230          42.200                          45.300
 19  7  9 10  0 24.0000000  0 21G06G29R24R08G30R22G13G07R01G15G09G02
                                R07R23G05E12E04E11E19E14E09
 116925941.027 6  91111229.64245  87314925.352 8  22250276.695
  22250285.879    22250287.059          40.200          31.100          48.500
 120335564.302 6  93768130.63944                  22899127.359
  22899134.816                          40.500          25.100
 112984103.462 5                                  21128600.391    21128598.465
                                        35.600
 106660352.189 7  82958080.772 7                  19918060.945    19918059.402
  19918062.938                          42.800          44.300
 125203624.641 5  97561260.99143  93496215.730 7  23825445.594
  23825454.891    23825454.953          35.600          21.100          44.100
 116958352.960 6  90967622.796 6                  21910239.273    21910237.250
  21910243.285                          40.500          39.200
 115801683.220 7  90235094.98544                  22036321.430
  22036327.164                          42.000          29.300
 127493590.409 6  99345591.30643                  24261199.578
  24261206.359                          38.700          20.900
 106439253.759 7  82786128.492 6                  19911654.664    19911654.129
  19911661.082                          42.100          39.700
 129924121.260 5 101239509.18542                  24723714.484
  24723722.160                          33.800          15.600
 126874242.071 5  98863124.16443  94743819.393 7  24143366.125
  24143374.207    24143375.703          34.200          19.300          42.900
 108504613.503 7  84549090.46346                  20647733.484
  20647737.016                          45.900          40.800
 124845123.639 5  97101785.555 6                  23322114.117    23322112.863
  23322118.988                          35.300          36.000
 102020089.829 7  79349058.495 6                  19071571.719    19071571.199
  19071579.043                          45.300          40.200
 108072213.614 8  84212203.56046                  20565452.828
  20565458.594                          48.000          39.400
 119288726.556 6                  89079257.789 7  22699889.383
                  22699892.313          41.900                          45.000
 122638304.944 7                  91580598.708 8  23337282.531
                  23337286.906          45.600                          50.700
 114096506.650 7                  85201947.379 7  21711841.453
                  21711842.578          42.800                          45.600
 137022849.798 5                 102322291.168 6  26074575.750
                  26074580.332          34.700                          37.900
 105938573.368 7                  79109990.256 8  20159440.688
                  20159445.070          47.000                          50.300
 123273033.030 6                  92054587.260 7  23458070.602
                  23458076.867          41.800                          45.400
 19  7  9 10  0 25.0000000  0 21G06G29R24R08G30R22G13G07R01G15G09G02
                                R07R23G05E12E04E11E19E14E09
 116928318.354 6  91113082.10145  87316700.632 8  22250729.352
  22250738.609    22250739.414          39.900          31.300          48.400
 120333352.227 6  93766406.95344                  22898706.203
  22898714.012                          40.400          24.600
 112980778.933 6                                  21127979.734    21127977.012
                                        36.000
 106662269.010 7  82959571.632 7                  19918418.172    19918417.402
  19918421.031                          42.800          44.700
 125201732.693 5  97559786.74543  93494802.919 7  23825085.766
  23825094.891    23825095.094          34.800          21.100          44.600
 116962181.733 6  90970600.758 6                  21910955.727    21910954.715
  21910960.055                          40.700          39.500
 115798517.875 6  90232628.47944                  22035718.797
  22035725.461                          41.800          29.300
 127493085.719 6  99345198.03543                  24261103.500
  24261110.371                          38.600          20.100
 106438129.649 6  82785254.181 6                  19911445.102    19911443.559
  19911450.410                          41.800          39.600
 129920278.032 5 101236514.46842                  24722983.148
  24722990.797                          34.400          15.600
 126877615.404 5  98865752.74043  94746338.421 7  24144008.055
  24144016.078    24144017.574          33.800          19.900          42.600
 108504383.117 7  84548910.93846                  20647689.945
  20647692.656                          46.000          40.500
 124848718.847 5  97104581.855 6                  23322783.977    23322784.363
  23322790.855                          35.600          36.300
 102020133.390 7  79349092.380 6                  19071580.688    19071579.559
  19071587.109                          45.100          40.300
 108071712.735 7  84211813.26646                  20565357.484
  20565363.609                          47.800          39.400
 119290681.255 7                  89080717.437 7  22700261.211
                  22700264.363          42.100                          45.100
 122638453.261 7                  91580709.474 8  23337310.875
                  23337315.184          45.200                          50.500
 114095822.247 7                  85201436.279 7  21711711.055
                  21711712.449          43.200                          45.700
 137025262.495 5                 102324092.809 6  26075034.922
                  26075039.195          34.200                          38.000
 105942327.356 7                  79112793.542 8  20160155.102
                  20160159.496          46.800                          50.600
 123270882.969 6                  92052981.692 7  23457661.555
                  23457667.738          41.900                          45.400
 19  7  9 10  0 26.0000000  0 21G06G29R24R08G30R22G13G07R01G15G09G02
                                R07R23G05E12E04E11E19E14E09
 116930696.011 6  91114934.82645  87318476.152 8  22251181.727
  22251190.852    22251191.871          40.200          31.000          48.700
 120331140.684 6  93764683.66144                  22898285.914
  22898293.242                          40.400          26.400
 112977454.896 5                                  21127357.234    21127355.309
                                        35.800
 106664186.213 7  82961062.792 7                  19918775.805    19918775.410
  19918779.059                          42.600          45.000
 125199841.107 5  97558312.78843  93493390.363 7  23824725.078
  23824734.539    23824735.078          34.400          22.000          44.400
 116966010.941 6  90973579.014 6                  21911672.563    21911671.973
  21911677.543                          40.600          39.200
 115795352.913 6  90230162.27345                  22035116.586
  22035122.715                          41.300          30.000
 127492581.581 6  99344805.19043                  24261008.180
  24261014.246                          38.700          20.900
 106437006.101 6  82784380.303 6                  19911233.898    19911233.645
  19911240.406                          41.700          39.600
 129916435.018 5 101233519.94142                  24722251.977
  24722259.805                          34.700          14.800
 126880988.904 5  98868381.41943  94748857.549 7  24144650.406
  24144657.953    24144659.684          33.800          19.600          42.000
 108504153.133 7  84548731.73446                  20647645.898
  20647649.117                          46.000          40.500
 124852314.069 5  97107378.143 6                  23323455.594    23323455.465
  23323462.035                          35.500          36.300
 102020177.820 7  79349126.909 6                  19071588.609    19071587.809
  19071595.418                          45.000          39.900
 108071212.146 8  84211423.19646                  20565262.398
  20565268.141                          48.000          39.400
 119292636.197 7                  89082177.312 7  22700633.219
                  22700636.418          42.100                          45.100
 122638601.937 7                  91580820.491 8  23337339.125
                  23337343.484          45.500                          50.800
 114095138.143 7                  85200925.441 7  21711580.891
                  21711582.363          43.100                          45.700
 137027675.256 5                 102325894.540 6  26075494.008
                  26075498.230          34.400                          38.000
 105946082.305 7                  79115597.582 8  20160869.617
                  20160874.008          46.800                          50.400
 123268733.157 6                  92051376.330 7  23457252.406
                  23457258.707          41.600                          45.400
 19  7  9 10  0 27.0000000  0 21G06G29R24R08G30R22G13G07R01G15G09G02
                                R07R23G05E12E04E11E19E14E09
 116933073.991 6  91116787.80145  87320251.905 8  22251634.836
  22251643.574    22251644.426          40.300          30.800          48.800
 120328929.617 6  93762960.75544                  22897864.789
  22897872.223                          40.200          27.600
 112974131.320 6                                  21126734.789    21126733.332
                                        36.200
 106666103.788 7  82962554.251 7                  19919134.086    19919133.410
  19919137.074                          42.700          45.100
 125197949.818 5  97556839.05943  93491978.021 7  23824364.266
  23824374.785    23824375.125          34.100          21.300          44.600
 116969840.521 6  90976557.572 6                  21912390.430    21912389.512
  21912395.234                          40.500          39.500
 115792188.313 6  90227696.35444                  22034514.063
  22034520.672                          41.400          29.900
 127492077.860 6  99344412.73343                  24260912.109
  24260918.211                          38.400          21.300
 106435883.079 6  82783506.846 6                  19911024.156    19911023.551
  19911030.051                          41.800          39.800
 129912592.078 5 101230525.39842                  24721520.367
  24721528.559                          34.500          14.800
 126884362.489 5  98871010.19243  94751376.831 7  24145292.930
  24145300.426    24145301.730          34.400          19.300          42.500
 108503923.574 7  84548552.85546                  20647601.867
  20647605.363                          46.200          40.600
 124855909.159 5  97110174.334 6                  23324128.398    23324127.098
  23324133.871                          35.800          36.500
 102020223.087 7  79349162.134 6                  19071597.680    19071596.176
  19071603.688                          45.200          40.500
 108070711.825 7  84211033.33846                  20565167.055
  20565173.063                          47.900          39.400
 119294591.485 6                  89083637.416 7  22701005.625
                  22701008.520          41.600                          45.100
 122638750.944 7                  91580931.756 8  23337367.406
                  23337371.805          45.500                          50.700
 114094454.417 7                  85200414.850 7  21711450.898
                  21711452.148          43.200                          45.700
 137030088.062 5                 102327696.346 6  26075953.219
                  26075957.438          34.600                          37.800
 105949838.257 7                  79118402.346 8  20161584.164
                  20161588.762          46.800                          50.100
 123266583.580 6                  92049771.128 7  23456843.352
                  23456849.539          41.500                          45.700
 19  7  9 10  0 28.0000000  0 21G06G29R24R08G30R22G13G07R01G15G09G02
                                R07R23G05E12E04E11E19E14E09
 116935452.308 6  91118641.03545  87322027.926 8  22252086.969
  22252096.164    22252096.945          40.100          30.500          49.300
 120326719.102 6  93761238.28144                  22897444.078
  22897451.934                          39.200          26.300
 112970808.144 5                                  21126112.977    21126111.496
                                        35.600
 106668021.791 7  82964046.027 7                  19919492.578    19919491.738
  19919495.234                          42.400          45.200
 125196058.859 5  97555365.59343  93490565.964 7  23824004.461
  23824014.641    23824015.277          34.000          20.600          44.800
 116973670.510 6  90979536.501 6                  21913108.016    21913106.840
  21913112.332                          40.200          39.700
 115789024.077 6  90225230.71844                  22033912.180
  22033918.410                          41.200          29.000
 127491574.648 6  99344020.62943                  24260816.594
  24260822.586                          38.200          21.100
 106434760.628 6  82782633.826 6                  19910814.008    19910813.660
  19910820.152                          40.900          39.500
 129908749.112 5 101227530.92142                  24720789.117
  24720797.441                          33.600          14.800
 126887736.359 5  98873639.19143  94753896.243 7  24145934.430
  24145941.844    24145943.434          33.600          19.600          42.200
 108503694.444 7  84548374.31846                  20647558.414
  20647561.766                          45.200          39.500
 124859504.219 5  97112970.500 5                  23324799.406    23324798.762
  23324805.301                          35.300          35.900
 102020269.232 7  79349198.003 6                  19071605.117    19071604.691
  19071612.418                          44.900          40.400
 108070211.867 7  84210643.76346                  20565072.250
  20565078.074                          47.300          38.500
 119296547.079 6                  89085097.763 7  22701377.938
                  22701380.531          41.500                          45.000
 122638900.315 7                  91581043.292 8  23337395.758
                  23337400.203          44.900                          50.500
 114093771.086 7                  85199904.566 7  21711320.500
                  21711322.125          42.600                          45.700
 137032501.023 5                 102329498.204 6  26076412.516
                  26076416.691          34.100                          37.600
 105953595.213 7                  79121207.866 8  20162299.000
                  20162303.762          46.400                          50.300
 123264434.290 6                  92048166.123 7  23456434.648
                  23456440.676          40.800                          45.800
 19  7  9 10  0 29.0000000  0 21G06G29R24R08G30R22G13G07R01G15G09G02
                                R07R23G05E12E04E11E19E14E09
 116937830.976 6  91120494.54345  87323804.215 8  22252539.656
  22252548.664    22252549.773          40.800          30.600          49.100
 120324509.195 6  93759516.27244                  22897023.375
  22897031.199                          40.000          25.500
 112967485.545 6                                  21125491.398    21125490.410
                                        36.300
 106669940.251 7  82965538.135 7                  19919851.344    19919849.777
  19919853.563                          42.600          44.900
 125194168.230 5  97553892.38343  93489154.151 7  23823645.344
  23823655.227    23823655.383          33.500          20.400          44.700
 116977500.958 6  90982515.703 6                  21913825.094    21913824.691
  21913830.273                          39.800          39.400
 115785860.247 7  90222765.39644                  22033310.742
  22033316.051                          42.200          29.400
 127491072.002 6  99343628.91343                  24260721.016
  24260727.012                          38.000          20.600
 106433638.769 6  82781761.273 6                  19910604.672    19910604.066
  19910610.430                          41.400          39.600
 129904906.416 5 101224536.59042                  24720057.445
  24720065.688                          33.900          14.800
 126891110.384 5  98876268.28243  94756415.820 7  24146577.281
  24146584.754    24146585.695          33.800          19.300          42.400
 108503465.741 7  84548196.10046                  20647515.070
  20647518.355                          46.100          40.200
 124863099.267 5  97115766.627 5                  23325470.422    23325470.223
  23325476.938                          35.400          35.700
 102020316.254 7  79349234.583 6                  19071615.016    19071613.840
  19071621.441                          45.400          40.200
 108069712.187 7  84210254.39746                  20564976.703
  20564982.617                          47.600          39.400
 119298503.012 6                  89086558.382 7  22701749.711
                  22701752.848          41.700                          45.000
 122639050.041 7                  91581155.109 8  23337424.414
                  23337428.758          46.000                          51.000
 114093088.119 7                  85199394.586 7  21711190.719
                  21711192.160          43.200                          45.700
 137034914.098 5                 102331300.201 6  26076871.539
                  26076875.996          34.700                          37.900
 105957353.223 7                  79124014.165 8  20163014.180
                  20163018.848          46.900                          50.500
 123262285.268 6                  92046561.341 7  23456025.500
                  23456031.727          41.800                          45.600
 19  7  9 10  0 30.0000000  0 21G06G29R24R08G30R22G13G07R01G15G09G02
                                R07R23G05E12E04E11E19E14E09
 116940209.940 6  91122348.27345  87325580.705 8  22252992.430
  22253001.531    22253002.352          40.700          31.700          49.100
 120322299.730 6  93757794.59844                  22896603.070
  22896610.988                          40.300          26.900
 112964163.286 6                                  21124870.344    21124868.957
                                        36.200
 106671859.017 7  82967030.521 7                  19920209.125    19920208.191
  19920211.914                          42.800          45.200
 125192277.931 5  97552419.42343  93487742.551 7  23823285.094
  23823295.316    23823295.789          32.500          20.600          44.300
 116981331.762 6  90985495.206 6                  21914543.703    21914542.313
  21914548.063                          39.900          39.800
 115782696.707 7  90220300.30444                  22032708.688
  22032714.328                          42.100          28.900
 127490569.756 6  99343237.57743                  24260625.680
  24260632.000                          38.300          21.300
 106432517.398 6  82780889.106 6                  19910395.898    19910394.426
  19910401.004                          41.700          39.900
 129901063.731 5 101221542.30142                  24719327.086
  24719335.168                          34.100          13.900
 126894484.562 5  98878897.48543  94758935.477 7  24147219.180
  24147226.477    24147227.711          33.800          19.300          42.600
 108503237.388 7  84548018.16846                  20647471.664
  20647474.633                          45.900          40.800
 124866694.257 5  97118562.715 5                  23326142.656    23326141.895
  23326148.641                          35.800          35.800
 102020364.063 7  79349271.775 6                  19071623.898    19071622.746
  19071630.227                          45.400          40.100
 108069212.752 7  84209865.22646                  20564881.758
  20564887.750                          47.700          39.700
 119300459.210 6                  89088019.175 7  22702121.984
                  22702125.109          41.900                          45.000
 122639200.073 7                  91581267.140 8  23337452.930
                  23337457.285          46.000                          50.600
 114092405.495 7                  85198884.819 7  21711060.617
                  21711062.234          43.000                          45.800
 137037327.177 5                 102333102.211 6  26077330.422
                  26077335.293          34.600                          37.900
 105961112.141 7                  79126821.153 8  20163729.469
                  20163734.090          47.200                          50.500
 123260136.431 6                  92044956.686 7  23455616.570
                  23455622.871          41.800                          45.700
 19  7  9 10  0 31.0000000  0 21G06G29R24R08G30R22G13G07R01G15G09G02
                                R07R23G05E12E04E11E19E14E09
 116942589.211 6  91124202.25645  87327357.436 8  22253445.273
  22253454.457    22253455.289          41.300          31.300          48.700
 120320090.818 6  93756073.37244                  22896182.977
  22896190.152                          40.000          24.200
 112960841.523 6                                  21124249.289    21124247.879
                                        36.300
 106673778.170 7  82968523.204 7                  19920566.898    19920566.621
  19920570.199                          43.000          45.500
 125190387.944 5  97550946.68843  93486331.175 7  23822925.469
  23822935.504    23822936.035          33.400          20.100          44.300
 116985162.917 6  90988475.021 6                  21915262.070    21915260.070
  21915265.863                          39.900          40.000
 115779533.532 7  90217835.48944                  22032106.703
  22032112.492                          42.600          29.400
 127490067.991 6  99342846.62043                  24260529.250
  24260536.352                          38.700          21.100
 106431396.597 6  82780017.369 6                  19910184.719    19910184.559
  19910190.973                          41.800          39.500
 129897221.133 5 101218548.08142                  24718594.672
  24718603.848                          33.700          15.600
 126897858.913 5  98881526.86443  94761455.243 7  24147860.711
  24147868.598    24147870.117          34.400          19.900          42.400
 108503009.462 7  84547840.55646                  20647427.844
  20647431.594                          45.900          40.900
 124870289.190 5  97121358.787 6                  23326813.523    23326813.301
  23326820.047                          35.400          36.200
 102020412.736 7  79349309.624 6                  19071633.242    19071631.645
  19071639.133                          45.600          40.300
 108068713.625 7  84209476.30146                  20564786.859
  20564792.656                          47.500          39.800
 119302415.715 6                  89089480.192 7  22702494.469
                  22702497.461          41.100                          44.900
 122639350.431 7                  91581379.434 8  23337481.445
                  23337485.883          45.600                          50.900
 114091723.210 7                  85198375.321 7  21710931.203
                  21710932.484          42.900                          45.600
 137039740.414 5                 102334904.245 6  26077789.789
                  26077794.469          34.400                          38.000
 105964872.075 7                  79129628.887 8  20164445.078
                  20164449.672          47.200                          50.300
 123257987.855 7                  92043352.235 7  23455207.742
                  23455214.008          42.000                          45.900
 19  7  9 10  0 32.0000000  0 21G06G29R24R08G30R22G13G07R01G15G09G02
                                R07R23G05E12E04E11E19E14E09
 116944968.852 6  91126056.52445  87329134.431 8  22253898.234
  22253907.766    22253908.031          40.400          30.400          48.500
 120317882.409 6  93754352.52544                  22895762.766
  22895770.070                          40.100          25.900
 112957520.195 6                                  21123627.867    21123626.973
                                        36.100
 106675697.724 7  82970016.177 7                  19920925.414    19920924.809
  19920928.805                          42.900          45.100
 125188498.247 5  97549474.22743  93484920.080 7  23822567.063
  23822575.895    23822576.410          34.200          20.400          43.900
 116988994.476 6  90991455.115 6                  21915979.594    21915977.617
  21915983.512                          40.000          40.100
 115776370.741 7  90215370.98644                  22031504.789
  22031510.371                          42.000          29.300
 127489566.746 6  99342456.00143                  24260434.914
  24260440.738                          38.600          21.300
 106430276.373 7  82779146.072 6                  19909975.820    19909975.004
  19909981.645                          42.200          39.700
 129893378.656 5 101215553.94542                  24717863.688
  24717872.719                          33.800          16.300
 126901233.381 5  98884156.32143  94763975.168 7  24148503.070
  24148510.234    24148512.230          33.900          20.400          42.200
 108502781.972 7  84547663.29346                  20647384.477
  20647387.793                          45.300          40.800
 124873884.081 5  97124154.824 6                  23327485.164    23327485.645
  23327491.379                          35.200          36.400
 102020462.280 7  79349348.195 6                  19071642.125    19071641.066
  19071648.406                          45.400          40.400
 108068214.814 7  84209087.62046                  20564691.867
  20564697.988                          47.500          39.900
 119304372.550 6                  89090941.462 7  22702866.648
                  22702869.781          41.300                          44.900
 122639501.139 7                  91581491.983 8  23337510.195
                  23337514.617          45.700                          51.100
 114091041.309 7                  85197866.103 7  21710801.445
                  21710802.582          43.200                          45.500
 137042153.728 5                 102336706.408 6  26078249.094
                  26078253.477          34.700                          37.900
 105968632.988 7                  79132437.36418  20165160.648
                  20165165.336          47.500                          50.200
 123255839.535 6                  92041747.967 7  23454799.023
                  23454805.215          41.700                          45.600
 19  7  9 10  0 33.0000000  0 21G06G29R24R08G30R22G13G07R01G15G09G02
                                R07R23G05E12E04E11E19E14E09
 116947348.836 6  91127911.04845  87330911.668 8  22254351.125
  22254360.141    22254361.086          40.300          30.900          48.400
 120315674.570 6  93752632.13744                  22895342.664
  22895349.926                          39.900          25.600
 112954199.367 6                                  21123005.961    21123005.539
                                        36.100
 106677617.645 7  82971509.463 7                  19921283.828    19921283.410
  19921287.316                          43.200          45.500
 125186608.929 5  97548002.02843  93483509.212 7  23822207.984
  23822216.535    23822217.016          34.500          22.000          44.200
 116992826.444 6  90994435.536 6                  21916696.055    21916695.582
  21916701.449                          40.000          40.400
 115773208.327 6  90212906.75844                  22030902.352
  22030908.855                          41.700          29.800
 127489066.011 6  99342065.87943                  24260338.594
  24260345.340                          38.300          20.900
 106429156.666 7  82778275.194 6                  19909766.406    19909766.012
  19909771.953                          42.400          39.500
 129889536.230 5 101212559.81542                  24717132.461
  24717141.141                          33.500          14.800
 126904608.071 5  98886785.92543  94766495.219 7  24149145.359
  24149152.910    24149154.285          33.700          19.600          42.000
 108502554.863 7  84547486.32146                  20647341.898
  20647345.023                          45.500          40.600
 124877478.818 5  97126950.743 6                  23328157.273    23328156.488
  23328163.070                          35.600          36.100
 102020512.712 7  79349387.400 6                  19071651.117    19071650.129
  19071658.152                          45.600          40.300
 108067716.311 7  84208699.17146                  20564596.977
  20564603.145                          47.400          40.400
 119306329.700 6                  89092402.962 7  22703239.078
                  22703242.293          41.600                          44.900
 122639652.216 7                  91581604.791 8  23337539.078
                  23337543.258          45.800                          50.900
 114090359.760 7                  85197357.147 7  21710671.727
                  21710672.879          42.900                          45.500
 137044567.140 5                 102338508.630 6  26078708.422
                  26078712.887          34.700                          37.500
 105972394.911 7                  79135246.595 8  20165876.516
                  20165881.176          47.100                          50.200
 123253691.475 6                  92040143.884 7  23454390.266
                  23454396.477          41.600                          45.400
 19  7  9 10  0 34.0000000  0 21G06G29R24R08G30R22G13G07R01G15G09G02
                                R07R23G05E12E04E11E19E14E09
 116949729.105 6  91129765.80145  87332689.153 8  22254803.820
  22254813.273    22254814.254          40.200          31.000          48.200
 120313467.218 6  93750912.12144                  22894922.164
  22894929.871                          39.800          26.100
 112950879.007 6                                  21122384.883    21122384.555
                                        36.300
 106679537.935 7  82973003.025 7                  19921642.609    19921642.145
  19921645.977                          43.000          45.000
 125184719.878 5  97546530.03543  93482098.588 7  23821848.523
  23821857.051    23821857.383          34.800          22.000          44.300
 116996658.812 6  90997416.254 6                  21917414.953    21917413.234
  21917419.684                          40.400          40.300
 115770046.246 6  90210442.80745                  22030301.391
  22030307.316                          41.300          30.100
 127488565.737 6  99341676.00643                  24260243.125
  24260250.156                          38.100          21.100
 106428037.531 7  82777404.779 6                  19909556.477    19909556.223
  19909562.547                          42.200          39.600
 129885693.957 5 101209565.84842                  24716401.266
  24716409.961                          33.200          16.900
 126907982.923 5  98889415.67343  94769015.391 6  24149787.719
  24149795.059    24149796.398          33.700          19.300          41.700
 108502328.177 7  84547309.68346                  20647298.633
  20647301.906                          46.000          40.800
 124881073.585 5  97129746.644 6                  23328828.992    23328828.160
  23328834.496                          35.400          36.100
 102020564.000 7  79349427.275 6                  19071661.016    19071660.027
  19071667.445                          45.500          40.100
 108067218.089 7  84208310.95146                  20564502.219
  20564507.852                          47.900          39.800
 119308287.158 6                  89093864.698 7  22703611.555
                  22703614.703          41.400                          44.800
 122639803.631 7                  91581717.852 8  23337567.688
                  23337572.102          46.300                          50.900
 114089678.574 7                  85196848.479 7  21710541.930
                  21710543.324          42.900                          45.700
 137046980.613 5                 102340310.888 6  26079167.383
                  26079172.148          35.100                          37.700
 105976157.821 7                  79138056.561 8  20166592.547
                  20166597.336          47.300                          50.100
 123251543.642 7                  92038539.990 7  23453981.313
                  23453987.617          42.000                          45.400
 19  7  9 10  0 35.0000000  0 21G06G29R24R08G30R22G13G07R01G15G09G02
                                R07R23G05E12E04E11E19E14E09
 116952109.805 6  91131620.89445  87334466.956 8  22255256.898
  22255266.086    22255267.125          40.200          30.900          48.500
 120311260.522 6  93749192.61844                  22894502.617
  22894510.301                          39.500          25.400
 112947559.200 5                                  21121763.508    21121764.117
                                        35.700
 106681458.740 7  82974496.981 7                  19922001.148    19922000.754
  19922004.434                          43.100          45.300
 125182831.338 5  97545058.44143  93480688.285 7  23821488.922
  23821497.578    23821498.141          34.900          22.200          44.300
 117000491.662 6  91000397.373 6                  21918132.805    21918131.414
  21918137.762                          40.600          40.400
 115766884.655 6  90207979.22744                  22029699.516
  22029705.105                          41.400          29.700
 127488066.072 6  99341286.71543                  24260148.453
  24260155.238                          38.000          20.400
 106426919.027 7  82776534.810 6                  19909347.320    19909346.809
  19909353.227                          42.300          39.700
 129881851.841 5 101206571.96142                  24715670.227
  24715678.898                          33.200          16.900
 126911358.039 5  98892045.62343  94771535.753 6  24150429.578
  24150437.449    24150438.781          33.300          19.600          41.800
 108502101.974 7  84547133.42446                  20647255.609
  20647259.145                          45.700          40.400
 124884668.328 5  97132542.577 5                  23329500.523    23329499.480
  23329506.422                          35.100          35.800
 102020616.254 7  79349467.892 6                  19071670.438    19071669.895
  19071677.133                          45.500          39.900
 108066720.289 7  84207923.05146                  20564407.391
  20564413.277                          47.800          39.500
 119310245.016 6                  89095326.740 7  22703984.336
                  22703987.262          41.500                          44.700
 122639955.462 7                  91581831.235 8  23337596.609
                  23337601.070          46.200                          51.200
 114088997.845 7                  85196340.143 7  21710412.500
                  21710413.773          43.100                          45.500
 137049394.310 5                 102342113.314 6  26079626.969
                  26079631.563          34.500                          37.300
 105979921.839 7                  79140867.348 8  20167308.992
                  20167313.574          47.000                          50.000
 123249396.150 7                  92036936.363 7  23453572.703
                  23453579.125          42.200                          45.300
 19  7  9 10  0 36.0000000  0 21G06G29R24R08G30R22G13G07R01G15G09G02
                                R07R23G05E12E04E11E19E14E09
 116954490.739 6  91133476.16545  87336244.915 8  22255709.938
  22255719.090    22255720.438          39.900          31.500          48.700
 120309054.233 6  93747473.44044                  22894082.477
  22894090.199                          39.900          26.700
 112944239.699 5                                  21121143.664    21121143.195
                                        35.400
 106683379.818 7  82975991.147 7                  19922360.555    19922359.691
  19922363.180                          43.100          45.300
 125180942.972 5  97543586.98843  93479278.118 7  23821129.336
  23821138.734    23821138.926          35.100          22.200          44.300
 117004324.783 6  91003378.694 6                  21918850.813    21918849.305
  21918855.980                          40.500          40.500
 115763723.312 6  90205515.84244                  22029097.867
  22029103.941                          41.900          29.500
 127487566.745 6  99340897.59443                  24260053.664
  24260060.238                          38.000          20.900
 106425800.960 7  82775665.220 6                  19909139.039    19909137.613
  19909144.238                          42.200          39.600
 129878009.716 5 101203578.12442                  24714939.711
  24714947.625                          33.700          16.300
 126914733.201 5  98894675.63543  94774056.184 6  24151071.789
  24151080.066    24151080.867          33.200          18.600          41.800
 108501876.096 7  84546957.41646                  20647212.141
  20647215.730                          45.600          40.800
 124888262.990 5  97135338.398 6                  23330173.250    23330171.270
  23330177.594                          35.400          36.400
 102020669.237 7  79349509.137 6                  19071681.242    19071679.785
  19071686.875                          45.200          40.300
 108066222.645 7  84207535.28246                  20564312.578
  20564318.531                          47.600          39.500
 119312203.066 7                  89096788.908 7  22704356.883
                  22704359.844          42.100                          44.700
 122640107.528 7                  91581944.797 8  23337625.500
                  23337629.840          46.200                          50.900
 114088317.363 7                  85195832.001 7  21710283.109
                  21710284.344          43.000                          45.500
 137051807.971 5                 102343915.732 6  26080086.273
                  26080090.953          34.200                          37.500
 105983686.697 7                  79143678.772 8  20168025.070
                  20168029.957          47.200                          50.200
 123247248.793 7                  92035332.816 7  23453164.219
                  23453170.441          42.400                          45.700
 19  7  9 10  0 37.0000000  0 21G06G29R24R08G30R22G13G07R01G15G09G02
                                R07R23G05E12E04E11E19E14E09
 116956872.020 6  91135331.71645  87338023.143 8  22256162.336
  22256172.180    22256173.535          40.500          31.400          49.200
 120306848.509 6  93745754.69544                  22893663.359
  22893670.781                          39.600          25.000
 112940920.709 5                                  21120523.125    21120522.586
                                        35.700
 106685301.313 7  82977485.648 7                  19922718.930    19922718.441
  19922722.078                          42.900          45.400
 125179054.934 5  97542115.80343  93477868.249 7  23820769.820
  23820779.563    23820779.656          34.700          21.300          44.400
 117008158.360 6  91006360.367 6                  21919569.477    21919567.430
  21919573.969                          40.900          41.100
 115760562.348 7  90203052.75044                  22028496.539
  22028502.387                          42.000          29.800
 127487067.994 6  99340508.92243                  24259958.500
  24259965.277                          37.400          20.100
 106424683.491 7  82774796.072 6                  19908929.195    19908928.191
  19908935.543                          42.400          39.900
 129874167.763 5 101200584.38842                  24714208.609
  24714216.496                          33.600          16.300
 126918108.587 5  98897305.78743  94776576.779 6  24151714.219
  24151721.957    24151723.289          33.000          19.000          41.600
 108501650.645 7  84546781.74146                  20647169.766
  20647173.156                          45.500          40.800
 124891857.674 5  97138134.236 6                  23330843.992    23330842.809
  23330849.383                          35.300          36.200
 102020723.127 7  79349551.056 6                  19071691.914    19071689.707
  19071697.117                          45.600          40.400
 108065725.337 7  84207147.77246                  20564218.164
  20564224.133                          47.600          39.400
 119314161.460 7                  89098251.344 7  22704729.664
                  22704732.496          42.100                          44.700
 122640259.970 7                  91582058.641 8  23337654.688
                  23337658.875          46.300                          50.800
 114087637.292 7                  85195324.156 7  21710153.672
                  21710154.934          43.100                          45.500
 137054221.762 5                 102345718.252 6  26080545.594
                  26080550.063          34.600                          37.500
 105987452.600 7                  79146490.983 8  20168741.883
                  20168746.594          47.000                          50.100
 123245101.742 7                  92033729.492 7  23452755.813
                  23452761.832          42.500                          45.600
 19  7  9 10  0 38.0000000  0 21G06G29R24R08G30R22G13G07R01G15G09G02
                                R07R23G05E12E04E11E19E14E09
 116959253.589 6  91137187.48345  87339801.608 8  22256616.461
  22256625.188    22256626.719          40.400          30.800          49.400
 120304643.320 6  93744036.36444                  22893243.359
  22893251.180                          39.800          25.700
 112937602.163 5                                  21119902.133    21119902.180
                                        35.600
 106687223.143 7  82978980.410 7                  19923077.906    19923077.465
  19923080.973                          42.600          45.800
 125177167.219 5  97540644.83143  93476458.578 7  23820409.867
  23820420.281    23820420.707          34.500          20.900          44.300
 117011992.318 6  91009342.328 6                  21920287.711    21920285.758
  21920292.332                          40.300          40.700
 115757401.724 6  90200589.92544                  22027895.070
  22027901.125                          41.800          29.400
 127486569.661 6  99340120.69643                  24259863.938
  24259870.398                          37.500          20.100
 106423566.536 7  82773927.307 6                  19908721.117    19908719.574
  19908726.301                          42.300          39.600
 129870325.814 5 101197590.69342                  24713476.703
  24713485.305                          32.500          16.900
 126921484.189 5  98899936.14343  94779097.457 6  24152355.914
  24152364.484    24152365.660          33.000          19.000          41.800
 108501425.595 7  84546606.37646                  20647126.836
  20647129.953                          45.800          40.600
 124895452.191 5  97140930.016 6                  23331514.938    23331514.316
  23331520.594                          35.400          36.100
 102020777.839 7  79349593.590 6                  19071701.414    19071699.816
  19071707.594                          45.700          40.400
 108065228.304 7  84206760.46946                  20564123.273
  20564129.539                          47.600          39.600
 119316120.147 7                  89099714.010 7  22705102.078
                  22705105.332          42.400                          44.600
 122640412.748 7                  91582172.724 8  23337683.688
                  23337688.023          46.000                          50.700
 114086957.555 7                  85194816.546 7  21710024.359
                  21710025.508          43.300                          45.600
 137056635.641 5                 102347520.792 6  26081004.828
                  26081009.488          34.900                          37.400
 105991219.478 7                  79149303.905 8  20169458.648
                  20169463.465          47.000                          50.200
 123242954.921 7                  92032126.343 7  23452347.102
                  23452353.402          42.000                          45.500
 19  7  9 10  0 39.0000000  0 21G06G29R24R08G30R22G13G07R01G15G09G02
                                R07R23G05E12E04E11E19E14E09
 116961635.485 6  91139043.50945  87341580.295 8  22257069.445
  22257078.848    22257080.043          39.800          31.200          49.300
 120302438.597 6  93742318.38744                  22892823.539
  22892831.281                          39.500          25.300
 112934284.041 5                                  21119282.750    21119281.855
                                        35.500
 106689145.365 7  82980475.458 7                  19923436.484    19923436.113
  19923440.008                          42.900          44.700
 125175279.807 5  97539174.14743  93475049.165 7  23820051.281
  23820061.598    23820061.355          34.600          20.900          44.400
 117015826.650 6  91012324.599 6                  21921005.500    21921003.852
  21921010.590                          40.900          40.200
 115754241.495 6  90198127.41845                  22027293.453
  22027299.355                          41.700          30.100
 127486071.858 6  99339732.77643                  24259768.992
  24259775.828                          37.700          21.100
 106422450.106 6  82773058.986 6                  19908511.656    19908510.746
  19908517.441                          41.800          39.700
 129866483.977 5 101194597.10142                  24712746.406
  24712754.324                          33.000          16.300
 126924859.816 5  98902566.49942  94781618.275 6  24152998.109
  24153006.688    24153008.109          33.000          17.400          41.400
 108501200.937 7  84546431.31546                  20647083.805
  20647087.305                          46.000          40.600
 124899046.706 5  97143725.745 6                  23332186.609    23332185.684
  23332192.164                          35.400          36.100
 102020833.380 7  79349636.789 6                  19071711.727    19071710.059
  19071718.105                          45.700          40.200
 108064731.557 7  84206373.40146                  20564028.938
  20564035.141                          47.900          39.500
 119318079.107 7                  89101176.873 7  22705474.891
                  22705478.109          42.400                          44.600
 122640565.842 7                  91582287.044 8  23337712.773
                  23337717.047          45.800                          50.700
 114086278.150 7                  85194309.202 7  21709894.836
                  21709896.309          43.300                          45.600
 137059049.550 5                 102349323.395 6  26081464.008
                  26081469.031          34.700                          37.500
 105994987.337 7                  79152117.563 8  20170175.766
                  20170180.590          47.000                          49.900
 123240808.310 7                  92030523.361 7  23451938.820
                  23451944.816          42.000                          45.600
 19  7  9 10  0 40.0000000  0 21G06G29R24R08G30R22G13G07R01G15G09G02
                                R07R23G05E12E04E11E19E14E09
 116964017.762 6  91140899.82545  87343359.257 8  22257522.766
  22257531.711    22257533.242          40.200          31.400          49.300
 120300234.452 6  93740600.88744                  22892404.375
  22892411.746                          39.600          26.900
 112930966.406 5                                  21118662.977    21118661.332
                                        35.400
 106691068.015 7  82981970.858 7                  19923796.758    19923795.074
  19923799.105                          43.000          45.100
 125173392.733 5  97537703.66943  93473639.996 7  23819692.117
  23819702.203    23819702.383          34.700          21.300          44.500
 117019661.420 6  91015307.165 6                  21921725.070    21921722.344
  21921729.301                          40.800          40.900
 115751081.607 6  90195665.14944                  22026692.602
  22026698.430                          41.200          29.800
 127485574.516 6  99339345.16743                  24259673.578
  24259680.762                          38.000          21.100
 106421334.281 6  82772191.128 6                  19908302.922    19908301.988
  19908308.492                          41.400          39.900
 129862642.273 5 101191603.55642                  24712014.852
  24712023.195                          32.600          15.600
 126928235.729 5  98905197.03342  94784139.227 6  24153640.055
  24153648.902    24153650.371          33.300          16.900          41.500
 108500976.706 7  84546256.59046                  20647041.758
  20647044.691                          46.100          40.500
 124902641.142 5  97146521.416 6                  23332856.875    23332857.074
  23332863.531                          35.500          36.200
 102020889.805 7  79349680.694 6                  19071721.523    19071720.816
  19071728.180                          45.600          40.200
 108064235.127 7  84205986.56546                  20563934.539
  20563940.566                          47.500          39.400
 119320038.410 7                  89102640.005 7  22705848.000
                  22705850.855          42.400                          44.600
 122640719.313 7                  91582401.637 8  23337741.875
                  23337746.426          45.600                          50.800
 114085599.121 7                  85193802.132 7  21709765.609
                  21709767.063          43.300                          45.500
 137061463.619 5                 102351126.120 6  26081923.414
                  26081928.113          34.700                          37.500
 105998756.194 7                  79154931.966 8  20170892.875
                  20170897.762          47.000                          50.300
 123238661.959 7                  92028920.582 7  23451530.391
                  23451536.418          42.300                          45.400
 19  7  9 10  0 41.0000000  0 21G06G29R24R08G30R22G13G07R01G15G09G02
                                R07R23G05E12E04E11E19E14E09
 116966400.395 6  91142756.41545  87345138.489 8  22257976.047
  22257984.988    22257986.707          39.900          31.200          49.100
 120298030.866 6  93738883.78644                  22891985.008
  22891992.828                          39.800          27.400
 112927649.308 5                                  21118042.414    21118040.582
                                        35.600
 106692991.101 7  82983466.597 7                  19924155.102    19924154.566
  19924158.102                          42.800          45.000
 125171506.060 5  97536233.52943  93472231.115 7  23819333.727
  23819342.742    23819343.309          34.700          22.000          44.700
 117023496.588 6  91018290.074 6                  21922443.086    21922440.781
  21922447.727                          40.400          40.600
 115747922.118 6  90193203.21744                  22026090.711
  22026096.902                          41.600          29.600
 127485077.712 6  99338958.01143                  24259580.125
  24259586.453                          38.100          20.100
 106420219.000 6  82771323.700 6                  19908094.164    19908093.488
  19908100.352                          41.700          39.900
 129858800.713 5 101188610.11342                  24711284.313
  24711292.391                          32.000          15.600
 126931611.871 5  98907827.81342  94786660.347 6  24154282.828
  24154291.465    24154292.758          32.800          17.800          41.400
 108500752.939 7  84546082.22646                  20646998.758
  20647002.082                          45.600          40.500
 124906235.571 5  97149317.082 5                  23333530.289    23333528.332
  23333535.234                          35.200          35.600
 102020947.111 7  79349725.247 6                  19071732.328    19071731.480
  19071739.020                          45.200          40.200
 108063739.042 7  84205600.00946                  20563840.211
  20563845.805                          47.300          39.200
 119321998.094 6                  89104103.369 7  22706220.734
                  22706223.797          41.600                          44.900
 122640873.130 7                  91582516.513 8  23337771.414
                  23337775.633          45.500                          50.700
 114084920.509 7                  85193295.386 7  21709636.742
                  21709637.852          43.500                          45.800
 137063877.762 5                 102352928.888 6  26082382.844
                  26082387.668          34.700                          37.700
 106002526.085 7                  79157747.154 8  20171610.523
                  20171615.141          46.700                          50.200
 123236515.922 7                  92027318.007 7  23451121.906
                  23451128.086          42.200                          45.600
 19  7  9 10  0 42.0000000  0 21G06G29R24R08G30R22G13G07R01G15G09G02
                                R07R23G05E12E04E11E19E14E09
 116968783.343 6  91144613.26345  87346917.975 8  22258429.977
  22258438.777    22258439.961          39.800          31.300          48.800
 120295827.808 6  93737167.13144                  22891565.805
  22891573.332                          39.900          24.200
 112924332.657 5                                  21117421.672    21117421.109
                                        35.700
 106694914.600 7  82984962.642 7                  19924515.031    19924513.676
  19924517.445                          42.900          45.000
 125169619.679 5  97534763.62843  93470822.451 7  23818973.758
  23818983.953    23818984.133          35.000          22.300          44.600
 117027332.158 6  91021273.288 6                  21923161.227    21923159.508
  21923165.988                          40.500          40.900
 115744763.010 6  90190741.56745                  22025489.586
  22025495.867                          41.600          30.400
 127484581.413 6  99338571.33343                  24259484.906
  24259491.531                          37.800          19.300
 106419104.273 6  82770456.689 6                  19907885.508    19907884.762
  19907891.445                          41.800          39.700
 129854959.205 5 101185616.70742                  24710551.906
  24710560.707                          32.200          15.600
 126934988.124 5  98910458.67042  94789181.583 6  24154925.508
  24154933.711    24154935.359          33.300          17.400          41.300
 108500529.580 7  84545908.17546                  20646956.406
  20646959.270                          45.600          40.400
 124909829.981 5  97152112.739 5                  23334200.594    23334200.418
  23334206.457                          35.500          35.500
 102021005.273 7  79349770.511 6                  19071743.227    19071742.215
  19071749.906                          45.500          40.600
 108063243.229 7  84205213.66146                  20563745.938
  20563751.461                          47.100          39.100
 119323958.038 6                  89105566.988 7  22706593.484
                  22706596.750          41.500                          44.900
 122641027.315 7                  91582631.646 8  23337800.656
                  23337804.988          45.600                          50.800
 114084242.262 7                  85192788.902 7  21709507.492
                  21709508.871          43.100                          45.400
 137066292.042 5                 102354731.753 6  26082842.578
                  26082847.285          34.600                          37.700
 106006296.957 7                  79160563.066 8  20172327.891
                  20172332.555          46.800                          50.400
 123234370.105 7                  92025715.618 7  23450713.711
                  23450719.645          42.100                          45.400
 19  7  9 10  0 43.0000000  0 21G06G29R24R08G30R22G13G07R01G15G09G02
                                R07R23G05E12E04E11E19E14E09
 116971166.598 6  91146470.34045  87348697.672 8  22258883.195
  22258892.160    22258893.648          40.200          31.300          48.900
 120293625.264 6  93735450.85244                  22891146.617
  22891154.254                          40.300          26.000
 112921016.486 5                                  21116800.570    21116800.805
                                        35.400
 106696838.432 7  82986458.957 7                  19924873.484    19924872.574
  19924876.547                          42.700          45.100
 125167733.628 5  97533293.99043  93469414.025 7  23818615.641
  23818625.176    23818625.445          35.300          22.300          44.600
 117031168.093 6  91024256.791 6                  21923879.109    21923878.285
  21923884.594                          40.300          41.300
 115741604.245 6  90188280.19944                  22024888.570
  22024895.309                          41.700          29.800
 127484085.567 6  99338185.03943                  24259390.555
  24259397.602                          37.700          18.600
 106417990.063 6  82769590.061 6                  19907677.414    19907676.270
  19907683.113                          41.600          39.500
 129851117.761 5 101182623.39642                  24709820.648
  24709830.301                          33.300          16.900
 126938364.550 5  98913089.64943  94791702.944 6  24155568.031
  24155576.602    24155577.613          33.500          18.600          41.100
 108500306.607 7  84545734.43546                  20646914.000
  20646917.105                          45.500          40.400
 124913424.311 5  97154908.301 5                  23334871.086    23334871.754
  23334877.816                          35.400          35.800
 102021064.295 7  79349816.411 6                  19071754.242    19071753.512
  19071761.172                          45.400          40.300
 108062747.700 7  84204827.53546                  20563651.383
  20563657.340                          47.400          39.200
 119325918.286 6                  89107030.805 7  22706966.836
                  22706969.773          41.800                          44.900
 122641181.821 7                  91582747.022 8  23337829.922
                  23337834.379          45.900                          50.500
 114083564.363 7                  85192282.678 7  21709378.453
                  21709379.859          43.000                          45.500
 137068706.396 5                 102356534.669 6  26083301.977
                  26083306.352          34.300                          37.700
 106010068.825 7                  79163379.700 8  20173045.828
                  20173050.363          47.000                          50.800
 123232224.549 7                  92024113.427 7  23450305.250
                  23450311.391          42.200                          45.100
 19  7  9 10  0 44.0000000  0 21G06G29R24R08G30R22G13G07R01G15G09G02
                                R07R23G05E12E04E11E19E14E09
 116973550.178 6  91148327.67345  87350477.615 8  22259336.680
  22259345.539    22259347.035          40.300          31.100          48.800
 120291423.209 6  93733734.96744                  22890727.953
  22890734.941                          40.500          25.300
 112917700.767 5                                  21116181.070    21116180.391
                                        35.900
 106698762.628 7  82987955.557 7                  19925232.922    19925232.059
  19925236.156                          42.600          44.900
 125165847.873 5  97531824.56443  93468005.837 7  23818257.398
  23818266.121    23818266.301          35.500          21.800          44.400
 117035004.407 6  91027240.587 6                  21924597.969    21924596.887
  21924603.410                          40.700          41.000
 115738445.816 6  90185819.08744                  22024287.742
  22024293.836                          41.700          29.300
 127483590.194 6  99337798.99843                  24259295.969
  24259303.395                          37.700          19.000
 106416876.388 7  82768723.889 6                  19907468.641    19907468.082
  19907474.816                          42.000          39.200
 129847276.439 5 101179630.09942                  24709090.250
  24709098.934                          31.600          15.600
 126941741.166 5  98915720.75543  94794224.400 6  24156210.883
  24156219.074    24156220.336          33.200          19.000          41.300
 108500084.026 7  84545560.99346                  20646871.258
  20646874.617                          45.700          40.500
 124917018.589 5  97157703.876 5                  23335543.039    23335542.957
  23335549.211                          35.400          35.100
 102021124.136 7  79349862.958 6                  19071765.836    19071764.566
  19071772.250                          45.600          40.400
 108062252.450 7  84204441.62546                  20563557.203
  20563562.836                          47.600          39.600
 119327878.847 6                  89108494.853 7  22707340.102
                  22707342.957          41.800                          45.400
 122641336.628 7                  91582862.638 8  23337859.609
                  23337863.801          45.600                          50.600
 114082886.776 7                  85191776.688 7  21709249.477
                  21709250.953          42.600                          45.600
 137071120.803 5                 102358337.647 6  26083761.406
                  26083766.039          34.600                          37.700
 106013841.643 7                  79166197.066 8  20173763.766
                  20173768.297          47.000                          50.700
 123230079.207 6                  92022511.379 7  23449897.320
                  23449903.164          41.700                          45.200
 19  7  9 10  0 45.0000000  0 21G06G29R24R08G30R22G13G07R01G15G09G02
                                R07R23G05E12E04E11E19E14E09
 116975934.125 6  91150185.29945  87352257.819 8  22259790.750
  22259799.762    22259800.660          40.700          31.200          48.800
 120289221.753 6  93732019.54844                  22890309.313
  22890316.211                          40.400          27.000
 112914385.501 5                                  21115562.273    21115560.465
                                        35.900
 106700687.227 7  82989452.467 7                  19925592.414    19925591.668
  19925595.422                          42.400          45.000
 125163962.472 5  97530355.44043  93466597.902 7  23817897.055
  23817907.320    23817907.441          34.700          21.700          44.500
 117038841.137 6  91030224.723 6                  21925316.953    21925315.848
  21925321.988                          40.800          40.900
 115735287.784 7  90183358.28244                  22023686.281
  22023692.824                          42.200          28.900
 127483095.279 6  99337413.32943                  24259202.961
  24259209.707                          37.600          19.000
 106415763.283 7  82767858.131 6                  19907260.828    19907259.707
  19907266.648                          42.100          39.600
 129843435.205 5 101176636.97842                  24708359.852
  24708367.848                          32.300          16.300
 126945117.896 5  98918352.01943  94796746.027 6  24156853.039
  24156861.723    24156863.063          33.700          18.600          41.600
 108499861.875 7  84545387.89046                  20646829.578
  20646832.168                          46.000          40.600
 124920612.763 5  97160499.372 5                  23336214.992    23336214.559
  23336220.824                          35.400          35.400
 102021184.888 7  79349910.179 6                  19071776.992    19071776.098
  19071783.660                          45.400          40.500
 108061757.511 8  84204055.95746                  20563462.859
  20563469.016                          48.200          39.700
 119329839.737 7                  89109959.155 7  22707712.984
                  22707716.004          42.100                          45.400
 122641491.822 7                  91582978.523 8  23337889.102
                  23337893.332          45.500                          50.900
 114082209.617 7                  85191270.996 7  21709120.844
                  21709122.039          42.300                          45.500
 137073535.344 5                 102360140.706 6  26084220.445
                  26084225.480          34.800                          37.700
 106017615.480 7                  79169015.201 8  20174481.742
                  20174486.492          46.600                          50.200
 123227934.144 7                  92020909.548 7  23449488.836
                  23449495.121          42.100                          45.100
 19  7  9 10  0 46.0000000  0 21G06G29R24R08G30R22G13G07R01G15G09G02
                                R07R23G05E12E04E11E19E14E09
 116978318.342 6  91152043.12545  87354038.242 8  22260244.250
  22260253.219    22260254.281          40.500          30.500          49.000
 120287020.778 6  93730304.51244                  22889889.578
  22889896.875                          40.300          26.700
 112911070.643 6                                  21114942.406    21114940.480
                                        36.000
 106702612.155 7  82990949.637 7                  19925952.602    19925951.293
  19925954.910                          42.500          45.000
 125162077.365 5  97528886.52043  93465190.201 7  23817539.266
  23817549.000    23817548.531          35.400          21.500          44.100
 117042678.227 6  91033209.102 6                  21926035.477    21926034.605
  21926041.102                          40.800          41.100
 115732130.092 7  90180897.74344                  22023085.422
  22023092.004                          42.200          29.500
 127482600.933 6  99337028.12943                  24259108.633
  24259115.234                          37.700          18.600
 106414650.678 6  82766992.766 6                  19907052.523    19907051.613
  19907058.375                          41.800          39.900
 129839594.104 5 101173643.91942                  24707629.102
  24707637.121                          32.200          16.300
 126948494.797 5  98920983.34543  94799267.736 6  24157495.781
  24157504.113    24157505.551          33.800          18.300          41.400
 108499640.102 7  84545215.07746                  20646787.180
  20646790.383                          46.000          40.600
 124924206.893 5  97163294.789 5                  23336884.305    23336885.609
  23336891.883                          35.200          35.400
 102021246.444 7  79349958.067 6                  19071789.164    19071787.824
  19071795.078                          45.200          40.600
 108061262.845 7  84203670.50546                  20563368.742
  20563374.406                          47.900          39.400
 119331800.879 7                  89111423.632 7  22708086.313
                  22708089.336          42.100                          45.400
 122641647.320 7                  91583094.642 8  23337918.930
                  23337923.016          45.600                          50.900
 114081532.763 7                  85190765.551 7  21708991.867
                  21708993.250          42.100                          45.500
 137075949.929 5                 102361943.808 6  26084680.391
                  26084684.941          34.400                          37.400
 106021390.255 7                  79171834.037 8  20175200.023
                  20175204.738          47.100                          50.200
 123225789.292 6                  92019307.863 7  23449080.805
                  23449086.891          41.800                          45.200
 19  7  9 10  0 47.0000000  0 21G06G29R24R08G30R22G13G07R01G15G09G02
                                R07R23G05E12E04E11E19E14E09
 116980702.932 6  91153901.24345  87355818.957 8  22260698.094
  22260706.934    22260708.059          40.900          31.000          48.800
 120284820.356 6  93728589.89644                  22889471.789
  22889478.387                          40.400          27.000
 112907756.291 5                                  21114320.266    21114321.039
                                        35.400
 106704537.559 7  82992447.159 7                  19926310.961    19926310.590
  19926314.449                          42.500          45.000
 125160192.603 5  97527417.87943  93463782.753 7  23817180.148
  23817189.984    23817189.824          35.400          22.000          44.100
 117046515.772 6  91036193.857 6                  21926755.367    21926753.414
  21926759.926                          40.800          40.600
 115728972.795 7  90178437.52944                  22022484.539
  22022491.418                          42.300          29.400
 127482107.057 6  99336643.28343                  24259014.359
  24259021.191                          37.600          19.300
 106413538.684 7  82766127.894 6                  19906843.930    19906843.676
  19906850.633                          42.100          39.700
 129835753.078 5 101170650.90442                  24706897.469
  24706906.227                          32.200          16.300
 126951871.956 5  98923614.85243  94801789.628 6  24158139.063
  24158147.180    24158148.121          33.300          18.600          41.600
 108499418.791 7  84545042.62546                  20646744.594
  20646748.094                          46.000          40.500
 124927801.026 5  97166090.228 5                  23337557.234    23337557.035
  23337563.344                          35.500          35.700
 102021308.910 7  79350006.635 6                  19071800.508    19071799.426
  19071806.840                          45.300          40.600
 108060768.508 7  84203285.30946                  20563275.055
  20563280.672                          47.800          39.400
 119333762.372 7                  89112888.411 7  22708459.578
                  22708462.473          42.100                          45.300
 122641803.192 7                  91583211.046 8  23337948.359
                  23337952.605          45.700                          50.800
 114080856.294 7                  85190260.421 7  21708863.016
                  21708864.648          42.600                          45.700
 137078364.648 5                 102363747.022 6  26085139.406
                  26085144.555          34.500                          37.900
 106025166.095 7                  79174653.643 8  20175918.438
                  20175923.207          47.000                          50.500
 123223644.710 7                  92017706.406 7  23448672.461
                  23448678.715          42.200                          45.300
 19  7  9 10  0 48.0000000  0 21G06G29R24R08G30R22G13G07R01G15G09G02
                                R07R23G05E12E04E11E19E14E09
 116983087.831 6  91155759.60745  87357599.889 8  22261152.094
  22261160.953    22261161.875          41.000          30.200          48.400
 120282620.440 6  93726875.67744                  22889052.789
  22889059.754                          40.800          25.400
 112904442.418 5                                  21113700.742    21113701.352
                                        35.600
 106706463.316 7  82993944.983 7                  19926671.523    19926669.793
  19926674.121                          42.700          45.000
 125158308.172 5  97525949.48343  93462375.555 7  23816821.313
  23816831.129    23816831.082          35.000          22.200          44.000
 117050353.722 6  91039178.934 6                  21927473.961    21927472.762
  21927478.996                          40.900          40.800
 115725815.837 7  90175977.54844                  22021883.969
  22021890.473                          42.400          29.600
 127481613.654 6  99336258.77743                  24258920.727
  24258927.414                          37.700          19.300
 106412427.227 7  82765263.424 6                  19906637.500    19906635.488
  19906642.219                          42.300          39.700
 129831912.048 5 101167657.89742                  24706166.078
  24706175.102                          32.000          15.600
 126955249.250 5  98926246.52842  94804311.620 6  24158781.398
  24158789.715    24158790.859          33.600          17.800          41.300
 108499197.877 7  84544870.48846                  20646702.711
  20646706.324                          46.200          40.900
 124931395.112 5  97168885.619 5                  23338229.555    23338228.699
  23338234.707                          35.100          35.300
 102021372.201 7  79350055.885 6                  19071811.984    19071811.207
  19071819.016                          45.600          40.300
 108060274.463 8  84202900.33846                  20563180.875
  20563186.695                          48.000          39.400
 119335724.180 6                  89114353.395 7  22708832.891
                  22708835.684          41.800                          45.500
 122641959.409 7                  91583327.691 8  23337978.055
                  23337982.387          45.600                          50.500
 114080180.200 7                  85189755.547 7  21708734.461
                  21708735.938          42.700                          45.700
 137080779.449 5                 102365550.258 6  26085599.125
                  26085604.063          34.700                          37.200
 106028942.882 7                  79177473.976 8  20176637.313
                  20176642.051          46.700                          50.500
 123221500.392 7                  92016105.121 7  23448264.383
                  23448270.609          42.200                          45.200
 19  7  9 10  0 49.0000000  0 21G06G29R24R08G30R22G13G07R01G15G09G02
                                R07R23G05E12E04E11E19E14E09
 116985473.078 6  91157618.23445  87359381.073 8  22261605.867
  22261614.586    22261615.684          41.100          30.900          48.200
 120280421.099 6  93725161.91344                  22888634.211
  22888641.434                          40.500          26.500
 112901128.986 5                                  21113082.453    21113081.797
                                        35.600
 106708389.455 7  82995443.091 7                  19927030.477    19927029.871
  19927033.637                          42.600          44.700
 125156424.090 5  97524481.36043  93460968.594 7  23816463.305
  23816472.699    23816472.316          35.200          21.700          44.200
 117054192.039 6  91042164.310 6                  21928192.578    21928191.684
  21928197.961                          40.900          40.400
 115722659.273 7  90173517.89044                  22021283.586
  22021289.551                          42.200          28.800
 127481120.720 6  99335874.66543                  24258825.664
  24258833.117                          37.600          20.100
 106411316.320 7  82764399.394 6                  19906428.727    19906427.957
  19906434.605                          42.300          39.700
 129828071.302 5 101164665.09442                  24705435.648
  24705443.973                          32.000          15.600
 126958626.662 5  98928878.26443  94806833.747 6  24159424.156
  24159432.703    24159433.414          33.600          18.300          41.500
 108498977.365 7  84544698.65846                  20646660.742
  20646663.969                          45.800          40.700
 124934989.108 5  97171680.923 5                  23338900.273    23338900.215
  23338906.258                          34.800          35.100
 102021436.362 7  79350105.779 6                  19071823.977    19071823.199
  19071830.465                          45.400          39.900
 108059780.701 7  84202515.59446                  20563086.906
  20563092.762                          47.800          39.200
 119337686.300 7                  89115818.600 7  22709206.195
                  22709208.988          42.100                          45.800
 122642115.956 7                  91583444.593 8  23338007.805
                  23338012.172          45.800                          50.500
 114079504.457 7                  85189250.922 7  21708606.055
                  21708607.270          42.700                          45.500
 137083194.347 5                 102367353.585 6  26086058.820
                  26086063.645          34.700                          37.700
 106032720.675 7                  79180295.058 8  20177356.219
                  20177360.863          47.000                          50.200
 123219356.306 7                  92014504.019 7  23447856.531
                  23447862.527          42.000                          45.000
 19  7  9 10  0 50.0000000  0 21G06G29R24R08G30R22G13G07R01G15G09G02
                                R07R23G05E12E04E11E19E14E09
 116987858.626 6  91159477.10845  87361162.494 8  22262059.516
  22262068.500    22262069.707          41.000          30.700          48.200
 120278222.276 6  93723448.53944                  22888215.406
  22888222.328                          40.400          24.600
 112897816.001 6                                  21112462.148    21112461.563
                                        36.100
 106710315.964 7  82996941.483 7                  19927390.227    19927389.434
  19927393.750                          43.000          44.200
 125154540.268 6  97523013.44043  93459561.861 7  23816104.125
  23816114.066    23816113.750          36.300          21.700          43.900
 117058030.766 6  91045149.971 6                  21928912.398    21928910.727
  21928916.902                          41.100          39.900
 115719503.019 7  90171058.46444                  22020682.586
  22020689.227                          42.100          29.700
 127480628.274 6  99335490.97243                  24258732.484
  24258739.445                          37.800          21.100
 106410205.953 7  82763535.782 6                  19906220.008    19906220.199
  19906226.789                          42.600          39.900
 129824230.477 5 101161672.30242                  24704703.750
  24704713.496                          32.000          15.600
 126962004.332 5  98931510.23843  94809355.985 6  24160066.813
  24160075.227    24160076.355          33.400          18.600          41.700
 108498757.265 7  84544527.15046                  20646619.094
  20646622.250                          45.500          40.800
 124938583.058 5  97174476.229 5                  23339571.758    23339571.418
  23339577.703                          34.800          35.400
 102021501.373 7  79350156.361 6                  19071836.109    19071835.098
  19071842.582                          44.900          39.900
 108059287.255 7  84202131.08946                  20562992.836
  20562998.738                          47.900          39.500
 119339648.700 7                  89117284.043 7  22709579.648
                  22709582.586          42.100                          45.700
 122642272.823 7                  91583561.733 8  23338037.711
                  23338041.992          46.000                          50.700
 114078829.083 7                  85188746.581 7  21708477.453
                  21708478.781          42.900                          45.800
 137085609.300 5                 102369156.981 6  26086518.227
                  26086523.059          34.700                          37.300
 106036499.425 7                  79183116.856 8  20178075.172
                  20178079.836          47.100                          50.100
 123217212.459 6                  92012903.087 7  23447448.492
                  23447454.633          41.700                          44.900
 19  7  9 10  0 51.0000000  0 21G06G29R24R08G30R22G13G07R01G15G09G02
                                R07R23G05E12E04E11E19E14E09
 116990244.527 6  91161336.26245  87362944.180 8  22262513.664
  22262522.527    22262523.613          41.100          31.100          48.400
 120276023.961 6  93721735.56744                  22887797.195
  22887804.125                          40.700          24.700
 112894503.473 5                                  21111843.008    21111842.516
                                        35.900
 106712242.845 7  82998440.165 7                  19927749.641    19927749.457
  19927753.484                          43.300          44.400
 125152656.858 6  97521545.86343  93458155.397 7  23815745.828
  23815755.953    23815755.320          36.200          21.800          43.700
 117061869.889 6  91048135.971 6                  21929632.234    21929630.258
  21929636.359                          40.900          40.100
 115716347.171 7  90168599.36944                  22020082.219
  22020088.555                          42.200          29.400
 127480136.337 6  99335107.69943                  24258638.922
  24258646.020                          37.300          20.900
 106409096.170 7  82762672.629 6                  19906013.617    19906012.449
  19906019.188                          42.500          39.700
 129820389.885 5 101158679.60942                  24703972.594
  24703982.367                          31.900          15.600
 126965382.137 5  98934142.31243  94811878.369 6  24160709.883
  24160718.082    24160719.133          33.700          18.300          41.300
 108498537.585 7  84544355.97546                  20646577.180
  20646580.441                          45.300          40.400
 124942177.001 5  97177271.494 5                  23340244.672    23340242.855
  23340248.813                          34.700          35.100
 102021567.272 7  79350207.604 6                  19071848.758    19071847.723
  19071854.871                          44.900          39.500
 108058794.108 7  84201746.82046                  20562899.055
  20562905.035                          47.400          39.500
 119341611.436 7                  89118749.718 7  22709953.016
                  22709956.051          42.400                          45.500
 122642430.057 7                  91583679.159 8  23338067.703
                  23338071.969          46.300                          51.000
 114078154.061 7                  85188242.513 7  21708348.984
                  21708350.465          42.500                          45.700
 137088024.407 5                 102370960.460 6  26086978.055
                  26086982.859          34.600                          36.900
 106040279.220 7                  79185939.414 8  20178794.484
                  20178799.230          47.400                          50.300
 123215068.879 7                  92011302.367 7  23447040.656
                  23447046.637          42.000                          45.300
 19  7  9 10  0 52.0000000  0 21G06G29R24R08G30R22G13G07R01G15G09G02
                                R07R23G05E12E04E11E19E14E09
 116992630.808 6  91163195.69545  87364726.114 8  22262967.367
  22262976.699    22262977.691          41.600          30.700          48.600
 120273826.194 6  93720023.01744                  22887379.500
  22887386.031                          40.600          26.100
 112891191.500 5                                  21111223.500    21111223.195
                                        35.900
 106714170.133 7  82999939.176 7                  19928109.977    19928109.465
  19928113.336                          43.400          44.300
 125150773.751 6  97520078.49343  93456749.183 7  23815388.656
  23815397.313    23815396.906          36.000          21.300          43.900
 117065709.402 6  91051122.239 6                  21930350.234    21930349.434
  21930355.535                          41.200          40.000
 115713191.714 7  90166140.57644                  22019482.188
  22019488.449                          42.400          29.400
 127479644.907 6  99334724.71243                  24258545.539
  24258552.355                          37.900          20.100
 106407986.929 7  82761809.865 6                  19905805.305    19905804.793
  19905811.820                          42.200          39.700
 129816549.341 5 101155687.02742                  24703241.805
  24703251.664                          31.800          16.300
 126968760.062 5  98936774.43043  94814400.876 6  24161352.766
  24161360.973    24161361.773          33.200          18.600          41.300
 108498318.326 7  84544185.12246                  20646535.797
  20646538.672                          45.500          40.300
 124945770.850 5  97180066.719 5                  23340915.508    23340913.973
  23340920.227                          35.000          35.100
 102021634.044 7  79350259.543 6                  19071860.766    19071860.105
  19071867.605                          45.000          39.700
 108058301.271 7  84201362.79046                  20562805.328
  20562811.398                          47.500          39.300
 119343574.491 6                  89120215.649 7  22710326.773
                  22710329.594          41.800                          45.300
 122642587.664 7                  91583796.842 8  23338097.422
                  23338102.008          46.400                          50.900
 114077479.413 7                  85187738.706 7  21708220.672
                  21708222.004          42.700                          46.100
 137090439.590 5                 102372764.029 6  26087437.656
                  26087442.270          34.600                          36.900
 106044059.987 7                  79188762.704 8  20179514.031
                  20179518.711          47.200                          50.300
 123212925.550 6                  92009701.842 7  23446632.633
                  23446638.703          41.900                          45.500
 19  7  9 10  0 53.0000000  0 21G06G29R24R08G30R22G13G07R01G15G09G02
                                R07R23G05E12E04E11E19E14E09
 116995017.311 6  91165055.31145  87366508.261 8  22263421.750
  22263430.934    22263431.766          40.900          30.500          48.300
 120271628.957 6  93718310.89044                  22886960.656
  22886967.922                          40.700          25.600
 112887879.947 6                                  21110604.500    21110603.582
                                        36.200
 106716097.813 7  83001438.478 7                  19928469.219    19928469.316
  19928473.328                          43.300          44.400
 125148890.926 5  97518611.34643  93455343.189 7  23815029.539
  23815038.883    23815038.594          35.700          21.300          43.700
 117069549.287 6  91054108.812 6                  21931069.570    21931068.582
  21931074.855                          41.300          40.100
 115710036.554 7  90163682.00544                  22018881.539
  22018887.910                          42.400          28.900
 127479153.938 6  99334342.12743                  24258451.961
  24258458.918                          37.900          21.500
 106406878.207 7  82760947.529 6                  19905598.672    19905597.340
  19905604.371                          42.100          39.700
 129812708.903 5 101152694.39442                  24702511.031
  24702520.926                          31.600          16.300
 126972138.192 5  98939406.75943  94816923.510 6  24161995.672
  24162004.102    24162004.551          33.700          19.000          41.700
 108498099.433 7  84544014.55546                  20646493.422
  20646497.047                          45.400          40.500
 124949364.656 5  97182861.897 5                  23341585.117    23341585.246
  23341591.484                          34.700          35.100
 102021701.650 7  79350312.112 6                  19071873.977    19071872.590
  19071880.098                          45.200          39.800
 108057808.711 7  84200978.97946                  20562711.328
  20562717.492                          47.000          39.400
 119345537.837 6                  89121681.757 7  22710700.383
                  22710703.230          41.600                          45.600
 122642745.563 7                  91583914.759 8  23338127.594
                  23338131.969          45.900                          50.700
 114076805.118 7                  85187235.170 7  21708092.211
                  21708093.543          42.600                          45.900
 137092854.828 5                 102374567.596 6  26087897.000
                  26087901.719          34.400                          37.000
 106047841.697 7                  79191586.721 8  20180233.570
                  20180238.313          46.900                          50.200
 123210782.450 6                  92008101.462 7  23446224.742
                  23446230.789          41.800                          45.500
 19  7  9 10  0 54.0000000  0 21G06G29R24R08G30R22G13G07R01G15G09G02
                                R07R23G05E12E04E11E19E14E09
 116997404.230 6  91166915.25345  87368290.695 8  22263876.359
  22263885.324    22263886.039          40.800          30.900          48.300
 120269432.285 6  93716599.19844                  22886543.438
  22886549.883                          40.700          27.000
 112884568.896 5                                  21109983.719    21109984.516
                                        35.700
 106718025.944 7  83002938.133 7                  19928830.242    19928829.473
  19928833.289                          43.300          45.000
 125147008.499 5  97517144.55343  93453937.462 7  23814671.813
  23814680.977    23814680.230          35.700          21.800          43.500
 117073389.598 6  91057095.737 6                  21931789.250    21931787.531
  21931794.328                          41.100          40.500
 115706881.833 6  90161223.78644                  22018281.078
  22018287.527                          41.700          29.400
 127478663.492 6  99333960.01843                  24258359.078
  24258365.902                          37.900          21.100
 106405770.085 6  82760085.644 6                  19905391.039    19905390.035
  19905397.016                          41.800          39.700
 129808868.526 5 101149701.90442                  24701780.273
  24701790.117                          31.900          16.300
 126975516.572 5  98942039.27643  94819446.276 6  24162637.656
  24162646.676    24162647.465          33.800          18.600          41.800
 108497881.019 7  84543844.36146                  20646452.883
  20646455.668                          45.400          40.200
 124952958.379 5  97185657.085 5                  23342257.000    23342256.191
  23342262.875                          34.900          34.900
 102021770.187 7  79350365.419 6                  19071887.297    19071885.512
  19071893.051                          44.600          39.800
 108057316.481 7  84200595.42346                  20562618.117
  20562623.723                          47.200          39.400
 119347501.533 7                  89123148.166 7  22711073.836
                  22711076.910          42.000                          45.500
 122642903.848 7                  91584032.962 8  23338157.703
                  23338162.043          46.100                          50.300
 114076131.227 7                  85186731.954 7  21707963.969
                  21707965.414          42.600                          46.000
 137095270.216 5                 102376371.268 6  26088356.484
                  26088361.695          34.900                          37.300
 106051624.462 7                  79194411.519 8  20180953.438
                  20180958.102          47.000                          50.100
 123208639.660 6                  92006501.313 7  23445817.172
                  23445823.086          41.500                          45.500
 19  7  9 10  0 55.0000000  0 21G06G29R24R08G30R22G13G07R01G15G09G02
                                R07R23G05E12E04E11E19E14E09
 116999791.434 6  91168775.40845  87370073.357 8  22264329.992
  22264339.105    22264340.359          40.800          30.700          48.400
 120267236.089 6  93714887.88844                  22886125.820
  22886132.121                          40.900          26.200
 112881258.277 5                                  21109364.977    21109364.836
                                        35.400
 106719954.433 7  83004438.072 7                  19929190.039    19929189.691
  19929193.633                          43.200          45.000
 125145126.368 5  97515677.95843  93452531.980 7  23814312.930
  23814322.633    23814322.105          35.500          21.300          43.700
 117077230.293 6  91060082.925 6                  21932509.781    21932507.617
  21932513.938                          41.100          40.400
 115703727.451 7  90158765.82244                  22017681.266
  22017687.301                          42.100          29.100
 127478173.528 6  99333578.16843                  24258266.320
  24258272.277                          37.300          20.900
 106404662.457 7  82759224.175 6                  19905183.500    19905182.941
  19905189.855                          42.300          39.200
 129805028.271 5 101146709.42342                  24701049.555
  24701059.363                          31.900          16.300
 126978895.039 5  98944671.82643  94821969.183 6  24163280.297
  24163289.453    24163290.336          33.100          18.300          41.800
 108497662.986 7  84543674.46446                  20646411.125
  20646414.219                          45.400          40.400
 124956552.093 5  97188452.167 5                  23342928.813    23342927.512
  23342934.215                          34.700          34.900
 102021839.538 7  79350419.355 6                  19071900.047    19071898.402
  19071905.887                          44.900          39.800
 108056824.519 7  84200212.07546                  20562524.195
  20562529.941                          47.400          39.800
 119349465.513 7                  89124614.759 7  22711447.500
                  22711450.676          42.700                          45.400
 122643062.465 7                  91584151.393 8  23338187.797
                  23338192.301          45.700                          50.300
 114075457.671 7                  85186228.979 7  21707835.813
                  21707837.238          42.800                          45.700
 137097685.678 5                 102378175.034 6  26088816.359
                  26088821.230          34.700                          37.500
 106055408.191 7                  79197237.019 8  20181673.492
                  20181678.215          46.700                          49.800
 123206497.084 6                  92004901.331 7  23445409.305
                  23445415.336          41.600                          45.200
 19  7  9 10  0 56.0000000  0 21G06G29R24R08G30R22G13G07R01G15G09G02
                                R07R23G05E12E04E11E19E14E09
 117002179.048 6  91170635.88945  87371856.305 8  22264784.445
  22264793.832    22264794.594          40.200          31.200          48.400
 120265040.480 6  93713177.02044                  22885708.039
  22885713.582                          41.000          24.700
 112877948.184 5                                  21108746.734    21108746.125
                                        35.600
 106721883.335 7  83005938.335 7                  19929550.734    19929549.941
  19929553.805                          43.300          45.200
 125143244.582 5  97514211.65343  93451126.760 7  23813955.297
  23813964.250    23813963.992          34.900          21.800          43.300
 117081071.442 6  91063070.503 6                  21933227.969    21933226.934
  21933233.328                          40.800          40.800
 115700573.457 6  90156308.17944                  22017080.445
  22017086.871                          41.800          29.300
 127477684.076 6  99333196.82643                  24258172.734
  24258179.168                          36.700          21.500
 106403555.427 6  82758363.136 6                  19904977.086    19904975.848
  19904983.027                          41.400          39.600
 129801188.205 5 101143717.19242                  24700319.375
  24700328.547                          32.400          16.300
 126982273.742 5  98947304.58343  94824492.223 6  24163924.273
  24163932.441    24163933.207          33.100          19.300          41.600
 108497445.396 7  84543504.91846                  20646369.133
  20646372.586                          45.600          40.500
 124960145.779 5  97191247.217 5                  23343600.297    23343598.691
  23343605.582                          35.100          34.800
 102021909.829 7  79350474.042 6                  19071913.094    19071911.449
  19071918.938                          45.000          39.800
 108056332.883 7  84199828.98146                  20562430.453
  20562436.473                          47.800          40.100
 119351429.829 7                  89126081.633 7  22711821.648
                  22711824.320          42.600                          45.500
 122643221.439 7                  91584270.123 8  23338218.109
                  23338222.566          45.800                          50.600
 114074784.522 7                  85185726.293 7  21707707.648
                  21707709.195          42.700                          45.500
 137100101.265 5                 102379978.854 6  26089275.961
                  26089280.641          34.700                          37.500
 106059192.932 7                  79200063.291 8  20182393.719
                  20182398.391          46.900                          49.900
 123204354.786 6                  92003301.571 7  23445001.766
                  23445007.613          41.600                          45.300
 19  7  9 10  0 57.0000000  0 21G06G29R24R08G30R22G13G07R01G15G09G02
                                R07R23G05E12E04E11E19E14E09
 117004566.902 6  91172496.54745  87373639.442 8  22265239.484
  22265248.500    22265248.957          39.900          31.600          48.300
 120262845.348 6  93711466.52844                  22885289.781
  22885296.117                          40.800          25.300
 112874638.501 5                                  21108128.789    21108126.887
                                        35.300
 106723812.583 7  83007438.858 7                  19929910.820    19929910.402
  19929914.137                          43.000          45.400
 125141363.100 5  97512745.54043  93449721.746 7  23813597.125
  23813606.391    23813605.840          35.100          21.100          43.700
 117084912.894 6  91066058.298 6                  21933947.367    21933946.848
  21933952.973                          41.000          40.800
 115697419.767 6  90153850.74344                  22016480.836
  22016486.785                          41.800          29.300
 127477195.073 6  99332815.77843                  24258079.367
  24258086.223                          37.100          20.900
 106402448.875 6  82757502.490 6                  19904770.328    19904768.902
  19904775.723                          41.700          39.800
 129797348.160 5 101140724.93642                  24699588.531
  24699597.715                          32.300          15.600
 126985652.498 5  98949937.39343  94827015.363 7  24164567.398
  24164575.414    24164576.367          33.100          19.000          42.200
 108497228.165 7  84543335.64646                  20646328.094
  20646330.969                          45.800          40.300
 124963739.382 5  97194042.247 5                  23344270.781    23344270.488
  23344276.914                          35.400          35.100
 102021980.882 7  79350529.298 6                  19071926.195    19071924.621
  19071932.316                          44.900          40.100
 108055841.501 7  84199446.08546                  20562337.188
  20562343.445                          47.900          39.900
 119353394.397 7                  89127548.682 7  22712195.461
                  22712198.344          42.400                          45.500
 122643380.696 7                  91584389.052 8  23338248.320
                  23338252.777          45.700                          50.900
 114074111.667 7                  85185223.831 7  21707579.570
                  21707581.023          42.900                          45.800
 137102516.847 5                 102381782.749 6  26089735.914
                  26089740.453          35.100                          37.300
 106062978.596 7                  79202890.258 8  20183114.063
                  20183118.668          46.800                          50.200
 123202212.680 6                  92001701.945 7  23444594.078
                  23444600.008          41.900                          45.400
 19  7  9 10  0 58.0000000  0 21G06G29R24R08G30R22G13G07R01G15G09G02
                                R07R23G05E12E04E11E19E14E09
 117006955.100 6  91174357.48045  87375422.852 8  22265692.469
  22265702.473    22265703.465          39.600          30.500          48.200
 120260650.794 6  93709756.48744                  22884872.633
  22884878.586                          40.600          26.200
 112871329.310 5                                  21107509.664    21107508.418
                                        35.600
 106725742.241 7  83008939.700 7                  19930270.719    19930270.371
  19930274.336                          42.900          45.300
 125139481.944 5  97511279.69843  93448316.993 7  23813239.141
  23813248.367    23813247.902          35.800          21.300          43.800
 117088754.828 6  91069046.438 6                  21934668.078    21934666.430
  21934672.430                          40.800          40.700
 115694266.485 6  90151393.65244                  22015880.070
  22015886.879                          41.700          29.300
 127476706.612 6  99332435.16143                  24257986.414
  24257993.273                          36.200          21.700
 106401342.934 6  82756642.307 6                  19904563.156    19904562.105
  19904568.961                          41.600          39.900
 129793508.171 5 101137732.79742                  24698858.508
  24698867.008                          33.100          15.600
 126989031.526 5  98952570.38343  94829538.626 6  24165209.289
  24165218.504    24165219.273          33.100          18.600          41.800
 108497011.383 7  84543166.72746                  20646286.766
  20646290.133                          45.800          40.900
 124967332.908 5  97196837.191 5                  23344941.922    23344941.770
  23344947.891                          35.500          34.500
 102022052.802 7  79350585.247 6                  19071939.781    19071938.324
  19071946.027                          45.000          40.000
 108055350.441 7  84199063.44646                  20562243.672
  20562249.496                          47.900          39.500
 119355359.329 7                  89129015.980 7  22712569.219
                  22712572.309          42.100                          45.300
 122643540.340 7                  91584508.264 8  23338278.766
                  23338283.148          45.700                          50.800
 114073439.200 7                  85184721.668 7  21707451.742
                  21707453.164          43.500                          45.800
 137104932.582 5                 102383586.718 6  26090195.383
                  26090200.340          34.700                          37.400
 106066765.288 7                  79205717.973 8  20183834.695
                  20183839.301          46.600                          50.100
 123200070.829 6                  92000102.530 7  23444186.484
                  23444192.426          41.900                          45.300
 19  7  9 10  0 59.0000000  0 21G06G29R24R08G30R22G13G07R01G15G09G02
                                R07R23G05E12E04E11E19E14E09
 117009343.590 6  91176218.63845  87377206.445 8  22266147.789
  22266156.953    22266157.797          40.200          30.600          48.100
 120258456.651 6  93708046.76144                  22884454.688
  22884461.598                          40.500          25.800
 112868020.476 5                                  21106890.719    21106889.191
                                        35.400
 106727672.193 7  83010440.768 7                  19930630.633    19930631.059
  19930634.730                          42.800          45.000
 125137601.008 5  97509814.02143  93446912.430 7  23812881.641
  23812890.840    23812890.031          35.800          20.900          43.900
 117092597.022 6  91072034.837 6                  21935388.156    21935386.297
  21935392.340                          41.300          40.700
 115691113.485 7  90148936.77544                  22015280.508
  22015286.676                          42.000          29.800
 127476218.547 6  99332054.84443                  24257893.258
  24257900.199                          36.000          21.100
 106400237.448 6  82755782.525 6                  19904357.195    19904355.090
  19904362.238                          41.400          40.100
 129789668.246 5 101134740.68842                  24698127.578
  24698136.012                          32.900          15.600
 126992410.624 5  98955203.45743  94832061.967 7  24165852.734
  24165861.582    24165862.137          33.400          18.300          42.200
 108496794.911 7  84542998.04446                  20646245.602
  20646249.262                          45.600          40.800
 124970926.343 5  97199632.094 5                  23345614.438    23345613.488
  23345619.004                          35.600          34.800
 102022125.513 7  79350641.789 6                  19071952.305    19071951.738
  19071959.297                          45.100          39.900
 108054859.593 7  84198680.96946                  20562150.609
  20562156.469                          47.200          39.700
 119357324.438 7                  89130483.465 7  22712943.148
                  22712946.176          42.300                          45.700
 122643700.250 7                  91584627.670 8  23338309.430
                  23338313.531          45.700                          50.800
 114072767.005 7                  85184219.712 7  21707323.828
                  21707325.359          43.600                          45.900
 137107348.299 5                 102385390.635 6  26090655.438
                  26090659.863          34.900                          37.400
 106070552.897 7                  79208546.369 8  20184555.344
                  20184560.043          46.300                          50.400
 123197929.152 6                  91998503.226 7  23443778.688
                  23443784.801          41.800                          44.900
 19  7  9 10  1  0.0000000  0 21G06G29R24R08G30R22G13G07R01G15G09G02
                                R07R23G05E12E04E11E19E14E09
 117011732.476 6  91178080.11145  87378990.355 8  22266602.117
  22266611.547    22266612.352          39.800          31.200          48.200
 120256263.144 6  93706337.53644                  22884037.125
  22884043.969                          40.100          26.300
 112864712.207 5                                  21106272.359    21106271.043
                                        35.400
 106729602.607 7  83011942.208 7                  19930991.695    19930991.629
  19930995.066                          42.900          45.500
 125135720.555 5  97508348.74743  93445508.154 7  23812523.648
  23812532.785    23812532.563          35.700          21.500          44.100
 117096439.717 6  91075023.586 6                  21936107.484    21936106.285
  21936112.184                          41.300          40.600
 115687960.929 7  90146480.22044                  22014680.352
  22014686.754                          42.200          29.500
 127475730.981 5  99331674.95743                  24257800.125
  24257807.625                          35.800          21.500
 106399132.616 6  82754923.185 6                  19904149.648    19904148.504
  19904155.824                          41.500          39.800
 129785828.484 5 101131748.64542                  24697396.531
  24697405.363                          32.500          14.800
 126995789.958 5  98957836.66643  94834585.516 7  24166496.359
  24166504.340    24166505.426          32.500          19.300          42.100
 108496578.952 7  84542829.77146                  20646204.320
  20646207.461                          45.600          40.600
 124974519.718 5  97202426.950 5                  23346285.945    23346284.738
  23346290.180                          35.300          35.100
 102022199.174 7  79350699.063 6                  19071966.711    19071965.559
  19071972.914                          45.300          40.100
 108054369.140 7  84198298.79746                  20562057.148
  20562063.164                          47.100          39.600
 119359289.993 7                  89131951.230 7  22713317.305
                  22713320.258          42.100                          45.300
 122643860.576 7                  91584747.395 8  23338339.711
                  23338344.160          46.000                          50.700
 114072095.285 7                  85183718.103 7  21707196.148
                  21707197.480          43.500                          45.900
 137109764.234 5                 102387194.734 6  26091115.109
                  26091119.621          35.000                          37.700
 106074341.561 7                  79211375.570 8  20185276.188
                  20185280.977          46.800                          50.500
 123195787.843 7                  91996904.192 7  23443371.117
                  23443377.211          42.300                          45.300
 19  7  9 10  1  1.0000000  0 21G06G29R24R08G30R22G13G07R01G15G09G02
                                R07R23G05E12E04E11E19E14E09
 117014121.711 6  91179941.84045  87380774.518 8  22267056.820
  22267066.293    22267066.938          39.000          31.000          48.300
 120254070.198 6  93704628.75344                  22883620.008
  22883626.398                          40.400          26.800
 112861404.387 5                                  21105651.578    21105652.188
                                        35.400
 106731533.421 7  83013443.942 7                  19931353.172    19931352.121
  19931355.898                          43.200          45.100
 125133840.452 5  97506883.73743  93444104.179 7  23812165.828
  23812175.172    23812174.832          35.400          21.100          43.800
 117100282.807 6  91078012.655 6                  21936827.875    21936825.945
  21936831.914                          40.900          40.400
 115684808.778 6  90144024.00545                  22014081.266
  22014086.703                          41.800          30.200
 127475243.990 5  99331295.46143                  24257707.281
  24257714.938                          35.500          22.000
 106398028.359 6  82754064.318 6                  19903942.703    19903941.934
  19903948.930                          41.700          40.200
 129781988.871 5 101128756.74642                  24696665.406
  24696674.879                          32.400          15.600
 126999169.489 5  98960470.09943  94837109.186 7  24167139.594
  24167147.645    24167148.352          32.500          19.900          42.000
 108496363.420 7  84542661.81846                  20646163.766
  20646166.766                          45.500          40.600
 124978113.141 5  97205221.822 5                  23346957.625    23346955.785
  23346961.746                          35.400          34.900
 102022273.721 7  79350757.043 6                  19071980.789    19071979.590
  19071987.199                          45.400          40.200
 108053878.994 7  84197916.86446                  20561963.445
  20561969.531                          46.900          39.400
 119361255.877 7                  89133419.260 7  22713691.297
                  22713694.324          42.100                          45.500
 122644021.256 7                  91584867.390 8  23338370.625
                  23338374.734          46.000                          50.300
 114071423.971 7                  85183216.781 7  21707068.148
                  21707069.723          43.400                          45.700
 137112180.265 5                 102388998.927 6  26091575.000
                  26091579.520          35.000                          37.200
 106078131.227 7                  79214205.524 8  20185997.523
                  20186002.156          46.900                          50.400
 123193646.806 6                  91995305.362 7  23442963.984
                  23442969.941          41.900                          45.000
 19  7  9 10  1  2.0000000  0 21G06G29R24R08G30R22G13G07R01G15G09G02
                                R07R23G05E12E04E11E19E14E09
 117016511.215 6  91181803.79845  87382558.898 8  22267511.688
  22267520.824    22267521.453          39.400          30.500          48.200
 120251877.738 6  93702920.35044                  22883202.750
  22883209.125                          40.800          25.100
 112858096.988 5                                  21105035.438    21105033.418
                                        35.400
 106733464.576 7  83014945.954 7                  19931712.711    19931712.738
  19931716.371                          43.400          44.900
 125131960.591 5  97505418.92243  93442700.387 7  23811807.156
  23811817.484    23811817.227          35.800          20.900          44.200
 117104126.262 6  91081002.014 6                  21937547.023    21937545.703
  21937552.023                          40.700          40.400
 115681656.937 6  90141568.03444                  22013481.367
  22013487.457                          41.700          29.800
 127474757.479 5  99330916.35143                  24257615.695
  24257622.469                          35.900          22.300
 106396924.598 6  82753205.825 6                  19903735.469    19903735.590
  19903742.422                          41.700          40.200
 129778149.280 5 101125764.83242                  24695934.836
  24695944.141                          31.800          16.300
 127002549.162 5  98963103.60943  94839632.949 7  24167782.688
  24167790.684    24167791.613          32.400          20.100          42.100
 108496148.287 7  84542494.18246                  20646122.445
  20646125.809                          45.300          40.600
 124981706.445 5  97208016.615 5                  23347626.625    23347626.871
  23347633.016                          35.600          35.000
 102022349.096 7  79350815.689 6                  19071994.242    19071993.816
  19072001.309                          45.400          40.300
 108053389.092 7  84197535.12146                  20561870.680
  20561876.234                          46.700          39.500
 119363222.035 7                  89134887.479 7  22714065.539
                  22714068.543          42.100                          45.000
 122644182.250 7                  91584987.622 8  23338401.211
                  23338405.328          45.900                          50.200
 114070752.943 7                  85182715.702 7  21706940.688
                  21706942.047          42.700                          45.700
 137114596.383 5                 102390803.143 6  26092034.789
                  26092039.266          35.000                          37.300
 106081921.857 7                  79217036.190 8  20186718.875
                  20186723.559          46.700                          50.300
 123191505.943 7                  91993706.675 7  23442556.852
                  23442562.422          42.100                          45.300
 19  7  9 10  1  3.0000000  0 21G06G29R24R08G30R22G13G07R01G15G09G02
                                R07R23G05E12E04E11E19E14E09
 117018901.067 6  91183666.02545  87384343.530 8  22267966.391
  22267976.105    22267976.254          39.400          30.900          48.200
 120249685.788 6  93701212.31844                  22882786.242
  22882792.133                          40.600          25.800
 112854790.060 5                                  21104417.289    21104415.410
                                        35.400
 106735396.132 7  83016448.282 7                  19932074.148    19932073.145
  19932077.074                          43.300          45.100
 125130081.078 6  97503954.36843  93441296.864 7  23811450.602
  23811459.855    23811459.813          36.200          20.600          44.200
 117107970.112 6  91083991.675 6                  21938267.875    21938265.992
  21938272.262                          40.600          40.600
 115678505.464 7  90139112.33744                  22012881.023
  22012887.617                          42.100          29.600
 127474271.415 5  99330537.61243                  24257523.367
  24257530.242                          35.700          21.500
 106395821.384 6  82752347.772 6                  19903529.813    19903529.559
  19903536.172                          41.700          40.200
 129774309.871 5 101122773.09742                  24695204.094
  24695213.727                          32.000          15.600
 127005928.973 5  98965737.22343  94842156.864 7  24168425.883
  24168433.605    24168434.793          32.200          20.100          42.400
 108495933.551 7  84542326.85646                  20646081.719
  20646084.840                          45.600          40.700
 124985299.697 5  97210811.410 5                  23348298.258    23348297.824
  23348304.172                          35.400          34.500
 102022425.317 7  79350874.973 6                  19072008.469    19072007.996
  19072015.566                          45.300          40.600
 108052899.525 7  84197153.64346                  20561777.398
  20561783.219                          47.200          39.500
 119365188.467 7                  89136355.924 7  22714439.914
                  22714442.805          42.300                          44.800
 122644343.585 7                  91585108.092 8  23338431.844
                  23338436.012          45.500                          50.300
 114070082.284 7                  85182214.885 7  21706812.984
                  21706814.277          42.800                          45.600
 137117012.557 5                 102392607.449 6  26092494.586
                  26092498.789          34.400                          37.300
 106085713.479 7                  79219867.583 8  20187440.180
                  20187445.020          46.800                          50.200
 123189365.356 7                  91992108.173 7  23442149.578
                  23442155.070          42.300                          45.600
 19  7  9 10  1  4.0000000  0 21G06G29R24R08G30R22G13G07R01G15G09G02
                                R07R23G05E12E04E11E19E14E09
 117021291.285 6  91185528.53045  87386128.426 8  22268421.039
  22268430.758    22268431.000          39.900          31.200          48.400
 120247494.449 6  93699504.78744                  22882368.914
  22882375.457                          40.700          26.500
 112851483.640 5                                  21103796.313    21103797.250
                                        35.400
 106737328.075 7  83017950.918 7                  19932435.086    19932434.293
  19932437.813                          42.600          45.000
 125128201.885 6  97502490.06643  93439893.586 7  23811092.867
  23811102.176    23811102.234          36.500          21.300          44.200
 117111814.362 6  91086981.651 6                  21938987.938    21938986.242
  21938992.465                          40.900          40.900
 115675354.398 6  90136656.96745                  22012281.711
  22012287.973                          41.600          30.200
 127473785.854 5  99330159.29343                  24257430.844
  24257438.258                          35.800          21.500
 106394718.728 6  82751490.170 6                  19903323.273    19903323.324
  19903329.852                          41.400          40.100
 129770470.474 5 101119781.33342                  24694474.109
  24694483.023                          32.200          16.300
 127009309.023 5  98968371.02843  94844680.908 7  24169069.016
  24169076.867    24169077.895          33.100          20.400          42.600
 108495719.246 7  84542159.86046                  20646041.195
  20646043.906                          45.300          40.800
 124988892.968 5  97213606.159 5                  23348970.117    23348969.566
  23348975.777                          34.600          34.300
 102022502.436 7  79350934.937 6                  19072022.906    19072022.340
  19072029.969                          45.200          40.800
 108052410.265 7  84196772.39946                  20561684.703
  20561690.602                          46.700          39.800
 119367155.255 7                  89137824.632 7  22714814.055
                  22714817.152          42.300                          44.700
 122644505.288 7                  91585228.849 8  23338462.438
                  23338466.715          45.600                          50.300
 114069412.003 7                  85181714.355 7  21706685.398
                  21706686.871          42.800                          45.600
 137119428.842 5                 102394411.831 6  26092954.266
                  26092958.801          34.700                          37.200
 106089506.082 7                  79222699.729 8  20188161.914
                  20188166.672          47.300                          50.200
 123187225.006 7                  91990509.886 7  23441742.250
                  23441747.715          42.500                          45.100
 19  7  9 10  1  5.0000000  0 21G06G29R24R08G30R22G13G07R01G15G09G02
                                R07R23G05E12E04E11E19E14E09
 117023681.837 6  91187391.29045  87387913.571 8  22268876.289
  22268885.520    22268885.820          40.300          31.600          48.800
 120245303.608 6  93697797.63944                  22881952.109
  22881958.465                          41.100          26.600
 112848177.704 5                                  21103178.750    21103178.961
                                        35.300
 106739260.444 7  83019453.847 7                  19932795.297    19932795.230
  19932798.723                          42.800          44.800
 125126323.075 6  97501026.03743  93438490.572 7  23810735.281
  23810744.348    23810744.816          36.200          21.700          44.200
 117115659.047 6  91089971.973 6                  21939707.789    21939706.258
  21939712.441                          41.100          40.700
 115672203.694 7  90134201.87544                  22011682.383
  22011688.508                          42.000          29.600
 127473300.827 6  99329781.34943                  24257338.219
  24257345.246                          36.000          21.100
 106393616.640 6  82750632.979 6                  19903117.586    19903116.629
  19903123.527                          41.800          39.700
 129766631.263 5 101116789.74642                  24693744.305
  24693752.266                          32.200          16.900
 127012689.195 5  98971004.94043  94847205.076 7  24169712.133
  24169720.168    24169721.230          32.300          19.900          42.600
 108495505.361 7  84541993.20146                  20646000.523
  20646003.844                          45.500          40.800
 124992486.187 5  97216400.891 5                  23349640.813    23349640.824
  23349647.047                          34.800          34.600
 102022580.413 7  79350995.603 6                  19072038.250    19072036.957
  19072044.660                          45.600          40.600
 108051921.304 7  84196391.39446                  20561590.703
  20561597.430                          47.000          39.600
 119369122.372 7                  89139293.590 7  22715188.242
                  22715191.414          42.000                          45.100
 122644667.364 7                  91585349.862 8  23338493.406
                  23338497.621          45.400                          50.300
 114068742.112 7                  85181214.108 7  21706558.164
                  21706559.402          43.000                          45.600
 137121845.247 5                 102396216.264 6  26093413.961
                  26093418.414          34.800                          37.200
 106093299.702 7                  79225532.629 8  20188883.891
                  20188888.578          47.100                          50.200
 123185084.974 7                  91988911.785 7  23441335.063
                  23441340.523          42.600                          45.100
 19  7  9 10  1  6.0000000  0 21G06G29R24R08G30R22G13G07R01G15G09G02
                                R07R23G05E12E04E11E19E14E09
 117026072.671 6  91189254.28345  87389698.947 8  22269331.391
  22269340.336    22269340.711          40.200          31.200          48.700
 120243113.334 6  93696090.94744                  22881535.453
  22881541.758                          41.300          26.700
 112844872.218 5                                  21102560.758    21102560.547
                                        35.500
 106741193.126 7  83020957.060 7                  19933156.188    19933156.191
  19933159.414                          42.800          45.200
 125124444.552 6  97499562.24743  93437087.776 7  23810378.477
  23810387.156    23810386.973          36.800          21.800          44.100
 117119504.091 6  91092962.539 6                  21940427.805    21940426.461
  21940432.883                          41.300          41.000
 115669053.328 7  90131747.04544                  22011082.781
  22011088.922                          42.100          29.600
 127472816.213 6  99329403.71043                  24257247.125
  24257253.359                          36.500          20.900
 106392515.073 7  82749776.194 6                  19902911.352    19902910.793
  19902917.574                          42.200          39.800
 129762792.131 5 101113798.20042                  24693013.469
  24693021.488                          31.900          16.300
 127016069.608 5  98973639.01343  94849729.357 7  24170354.594
  24170364.031    24170364.293          32.800          20.100          42.300
 108495291.873 7  84541826.84146                  20645959.523
  20645962.836                          45.600          40.900
 124996079.314 5  97219195.527 5                  23350312.414    23350312.332
  23350317.996                          35.300          34.400
 102022659.203 7  79351056.883 6                  19072052.859    19072051.730
  19072059.059                          45.700          40.600
 108051432.614 7  84196010.59146                  20561498.055
  20561504.492                          47.500          39.400
 119371089.746 7                  89140762.755 7  22715562.602
                  22715565.941          42.400                          45.100
 122644829.725 7                  91585471.112 8  23338524.305
                  23338528.570          45.600                          50.500
 114068072.564 7                  85180714.117 7  21706430.594
                  21706431.953          42.800                          45.600
 137124261.696 5                 102398020.778 6  26093873.438
                  26093878.504          33.800                          36.900
 106097094.285 7                  79228366.243 8  20189606.172
                  20189610.711          47.000                          50.100
 123182945.158 7                  91987313.864 7  23440927.992
                  23440933.301          42.300                          45.200
 19  7  9 10  1  7.0000000  0 21G06G29R24R08G30R22G13G07R01G15G09G02
                                R07R23G05E12E04E11E19E14E09
 117028463.843 6  91191117.53045  87391484.556 8  22269786.563
  22269795.766    22269795.777          40.100          31.700          48.600
 120240923.532 6  93694384.59844                  22881118.836
  22881125.008                          41.400          26.100
 112841567.170 5                                  21101944.273    21101942.793
                                        35.700
 106743126.211 7  83022460.536 7                  19933517.297    19933516.973
  19933520.449                          42.300          45.100
 125122566.363 6  97498098.73243  93435685.234 7  23810020.586
  23810029.535    23810029.832          37.000          21.700          44.000
 117123349.515 6  91095953.418 6                  21941149.070    21941147.023
  21941153.191                          41.300          40.100
 115665903.331 7  90129292.50144                  22010483.547
  22010489.395                          42.000          29.500
 127472332.161 6  99329026.52343                  24257154.586
  24257161.152                          36.700          20.900
 106391413.998 6  82748919.822 6                  19902705.938    19902704.652
  19902711.629                          41.800          39.900
 129758953.014 5 101110806.70142                  24692282.188
  24692291.320                          32.200          16.300
 127019450.108 5  98976273.14043  94852253.762 7  24170998.477
  24171006.672    24171007.664          32.500          19.900          42.100
 108495078.777 7  84541660.79646                  20645919.195
  20645922.332                          45.800          40.400
 124999672.378 5  97221990.150 5                  23350984.047    23350983.355
  23350989.309                          35.300          34.700
 102022738.868 7  79351118.856 6                  19072067.469    19072066.527
  19072074.020                          45.500          40.100
 108050944.204 7  84195630.01346                  20561405.328
  20561411.258                          47.400          39.800
 119373057.448 7                  89142232.124 7  22715937.141
                  22715940.258          42.300                          45.100
 122644992.426 7                  91585592.613 8  23338555.047
                  23338559.469          45.700                          50.500
 114067403.358 7                  85180214.388 7  21706303.406
                  21706304.547          42.700                          45.500
 137126678.256 5                 102399825.312 6  26094333.406
                  26094338.195          34.600                          37.400
 106100889.835 7                  79231200.581 8  20190328.438
                  20190333.023          47.000                          50.200
 123180805.540 7                  91985716.106 7  23440520.820
                  23440526.230          42.400                          44.900
 19  7  9 10  1  8.0000000  0 21G06G29R24R08G30R22G13G07R01G15G09G02
                                R07R23G05E12E04E11E19E14E09
 117030855.355 6  91192981.04645  87393270.431 8  22270241.813
  22270250.523    22270250.898          40.500          30.200          48.400
 120238734.304 6  93692678.70744                  22880701.609
  22880708.223                          40.900          26.000
 112838262.624 5                                  21101326.195    21101324.434
                                        35.800
 106745059.686 7  83023964.383 7                  19933878.648    19933877.879
  19933881.648                          42.500          45.000
 125120688.504 6  97496635.45143  93434282.935 7  23809663.469
  23809672.070    23809672.352          37.300          21.300          44.200
 117127195.328 6  91098944.638 6                  21941869.711    21941867.617
  21941873.773                          41.100          40.000
 115662753.714 7  90126838.25044                  22009884.109
  22009889.586                          42.100          29.100
 127471848.580 6  99328649.70143                  24257062.281
  24257069.355                          37.100          20.900
 106390313.538 6  82748063.899 6                  19902500.641    19902499.098
  19902505.762                          41.500          40.000
 129755114.058 5 101107815.32342                  24691552.000
  24691560.570                          32.500          14.800
 127022830.785 5  98978907.41743  94854778.303 6  24171641.703
  24171649.906    24171650.836          32.400          19.900          41.900
 108494866.123 7  84541495.09046                  20645878.594
  20645881.820                          45.800          40.200
 125003265.433 5  97224784.722 5                  23351654.492    23351655.043
  23351660.598                          35.400          34.800
 102022819.436 7  79351181.500 6                  19072082.750    19072081.598
  19072089.152                          45.300          40.800
 108050456.140 7  84195249.70246                  20561312.664
  20561318.008                          47.200          39.500
 119375025.457 7                  89143701.744 7  22716311.930
                  22716314.594          42.100                          45.100
 122645155.495 7                  91585714.383 8  23338586.219
                  23338590.480          45.700                          50.400
 114066734.571 7                  85179714.946 7  21706175.961
                  21706177.219          43.200                          45.700
 137129094.907 5                 102401629.970 6  26094793.172
                  26094797.906          34.700                          37.700
 106104686.366 7                  79234035.666 8  20191050.875
                  20191055.375          47.100                          50.200
 123178666.215 7                  91984118.558 7  23440113.781
                  23440119.121          42.500                          45.000
 19  7  9 10  1  9.0000000  0 21G06G29R24R08G30R22G13G07R01G15G09G02
                                R07R23G05E12E04E11E19E14E09
 117033247.237 6  91194844.85745  87395056.553 8  22270696.883
  22270705.867    22270706.074          40.400          31.000          48.300
 120236545.615 6  93690973.21744                  22880285.070
  22880291.801                          41.300          26.200
 112834958.579 5                                  21100708.164    21100706.660
                                        35.900
 106746993.600 7  83025468.521 7                  19934240.258    19934238.973
  19934242.848                          42.800          44.300
 125118810.994 6  97495172.47243  93432880.903 7  23809306.102
  23809314.934    23809314.957          37.400          21.300          43.900
 117131041.550 6  91101936.155 6                  21942589.633    21942588.125
  21942593.871                          41.300          39.900
 115659604.489 6  90124384.31144                  22009284.023
  22009290.398                          41.800          29.400
 127471365.498 6  99328273.25643                  24256969.805
  24256977.406                          37.500          20.400
 106389213.643 6  82747208.429 6                  19902294.523    19902292.934
  19902299.723                          41.600          39.400
 129751275.193 5 101104824.01042                  24690821.805
  24690830.266                          31.800          14.800
 127026211.661 5  98981541.89043  94857302.991 6  24172285.164
  24172293.227    24172294.203          33.100          19.000          41.900
 108494653.888 7  84541329.70746                  20645838.500
  20645841.359                          45.600          40.500
 125006858.419 5  97227579.260 5                  23352327.086    23352326.137
  23352331.547                          35.200          34.500
 102022900.854 7  79351244.821 6                  19072097.602    19072097.129
  19072104.469                          45.200          40.000
 108049968.367 7  84194869.62346                  20561219.547
  20561225.336                          47.100          39.000
 119376993.788 7                  89145171.608 7  22716686.336
                  22716689.438          42.100                          45.500
 122645318.903 7                  91585836.410 8  23338617.188
                  23338621.691          46.000                          50.400
 114066066.123 7                  85179215.784 7  21706048.516
                  21706049.992          42.600                          45.600
 137131511.654 5                 102403434.692 6  26095253.250
                  26095257.688          35.100                          37.500
 106108483.918 7                  79236871.491 8  20191773.516
                  20191778.133          46.900                          49.900
 123176527.138 7                  91982521.200 7  23439706.531
                  23439712.035          42.500                          44.600
 19  7  9 10  1 10.0000000  0 21G06G29R24R08G30R22G13G07R01G15G09G02
                                R07R23G05E12E04E11E19E14E09
 117035639.395 6  91196708.87245  87396842.925 8  22271152.164
  22271160.953    22271161.277          40.300          31.000          48.300
 120234357.450 6  93689268.16344                  22879868.930
  22879875.426                          40.800          26.700
 112831654.978 5                                  21100090.516    21100088.965
                                        35.400
 106748927.916 7  83026972.985 7                  19934600.922    19934600.199
  19934603.828                          42.600          44.900
 125116933.769 6  97493709.71343  93431479.103 7  23808948.148
  23808957.594    23808957.879          36.400          21.800          43.700
 117134888.185 6  91104927.962 6                  21943310.719    21943308.484
  21943314.840                          41.300          40.100
 115656455.591 7  90121930.62745                  22008685.664
  22008691.500                          42.000          30.000
 127470882.902 6  99327897.21443                  24256878.250
  24256885.801                          37.700          19.900
 106388114.315 6  82746353.391 6                  19902088.242    19902087.566
  19902094.570                          41.800          39.400
 129747436.454 5 101101832.75642                  24690091.055
  24690099.590                          32.800          13.900
 127029592.701 5  98984176.48043  94859827.786 7  24172928.867
  24172937.152    24172937.801          33.100          19.600          42.200
 108494442.046 7  84541164.64246                  20645797.695
  20645801.020                          45.600          40.700
 125010451.361 5  97230373.764 5                  23352998.070    23352997.098
  23353002.785                          35.600          35.000
 102022983.130 7  79351308.837 6                  19072113.039    19072112.215
  19072119.777                          45.200          39.900
 108049480.870 7  84194489.75846                  20561127.047
  20561132.770                          47.300          39.200
 119378962.451 7                  89146641.702 7  22717060.688
                  22717063.988          42.100                          45.300
 122645482.643 7                  91585958.687 8  23338648.461
                  23338652.773          46.100                          50.400
 114065398.000 7                  85178716.878 7  21705921.891
                  21705922.973          42.800                          45.600
 137133928.502 5                 102405239.481 6  26095713.125
                  26095717.684          34.900                          37.500
 106112282.423 7                  79239708.049 8  20192496.500
                  20192501.074          47.100                          50.000
 123174388.307 7                  91980924.015 7  23439299.719
                  23439305.051          42.200                          44.800
 19  7  9 10  1 11.0000000  0 21G06G29R24R08G30R22G13G07R01G15G09G02
                                R07R23G05E12E04E11E19E14E09
 117038031.926 6  91198573.17945  87398629.561 8  22271606.828
  22271615.867    22271616.613          40.500          31.100          48.300
 120232169.844 6  93687563.54044                  22879451.828
  22879458.844                          40.500          26.900
 112828351.878 5                                  21099472.766    21099471.215
                                        35.300
 106750862.621 7  83028477.770 7                  19934961.922    19934961.527
  19934965.391                          42.600          44.800
 125115056.930 6  97492247.23643  93430077.576 7  23808591.469
  23808600.668    23808600.602          36.100          22.000          43.800
 117138735.247 6  91107920.114 6                  21944031.063    21944029.273
  21944035.254                          40.900          39.800
 115653307.123 6  90119477.27444                  22008086.305
  22008091.945                          41.800          29.600
 127470400.813 6  99327521.57843                  24256787.258
  24256793.906                          37.700          20.100
 106387015.536 7  82745498.779 6                  19901882.875    19901881.824
  19901888.633                          42.000          39.400
 129743597.818 5 101098841.62442                  24689361.758
  24689369.293                          33.200          13.900
 127032973.949 5  98986811.20443  94862352.737 6  24173572.008
  24173580.648    24173581.102          33.800          19.900          41.900
 108494230.666 7  84540999.93046                  20645757.344
  20645760.449                          45.300          40.700
 125014044.251 5  97233168.253 5                  23353669.617    23353668.691
  23353674.371                          35.700          35.100
 102023066.305 7  79351373.515 6                  19072128.641    19072127.488
  19072135.219                          44.900          40.200
 108048993.699 7  84194110.14846                  20561034.648
  20561039.973                          47.600          39.600
 119380931.448 7                  89148112.036 7  22717435.461
                  22717438.816          42.100                          45.100
 122645646.762 7                  91586081.236 8  23338679.828
                  23338684.035          46.200                          50.300
 114064730.308 7                  85178218.272 7  21705794.563
                  21705795.965          42.800                          45.800
 137136345.467 5                 102407044.363 6  26096172.742
                  26096177.652          34.700                          37.500
 106116081.982 7                  79242545.368 8  20193219.242
                  20193224.098          46.800                          49.800
 123172249.769 7                  91979327.051 7  23438892.766
                  23438898.313          42.200                          45.000
 19  7  9 10  1 12.0000000  0 21G06G29R24R08G30R22G13G07R01G15G09G02
                                R07R23G05E12E04E11E19E14E09
 117040424.752 6  91200437.72145  87400416.416 8  22272063.094
  22272071.766    22272071.895          40.800          30.900          48.500
 120229982.737 6  93685859.30044                  22879035.828
  22879042.855                          40.400          26.000
 112825049.259 5                                  21098853.977    21098853.719
                                        35.300
 106752797.681 7  83029982.819 7                  19935323.109    19935322.926
  19935326.480                          42.500          44.900
 125113180.431 6  97490785.00143  93428676.266 7  23808234.172
  23808243.844    23808243.340          36.500          21.300          43.700
 117142582.652 6  91110912.563 6                  21944752.281    21944750.164
  21944756.055                          41.100          39.600
 115650158.963 6  90117024.15644                  22007486.844
  22007493.590                          41.400          29.500
 127469919.218 6  99327146.33443                  24256696.422
  24256702.449                          38.500          20.600
 106385917.266 7  82744644.611 6                  19901676.742    19901676.441
  19901683.102                          42.100          39.500
 129739759.326 5 101095850.61342                  24688630.180
  24688638.344                          33.400          14.800
 127036355.344 5  98989446.00143  94864877.766 6  24174215.820
  24174223.848    24174224.629          33.100          19.000          41.800
 108494019.652 7  84540835.50446                  20645717.719
  20645720.898                          45.200          41.500
 125017637.107 5  97235962.677 5                  23354340.375    23354339.918
  23354344.887                          35.500          34.500
 102023150.289 7  79351438.857 6                  19072144.391    19072143.238
  19072151.016                          45.000          40.100
 108048506.819 7  84193730.75846                  20560941.594
  20560947.445                          47.300          39.900
 119382900.697 7                  89149582.599 7  22717809.992
                  22717813.406          42.100                          44.900
 122645811.197 7                  91586204.033 8  23338710.992
                  23338715.289          46.000                          50.500
 114064062.930 7                  85177719.916 7  21705667.477
                  21705668.844          42.800                          45.600
 137138762.500 5                 102408849.267 6  26096632.742
                  26096637.766          35.500                          37.100
 106119882.446 7                  79245383.387 8  20193942.227
                  20193947.258          47.000                          50.100
 123170111.431 6                  91977730.240 7  23438485.531
                  23438491.348          41.800                          45.000
 19  7  9 10  1 13.0000000  0 21G06G29R24R08G30R22G13G07R01G15G09G02
                                R07R23G05E12E04E11E19E14E09
 117042817.938 6  91202302.54145  87402203.515 8  22272518.469
  22272527.195    22272527.391          40.900          31.500          48.100
 120227796.147 6  93684155.46544                  22878619.641
  22878626.242                          40.400          25.500
 112821747.029 5                                  21098236.039    21098236.180
                                        35.400
 106754733.111 7  83031488.137 7                  19935685.102    19935684.168
  19935688.152                          42.600          44.500
 125111304.239 6  97489323.06643  93427275.216 7  23807877.234
  23807886.426    23807886.145          36.600          22.300          43.600
 117146430.475 6  91113905.303 6                  21945471.422    21945470.715
  21945477.023                          40.700          40.200
 115647011.206 7  90114571.36144                  22006887.766
  22006893.883                          42.100          29.100
 127469438.104 6  99326771.42643                  24256605.078
  24256610.977                          37.900          21.100
 106384819.574 7  82743790.836 6                  19901471.938    19901470.934
  19901477.738                          42.200          39.800
 129735920.821 5 101092859.58942                  24687899.969
  24687908.348                          33.500          14.800
 127039736.873 5  98992080.96743  94867402.968 7  24174858.852
  24174867.445    24174867.895          33.600          19.900          42.100
 108493809.060 7  84540671.40446                  20645677.578
  20645680.371                          45.700          41.100
 125021229.873 5  97238757.049 5                  23355012.438    23355011.090
  23355016.266                          35.300          34.500
 102023235.172 7  79351504.866 6                  19072159.945    19072159.309
  19072166.828                          45.000          40.100
 108048020.205 7  84193351.58246                  20560849.016
  20560855.016                          47.000          40.200
 119384870.264 7                  89151053.381 7  22718184.891
                  22718188.344          42.300                          45.300
 122645975.968 7                  91586327.074 8  23338742.234
                  23338746.527          45.600                          50.800
 114063395.952 7                  85177221.842 7  21705540.555
                  21705541.984          43.100                          45.500
 137141179.622 5                 102410654.258 6  26097092.586
                  26097097.570          35.000                          37.400
 106123683.936 7                  79248222.162 8  20194665.875
                  20194670.680          46.800                          50.100
 123167973.349 7                  91976133.630 7  23438078.789
                  23438084.539          42.300                          45.200
 19  7  9 10  1 14.0000000  0 21G06G29R24R08G30R22G13G07R01G15G09G02
                                R07R23G05E12E04E11E19E14E09
 117045211.405 6  91204167.59045  87403990.869 8  22272973.898
  22272982.500    22272982.906          41.100          30.800          48.200
 120225610.119 6  93682452.06944                  22878204.719
  22878210.875                          40.500          26.000
 112818445.334 5                                  21097619.945    21097618.324
                                        35.700
 106756668.879 7  83032993.760 7                  19936046.000    19936045.723
  19936049.512                          42.600          44.700
 125109428.344 6  97487861.33143  93425874.382 7  23807520.195
  23807529.621    23807529.402          36.700          22.300          43.300
 117150278.661 6  91116898.335 6                  21946192.586    21946191.289
  21946197.996                          40.300          39.900
 115643863.781 7  90112118.82145                  22006288.961
  22006294.516                          42.300          30.400
 127468957.474 6  99326396.89643                  24256512.773
  24256519.305                          37.900          21.100
 106383722.426 7  82742937.454 6                  19901266.750    19901265.746
  19901272.934                          42.100          39.800
 129732082.516 5 101089868.70042                  24687169.422
  24687177.781                          33.600          14.800
 127043118.570 5  98994716.07843  94869928.258 6  24175502.203
  24175510.793    24175511.492          33.400          20.100          41.800
 108493598.865 7  84540507.61746                  20645637.211
  20645640.621                          45.800          40.800
 125024822.551 5  97241551.385 5                  23355682.773    23355681.988
  23355687.465                          35.500          34.700
 102023320.870 7  79351571.512 6                  19072176.453    19072175.395
  19072182.848                          44.700          40.300
 108047533.907 7  84192972.64546                  20560756.531
  20560762.051                          47.100          40.100
 119386840.149 7                  89152524.398 7  22718559.813
                  22718563.055          42.100                          45.400
 122646141.073 7                  91586450.377 8  23338773.836
                  23338778.113          46.000                          50.800
 114062729.334 7                  85176724.038 7  21705413.664
                  21705415.129          43.600                          45.500
 137143596.790 5                 102412459.305 6  26097552.719
                  26097557.672          34.700                          37.700
 106127486.390 7                  79251061.648 8  20195389.336
                  20195394.211          46.800                          50.300
 123165835.521 7                  91974537.195 7  23437671.727
                  23437677.859          42.200                          45.200
 19  7  9 10  1 15.0000000  0 21G06G29R24R08G30R22G13G07R01G15G09G02
                                R07R23G05E12E04E11E19E14E09
 117047605.238 6  91206032.90845  87405778.470 8  22273429.609
  22273438.273    22273438.457          40.600          30.700          48.200
 120223424.625 6  93680749.07944                  22877788.563
  22877794.758                          40.600          25.600
 112815144.144 5                                  21097003.008    21097001.645
                                        35.600
 106758605.070 7  83034499.658 7                  19936407.703    19936407.051
  19936411.117                          42.600          44.500
 125107552.843 6  97486399.92743  93424473.826 7  23807163.516
  23807172.891    23807172.387          37.100          22.200          43.700
 117154127.275 6  91119891.716 6                  21946913.703    21946912.383
  21946918.863                          40.100          40.600
 115640716.721 7  90109666.56844                  22005690.992
  22005696.246                          42.600          29.600
 127468477.320 6  99326022.74143                  24256421.063
  24256428.273                          37.600          21.300
 106382625.812 7  82742084.571 6                  19901062.172    19901060.582
  19901067.535                          42.200          39.600
 129728244.225 5 101086877.87142                  24686439.984
  24686447.371                          34.100          16.300
 127046500.505 5  98997351.35743  94872453.698 7  24176145.398
  24176154.617    24176154.984          32.900          20.900          42.000
 108493389.091 7  84540344.15346                  20645597.641
  20645600.395                          45.900          40.800
 125028415.237 5  97244345.642 5                  23356354.234    23356353.191
  23356358.609                          35.400          35.000
 102023407.462 7  79351638.859 6                  19072192.219    19072191.629
  19072199.000                          45.000          40.200
 108047047.911 7  84192593.94846                  20560664.063
  20560669.633                          47.000          39.700
 119388810.342 6                  89153995.649 7  22718934.641
                  22718938.039          41.900                          45.600
 122646306.545 7                  91586573.936 8  23338805.281
                  23338809.590          46.400                          50.500
 114062063.062 7                  85176226.488 7  21705286.930
                  21705288.348          42.800                          45.500
 137146014.118 5                 102414264.428 6  26098012.695
                  26098017.566          35.000                          37.600
 106131289.844 7                  79253901.872 8  20196113.227
                  20196117.906          47.000                          50.500
 123163697.932 7                  91972940.960 7  23437265.438
                  23437270.938          42.600                          45.100
 19  7  9 10  1 16.0000000  0 21G06G29R24R08G30R22G13G07R01G15G09G02
                                R07R23G05E12E04E11E19E14E09
 117049999.390 6  91207898.47945  87407566.301 8  22273884.117
  22273893.824    22273894.082          40.200          30.500          48.500
 120221239.645 6  93679046.51944                  22877372.586
  22877378.938                          40.500          25.300
 112811843.257 5                                  21096384.852    21096384.500
                                        35.900
 106760541.621 7  83036005.867 7                  19936769.539    19936768.629
  19936772.914                          42.900          44.700
 125105677.587 6  97484938.69443  93423073.497 7  23806807.102
  23806816.273    23806815.570          36.400          21.300          43.600
 117157976.282 6  91122885.344 6                  21947634.648    21947633.234
  21947639.891                          40.200          40.400
 115637570.044 7  90107214.61444                  22005091.367
  22005097.805                          42.400          29.900
 127467997.646 6  99325648.99443                  24256329.352
  24256336.559                          38.000          20.900
 106381529.727 7  82741232.065 6                  19900856.172    19900855.473
  19900862.273                          42.000          39.700
 129724406.046 5 101083887.09142                  24685709.039
  24685716.746                          34.100          16.300
 127049882.489 5  98999986.66143  94874979.238 7  24176789.453
  24176797.539    24176798.797          33.000          19.600          42.000
 108493179.739 7  84540181.02746                  20645557.813
  20645560.910                          46.100          40.900
 125032007.760 5  97247139.864 5                  23357024.250    23357024.191
  23357030.098                          35.700          34.800
 102023494.874 7  79351706.837 6                  19072208.391    19072207.941
  19072215.621                          45.300          40.600
 108046562.188 7  84192215.46346                  20560571.289
  20560577.043                          47.200          39.600
 119390780.826 7                  89155467.109 7  22719309.359
                  22719313.098          42.100                          45.400
 122646472.333 7                  91586697.724 8  23338836.766
                  23338841.047          46.400                          50.600
 114061397.132 7                  85175729.210 7  21705160.352
                  21705161.707          43.000                          45.600
 137148431.508 5                 102416069.633 6  26098472.992
                  26098477.496          35.200                          37.200
 106135094.237 7                  79256742.830 8  20196837.172
                  20196841.910          46.800                          50.700
 123161560.599 7                  91971344.886 7  23436858.375
                  23436864.195          42.700                          45.000
 19  7  9 10  1 17.0000000  0 21G06G29R24R08G30R22G13G07R01G15G09G02
                                R07R23G05E12E04E11E19E14E09
 117052393.898 6  91209764.32645  87409354.394 8  22274340.133
  22274349.219    22274349.871          40.200          31.400          48.100
 120219055.226 6  93677344.37844                  22876956.648
  22876963.648                          40.100          26.700
 112808542.925 5                                  21095767.750    21095767.117
                                        35.800
 106762478.609 7  83037512.427 7                  19937130.914    19937130.473
  19937134.578                          42.600          44.900
 125103802.708 6  97483477.73543  93421673.423 7  23806450.438
  23806459.512    23806458.426          36.900          21.500          43.200
 117161825.666 6  91125879.341 6                  21948355.109    21948354.145
  21948360.586                          40.400          40.100
 115634423.734 6  90104762.94745                  22004492.852
  22004498.629                          41.900          30.900
 127467518.500 6  99325275.62143                  24256237.922
  24256244.926                          37.600          21.100
 106380434.225 7  82740380.027 6                  19900651.789    19900650.691
  19900657.363                          42.200          39.900
 129720568.023 5 101080896.37242                  24684979.133
  24684986.922                          34.100          17.400
 127053264.757 5  99002622.18143  94877504.920 6  24177433.648
  24177441.551    24177442.164          32.500          19.000          41.700
 108492970.800 7  84540018.21746                  20645518.195
  20645520.918                          45.800          41.000
 125035600.353 5  97249934.098 5                  23357696.445    23357695.191
  23357700.789                          35.300          34.300
 102023583.162 7  79351775.532 6                  19072225.570    19072224.512
  19072231.766                          45.100          40.300
 108046076.787 7  84191837.22746                  20560479.164
  20560485.246                          47.100          39.600
 119392751.637 7                  89156938.827 7  22719684.813
                  22719688.184          42.200                          45.500
 122646638.462 7                  91586821.794 8  23338868.117
                  23338872.746          46.500                          50.700
 114060731.576 7                  85175232.209 7  21705033.492
                  21705035.012          43.000                          45.600
 137150848.981 5                 102417874.901 6  26098933.102
                  26098937.547          35.100                          37.200
 106138899.645 7                  79259584.533 8  20197561.375
                  20197566.063          47.000                          50.400
 123159423.514 7                  91969749.022 7  23436451.758
                  23436457.676          42.600                          45.000
 19  7  9 10  1 18.0000000  0 21G06G29R24R08G30R22G13G07R01G15G09G02
                                R07R23G05E12E04E11E19E14E09
 117054788.698 6  91211630.40945  87411142.732 8  22274796.203
  22274804.918    22274805.570          39.800          30.900          48.300
 120216871.318 6  93675642.61244                  22876541.695
  22876547.855                          40.200          26.100
 112805243.126 6                                  21095149.859    21095149.906
                                        36.100
 106764416.004 7  83039019.281 7                  19937492.773    19937492.543
  19937496.266                          42.300          44.900
 125101928.172 6  97482017.05443  93420273.609 7  23806093.508
  23806102.500    23806101.930          36.900          21.700          43.500
 117165675.456 6  91128873.632 6                  21949076.883    21949075.492
  21949081.867                          40.000          39.700
 115631277.810 6  90102311.57245                  22003893.656
  22003900.148                          41.700          30.000
 127467039.838 6  99324902.65243                  24256147.320
  24256153.824                          38.000          21.300
 106379339.292 7  82739528.371 6                  19900447.055    19900445.863
  19900452.547                          42.400          39.900
 129716730.079 5 101077905.74642                  24684248.242
  24684256.473                          33.300          16.300
 127056647.181 5  99005257.82843  94880030.749 6  24178076.367
  24178085.605    24178085.813          33.400          19.300          41.900
 108492762.277 7  84539855.72946                  20645477.867
  20645481.336                          45.500          40.600
 125039192.906 5  97252728.318 5                  23358366.414    23358365.980
  23358371.848                          35.600          34.200
 102023672.314 7  79351844.859 6                  19072241.977    19072241.223
  19072248.621                          45.300          40.300
 108045591.676 7  84191459.21646                  20560386.875
  20560392.719                          47.200          39.500
 119394722.780 6                  89158410.773 7  22720060.023
                  22720063.313          41.700                          45.200
 122646804.953 7                  91586946.123 8  23338900.031
                  23338904.309          46.100                          50.300
 114060066.405 7                  85174735.495 7  21704906.836
                  21704908.395          43.000                          45.800
 137153266.567 5                 102419680.234 6  26099393.125
                  26099397.641          35.700                          37.500
 106142706.028 7                  79262426.964 8  20198285.813
                  20198290.344          47.000                          50.100
 123157286.691 7                  91968153.345 7  23436045.281
                  23436051.148          42.200                          45.100
 19  7  9 10  1 19.0000000  0 21G06G29R24R08G30R22G13G07R01G15G09G02
                                R07R23G05E12E04E11E19E14E09
 117057183.839 6  91213496.73645  87412931.316 8  22275251.102
  22275260.840    22275261.367          39.500          30.500          48.500
 120214687.947 6  93673941.28144                  22876125.406
  22876132.344                          40.800          26.200
 112801943.704 6                                  21094533.852    21094532.488
                                        36.200
 106766353.746 7  83040526.431 7                  19937855.766    19937854.129
  19937858.344                          42.400          43.700
 125100053.963 6  97480556.63043  93418874.026 7  23805736.094
  23805746.047    23805745.063          36.300          22.200          43.700
 117169525.629 6  91131868.174 6                  21949799.141    21949796.602
  21949803.188                          39.800          39.700
 115628132.225 6  90099860.47144                  22003295.367
  22003302.113                          41.700          29.800
 127466561.713 6  99324530.08343                  24256055.539
  24256062.906                          37.600          20.900
 106378244.887 7  82738677.172 6                  19900243.320    19900241.023
  19900247.848                          42.200          39.200
 129712892.235 5 101074915.21142                  24683518.094
  24683525.742                          33.700          16.300
 127060029.710 5  99007893.57043  94882556.687 7  24178720.047
  24178729.016    24178729.395          33.300          19.300          42.100
 108492554.168 7  84539693.56546                  20645438.516
  20645441.852                          45.700          40.200
 125042785.343 5  97255522.445 5                  23359037.945    23359036.785
  23359042.996                          35.200          34.400
 102023762.347 7  79351914.884 6                  19072259.070    19072258.059
  19072265.352                          45.200          40.100
 108045106.852 7  84191081.43346                  20560294.789
  20560300.293                          47.200          39.500
 119396694.216 6                  89159882.945 7  22720435.266
                  22720438.371          41.500                          45.500
 122646971.776 7                  91587070.697 8  23338931.703
                  23338936.191          46.200                          50.000
 114059401.612 7                  85174239.053 7  21704780.289
                  21704781.871          42.700                          45.900
 137155684.215 5                 102421485.604 6  26099853.195
                  26099857.523          35.100                          37.200
 106146513.403 7                  79265270.130 8  20199010.063
                  20199014.914          47.000                          50.200
 123155150.120 7                  91966557.858 7  23435638.938
                  23435644.539          42.500                          44.900
 19  7  9 10  1 20.0000000  0 21G06G29R24R08G30R22G13G07R01G15G09G02
                                R07R23G05E12E04E11E19E14E09
 117059579.330 6  91215363.36045  87414720.141 8  22275706.969
  22275716.438    22275717.359          39.700          31.300          48.800
 120212505.112 6  93672240.36144                  22875710.563
  22875716.648                          40.300          24.500
 112798644.826 5                                  21093917.484    21093915.770
                                        35.800
 106768291.903 7  83042033.882 7                  19938217.188    19938216.277
  19938220.188                          42.400          44.500
 125098180.083 6  97479096.46643  93417474.709 7  23805379.734
  23805389.590    23805388.430          36.500          22.200          43.800
 117173376.194 6  91134863.061 6                  21950520.063    21950518.109
  21950524.219                          39.800          39.700
 115624987.034 6  90097409.67045                  22002697.438
  22002703.555                          41.900          30.900
 127466083.974 6  99324157.82443                  24255965.383
  24255971.797                          37.900          20.400
 106377151.018 7  82737826.396 6                  19900037.758    19900036.496
  19900043.363                          42.100          39.400
 129709054.461 5 101071924.78442                  24682788.250
  24682795.570                          33.600          15.600
 127063412.471 5  99010529.49643  94885082.745 7  24179363.992
  24179372.504    24179373.258          33.400          19.300          42.200
 108492346.475 7  84539531.72646                  20645399.242
  20645402.070                          45.500          40.700
 125046377.765 5  97258316.529 5                  23359709.688    23359707.824
  23359714.008                          35.500          34.400
 102023853.234 7  79351985.575 6                  19072275.578    19072275.129
  19072282.422                          45.800          40.200
 108044622.325 7  84190703.87846                  20560202.508
  20560208.426                          47.200          39.400
 119398665.958 6                  89161355.364 7  22720810.141
                  22720813.684          41.700                          45.100
 122647138.949 7                  91587195.540 8  23338963.773
                  23338968.004          46.300                          50.500
 114058737.176 7                  85173742.884 7  21704654.242
                  21704655.410          43.100                          45.800
 137158101.977 5                 102423291.095 6  26100313.250
                  26100317.809          35.500                          37.300
 106150321.748 7                  79268114.027 8  20199734.906
                  20199739.617          47.300                          50.300
 123153013.807 7                  91964962.549 7  23435232.414
                  23435237.957          42.400                          45.400
 19  7  9 10  1 21.0000000  0 21G06G29R24R08G30R22G13G07R01G15G09G02
                                R07R23G05E12E04E11E19E14E09
 117061975.115 6  91217230.20845  87416509.200 8  22276163.695
  22276172.738    22276173.191          40.000          31.500          48.800
 120210322.783 6  93670539.84644                  22875295.180
  22875301.859                          40.300          26.400
 112795346.339 6                                  21093300.148    21093299.137
                                        36.100
 106770230.374 7  83043541.588 7                  19938578.563    19938578.496
  19938582.172                          42.400          44.600
 125096306.503 6  97477636.54743  93416075.604 7  23805023.219
  23805033.121    23805031.773          37.000          22.500          44.200
 117177227.135 6  91137858.255 6                  21951241.063    21951239.648
  21951245.590                          40.200          39.700
 115621842.166 7  90094959.11745                  22002098.367
  22002104.793                          42.000          30.800
 127465606.775 6  99323785.96343                  24255874.797
  24255881.375                          37.700          20.400
 106376057.667 6  82736975.992 6                  19899833.328    19899831.832
  19899838.629                          41.800          39.300
 129705216.779 5 101068934.40542                  24682057.336
  24682065.250                          33.900          16.300
 127066795.383 5  99013165.49143  94887608.939 6  24180007.797
  24180016.148    24180016.965          33.400          18.600          41.500
 108492139.173 7  84539370.19546                  20645359.625
  20645362.656                          45.500          40.500
 125049970.116 5  97261110.566 5                  23360380.867    23360378.863
  23360384.949                          35.400          34.900
 102023944.974 7  79352056.907 6                  19072292.758    19072292.191
  19072299.633                          45.700          40.100
 108044138.093 7  84190326.56246                  20560110.211
  20560116.078                          47.800          39.500
 119400637.994 6                  89162827.981 7  22721185.445
                  22721188.793          41.800                          45.400
 122647306.439 7                  91587320.616 8  23338995.398
                  23338999.859          46.500                          50.800
 114058073.072 7                  85173246.968 7  21704527.695
                  21704528.980          43.100                          46.000
 137160519.776 5                 102425096.608 6  26100773.156
                  26100777.848          35.200                          37.400
 106154131.072 7                  79270958.651 8  20200459.688
                  20200464.570          47.000                          50.300
 123150877.709 7                  91963367.412 7  23434825.820
                  23434831.543          42.600                          45.200
 19  7  9 10  1 22.0000000  0 21G06G29R24R08G30R22G13G07R01G15G09G02
                                R07R23G05E12E04E11E19E14E09
 117064371.244 6  91219097.30845  87418298.522 8  22276619.656
  22276628.922    22276629.152          39.500          31.000          49.200
 120208141.028 6  93668839.79344                  22874879.906
  22874886.664                          40.300          26.800
 112792048.419 6                                  21092683.305    21092682.270
                                        36.200
 106772169.243 7  83045049.611 7                  19938940.906    19938940.301
  19938944.430                          42.800          44.400
 125094433.285 6  97476176.87243  93414676.777 7  23804667.313
  23804676.547    23804675.281          36.900          22.200          44.000
 117181078.501 6  91140853.774 6                  21951962.508    21951960.695
  21951967.316                          40.200          39.800
 115618697.712 6  90092508.90045                  22001500.367
  22001506.414                          41.600          30.200
 127465130.111 6  99323414.56543                  24255784.102
  24255790.266                          37.400          20.600
 106374964.913 6  82736126.079 6                  19899628.406    19899627.496
  19899634.133                          41.800          39.500
 129701379.247 5 101065944.08942                  24681326.883
  24681335.047                          33.500          15.600
 127070178.468 5  99015801.68143  94890135.262 6  24180651.695
  24180660.094    24180660.875          32.800          19.000          41.200
 108491932.297 7  84539208.98946                  20645320.289
  20645323.598                          45.600          40.500
 125053562.383 5  97263904.573 5                  23361051.125    23361050.176
  23361056.402                          35.900          34.700
 102024037.605 7  79352128.985 6                  19072309.789    19072309.504
  19072316.879                          45.500          40.300
 108043654.182 7  84189949.48446                  20560018.344
  20560023.828                          47.900          39.900
 119402610.386 7                  89164300.863 7  22721560.906
                  22721564.180          42.100                          45.400
 122647474.287 7                  91587445.960 8  23339027.453
                  23339031.730          46.600                          50.500
 114057409.355 7                  85172751.334 7  21704401.258
                  21704402.785          43.300                          45.700
 137162937.756 5                 102426902.225 6  26101233.219
                  26101237.793          35.300                          37.200
 106157941.382 7                  79273804.01018  20201184.813
                  20201189.492          47.000                          50.300
 123148741.885 7                  91961772.477 7  23434418.977
                  23434425.098          42.300                          45.200
 19  7  9 10  1 23.0000000  0 21G06G29R24R08G30R22G13G07R01G15G09G02
                                R07R23G05E12E04E11E19E14E09
 117066767.690 6  91220964.67045  87420088.072 8  22277075.281
  22277084.410    22277085.277          39.900          31.300          48.800
 120205959.774 6  93667140.12044                  22874464.938
  22874470.746                          40.300          26.400
 112788750.870 6                                  21092067.313    21092065.527
                                        36.200
 106774108.524 7  83046557.914 7                  19939303.008    19939302.473
  19939306.238                          42.700          44.200
 125092560.382 6  97474717.44843  93413278.167 7  23804310.266
  23804320.344    23804318.750          37.100          22.000          44.100
 117184930.202 6  91143849.520 6                  21952684.523    21952682.406
  21952689.109                          40.200          39.500
 115615553.602 6  90090058.95044                  22000902.000
  22000908.398                          41.100          29.600
 127464653.864 6  99323043.45743                  24255693.172
  24255700.094                          37.700          21.100
 106373872.658 7  82735276.571 6                  19899424.313    19899422.934
  19899430.063                          42.000          39.500
 129697541.783 5 101062953.83542                  24680596.938
  24680605.145                          32.900          15.600
 127073561.644 5  99018437.93143  94892661.684 6  24181295.352
  24181303.883    24181304.430          32.900          18.600          41.400
 108491725.817 7  84539048.09846                  20645281.016
  20645284.242                          45.700          40.200
 125057154.580 5  97266698.495 5                  23361723.688    23361721.543
  23361727.473                          35.900          34.400
 102024131.082 7  79352201.677 6                  19072327.820    19072327.066
  19072334.000                          45.500          40.600
 108043170.533 8  84189572.61446                  20559926.172
  20559931.836                          48.100          40.000
 119404583.014 7                  89165773.935 7  22721936.234
                  22721939.363          42.100                          44.800
 122647642.459 7                  91587571.538 8  23339059.344
                  23339063.699          46.400                          50.700
 114056745.975 7                  85172255.947 7  21704275.227
                  21704276.449          43.300                          45.600
 137165355.726 5                 102428707.902 6  26101693.391
                  26101697.813          35.000                          37.300
 106161752.660 7                  79276650.098 8  20201910.102
                  20201914.832          46.500                          50.300
 123146606.294 7                  91960177.708 7  23434012.617
                  23434018.645          42.400                          45.100
 19  7  9 10  1 24.0000000  0 21G06G29R24R08G30R22G13G07R01G15G09G02
                                R07R23G05E12E04E11E19E14E09
 117069164.459 6  91222832.28945  87421877.869 8  22277531.695
  22277540.879    22277541.426          40.400          31.700          48.700
 120203779.089 6  93665440.88744                  22874050.289
  22874056.340                          40.200          26.900
 112785453.855 5                                  21091450.539    21091449.270
                                        35.800
 106776048.193 7  83048066.544 7                  19939665.516    19939665.004
  19939668.453                          42.600          44.100
 125090687.816 6  97473258.32643  93411879.806 7  23803954.258
  23803963.848    23803962.406          36.800          22.200          44.100
 117188782.308 6  91146845.614 6                  21953405.570    21953404.395
  21953410.547                          40.000          39.800
 115612409.823 6  90087609.25745                  22000304.039
  22000310.184                          41.200          30.400
 127464178.112 6  99322672.74743                  24255602.133
  24255609.742                          37.600          21.100
 106372780.975 6  82734427.459 6                  19899219.820    19899218.863
  19899225.508                          41.600          39.200
 129693704.420 5 101059963.73842                  24679865.742
  24679874.492                          32.900          15.600
 127076945.076 5  99021074.32943  94895188.262 6  24181939.086
  24181948.164    24181948.301          32.500          18.300          41.600
 108491519.752 7  84538887.52946                  20645241.813
  20645245.098                          45.400          40.500
 125060746.748 5  97269492.404 5                  23362393.641    23362392.059
  23362398.453                          35.700          34.300
 102024225.439 7  79352275.046 6                  19072345.742    19072344.496
  19072351.711                          45.500          40.000
 108042687.172 8  84189195.97246                  20559834.484
  20559839.746                          48.000          39.600
 119406555.982 6                  89167247.261 7  22722311.727
                  22722314.980          41.700                          45.600
 122647810.982 7                  91587697.372 8  23339091.461
                  23339095.883          46.600                          50.500
 114056082.958 7                  85171760.845 7  21704148.961
                  21704150.363          43.000                          45.700
 137167773.847 5                 102430513.567 6  26102153.516
                  26102158.195          35.200                          37.200
 106165564.905 7                  79279496.898 8  20202635.711
                  20202640.301          46.600                          50.000
 123144470.927 7                  91958583.131 7  23433606.422
                  23433612.418          42.300                          45.500
 19  7  9 10  1 25.0000000  0 21G06G29R24R08G30R22G13G07R01G15G09G02
                                R07R23G05E12E04E11E19E14E09
 117071561.596 6  91224700.19245  87423667.949 8  22277987.992
  22277996.969    22277997.551          40.500          31.700          49.000
 120201598.930 6  93663742.07144                  22873635.156
  22873641.078                          40.500          26.500
 112782157.336 5                                  21090833.711    21090832.395
                                        35.700
 106777988.281 7  83049575.507 7                  19940027.672    19940026.832
  19940031.004                          42.700          44.300
 125088815.598 6  97471799.44743  93410481.737 7  23803597.359
  23803606.875    23803606.230          36.900          21.500          44.200
 117192634.837 6  91149842.029 6                  21954126.992    21954126.332
  21954132.461                          40.200          40.100
 115609266.507 6  90085159.92045                  21999705.813
  21999711.805                          41.400          30.300
 127463702.923 6  99322302.47943                  24255512.117
  24255518.871                          37.400          21.300
 106371689.876 7  82733578.845 6                  19899016.109    19899014.684
  19899021.957                          42.000          39.600
 129689867.147 5 101056973.62242                  24679135.969
  24679143.980                          33.500          15.600
 127080328.711 5  99023710.95343  94897714.957 6  24182583.633
  24182591.426    24182592.238          32.900          18.300          41.700
 108491314.136 7  84538727.30546                  20645203.086
  20645206.012                          45.500          40.600
 125064338.885 5  97272286.252 5                  23363063.867    23363063.105
  23363069.285                          35.700          34.900
 102024320.671 7  79352349.116 6                  19072363.359    19072362.418
  19072369.852                          45.600          40.300
 108042204.179 8  84188819.61446                  20559742.516
  20559747.641                          48.100          39.500
 119408529.318 6                  89168720.847 7  22722687.070
                  22722690.445          41.400                          45.300
 122647979.873 7                  91587823.504 8  23339123.609
                  23339127.965          46.400                          50.700
 114055420.360 7                  85171266.050 7  21704022.914
                  21704024.277          43.100                          45.800
 137170192.087 5                 102432319.430 6  26102613.773
                  26102618.426          35.300                          37.600
 106169378.191 7                  79282344.481 8  20203361.313
                  20203365.891          46.800                          50.400
 123142335.891 7                  91956988.785 7  23433200.203
                  23433206.129          42.600                          45.600
 19  7  9 10  1 26.0000000  0 21G06G29R24R08G30R22G13G07R01G15G09G02
                                R07R23G05E12E04E11E19E14E09
 117073959.033 6  91226568.31845  87425458.223 8  22278443.531
  22278453.164    22278453.910          40.400          31.400          48.800
 120199419.276 6  93662043.61444                  22873220.469
  22873226.391                          40.100          25.600
 112778861.239 5                                  21090217.203    21090216.523
                                        35.900
 106779928.707 7  83051084.731 7                  19940389.844    19940389.168
  19940393.086                          43.100          44.600
 125086943.691 6  97470340.80543  93409083.863 7  23803241.500
  23803250.828    23803250.117          36.500          22.200          43.700
 117196487.719 6  91152838.679 6                  21954849.352    21954847.938
  21954854.250                          40.400          40.200
 115606123.475 6  90082710.80844                  21999107.727
  21999113.855                          41.400          29.700
 127463228.154 6  99321932.50543                  24255421.352
  24255428.949                          37.200          20.400
 106370599.265 7  82732730.593 6                  19898812.305    19898810.996
  19898817.660                          42.200          39.600
 129686030.036 5 101053983.67542                  24678406.992
  24678414.031                          33.000          15.600
 127083712.370 5  99026347.57843  94900241.784 6  24183227.453
  24183235.828    24183236.254          32.400          18.600          41.600
 108491108.883 7  84538567.36646                  20645163.352
  20645166.789                          45.500          40.600
 125067930.887 5  97275080.076 5                  23363734.578    23363734.426
  23363740.738                          35.300          34.500
 102024416.696 7  79352423.828 6                  19072381.117    19072380.363
  19072387.813                          45.500          40.300
 108041721.414 8  84188443.43046                  20559650.570
  20559656.258                          48.000          39.300
 119410502.883 6                  89170194.620 7  22723062.359
                  22723066.066          41.600                          45.200
 122648149.055 7                  91587949.840 8  23339155.867
                  23339160.203          46.200                          50.700
 114054758.079 7                  85170771.499 7  21703896.859
                  21703898.117          43.400                          45.600
 137172610.360 5                 102434125.276 6  26103073.922
                  26103078.559          34.600                          37.200
 106173192.386 7                  79285192.743 8  20204087.148
                  20204091.742          47.000                          50.800
 123140201.009 7                  91955394.571 7  23432794.078
                  23432799.922          42.600                          45.600
 19  7  9 10  1 27.0000000  0 21G06G29R24R08G30R22G13G07R01G15G09G02
                                R07R23G05E12E04E11E19E14E09
 117076356.768 6  91228436.68145  87427248.749 8  22278900.531
  22278909.555    22278910.195          40.500          31.800          48.600
 120197240.144 6  93660345.59744                  22872805.781
  22872811.324                          40.300          25.600
 112775565.608 5                                  21089599.555    21089599.883
                                        35.900
 106781869.478 7  83052594.212 7                  19940752.719    19940751.574
  19940755.785                          43.000          44.700
 125085072.085 6  97468882.42243  93407686.244 7  23802885.875
  23802894.672    23802893.758          36.500          21.700          43.700
 117200340.956 6  91155835.648 6                  21955571.672    21955569.508
  21955575.762                          40.200          39.800
 115602980.809 6  90080261.97544                  21998509.266
  21998515.348                          41.100          29.700
 127462753.873 6  99321562.95243                  24255331.031
  24255338.637                          36.900          20.400
 106369509.202 6  82731882.760 6                  19898607.891    19898606.793
  19898613.543                          41.700          39.500
 129682192.910 5 101050993.62842                  24677675.984
  24677683.797                          32.900          15.600
 127087096.319 5  99028984.42143  94902768.723 6  24183871.414
  24183879.906    24183880.074          33.000          19.300          41.700
 108490904.050 7  84538407.75846                  20645124.703
  20645127.930                          45.800          40.400
 125071522.883 5  97277873.849 5                  23364405.984    23364405.738
  23364411.840                          35.700          34.600
 102024513.592 7  79352499.186 6                  19072399.148    19072398.160
  19072406.199                          45.300          40.300
 108041238.943 8  84188067.47946                  20559558.617
  20559564.266                          48.000          39.200
 119412476.752 6                  89171668.604 7  22723438.078
                  22723441.828          41.200                          45.000
 122648318.595 7                  91588076.438 8  23339188.000
                  23339192.316          45.800                          50.200
 114054096.139 7                  85170277.187 7  21703771.070
                  21703772.266          43.400                          45.800
 137175028.707 5                 102435931.186 6  26103534.266
                  26103538.844          35.300                          37.400
 106177007.563 7                  79288041.746 8  20204813.063
                  20204817.742          46.700                          50.800
 123138066.409 7                  91953800.547 7  23432387.453
                  23432393.531          42.500                          45.200
 19  7  9 10  1 28.0000000  0 21G06G29R24R08G30R22G13G07R01G15G09G02
                                R07R23G05E12E04E11E19E14E09
 117078754.898 6  91230305.35645  87429039.557 8  22279356.656
  22279365.902    22279366.578          41.100          31.900          48.400
 120195061.605 6  93658648.04144                  22872391.414
  22872396.910                          40.800          25.400
 112772270.469 6                                  21088985.141    21088983.801
                                        36.400
 106783810.701 7  83054104.033 7                  19941115.406    19941114.426
  19941118.211                          42.900          44.700
 125083200.833 6  97467424.30343  93406288.893 7  23802529.945
  23802538.504    23802537.848          37.000          21.800          43.700
 117204194.642 6  91158832.977 6                  21956292.922    21956291.508
  21956297.977                          40.400          39.400
 115599838.582 6  90077813.48645                  21997911.523
  21997917.309                          41.400          30.200
 127462280.114 6  99321193.77343                  24255240.969
  24255248.473                          37.100          20.100
 106368419.765 6  82731035.414 6                  19898403.617    19898403.152
  19898410.047                          41.700          40.100
 129678355.949 5 101048003.83642                  24676946.484
  24676953.859                          33.000          16.300
 127090480.376 5  99031621.39143  94905295.777 6  24184514.969
  24184523.707    24184524.063          33.300          18.600          41.400
 108490699.672 7  84538248.50646                  20645086.141
  20645088.625                          45.600          40.800
 125075114.855 5  97280667.581 5                  23365077.305    23365076.449
  23365082.621                          35.700          34.800
 102024611.380 7  79352575.221 6                  19072418.180    19072416.629
  19072424.242                          45.600          40.400
 108040756.807 8  84187691.78846                  20559466.695
  20559472.477                          48.300          39.400
 119414451.019 6                  89173142.869 7  22723813.836
                  22723817.348          41.100                          45.200
 122648488.488 7                  91588203.314 8  23339220.328
                  23339224.883          46.300                          50.200
 114053434.630 7                  85169783.195 7  21703644.922
                  21703646.242          43.200                          45.800
 137177447.201 5                 102437737.181 6  26103994.789
                  26103998.934          34.700                          37.300
 106180823.759 7                  79290891.502 8  20205539.156
                  20205543.953          46.900                          50.800
 123135932.099 7                  91952206.727 7  23431981.258
                  23431987.555          42.100                          45.100
 19  7  9 10  1 29.0000000  0 21G06G29R24R08G30R22G13G07R01G15G09G02
                                R07R23G05E12E04E11E19E14E09
 117081153.330 6  91232174.25945  87430830.593 8  22279812.758
  22279822.273    22279822.785          40.700          31.500          48.100
 120192883.599 6  93656950.88644                  22871976.664
  22871982.641                          40.500          25.800
 112768975.806 6                                  21088368.641    21088367.348
                                        36.000
 106785752.261 7  83055614.164 7                  19941478.227    19941476.566
  19941480.930                          42.900          43.800
 125081329.937 6  97465966.45743  93404891.783 7  23802173.695
  23802182.699    23802181.941          36.400          22.300          43.700
 117208048.712 6  91161830.581 6                  21957013.867    21957013.816
  21957020.039                          40.500          39.400
 115596696.677 6  90075365.24945                  21997314.477
  21997319.816                          41.600          30.400
 127461806.894 6  99320825.04343                  24255150.953
  24255158.379                          36.800          20.600
 106367330.824 7  82730188.455 6                  19898200.703    19898199.301
  19898206.535                          42.000          40.000
 129674519.133 5 101045014.11642                  24676216.063
  24676223.621                          33.100          15.600
 127093864.634 5  99034258.47743  94907823.025 6  24185158.438
  24185167.813    24185168.109          32.500          18.600          41.400
 108490495.687 7  84538089.55046                  20645046.938
  20645050.082                          45.600          40.300
 125078706.677 6  97283461.294 5                  23365748.039    23365747.230
  23365753.977                          36.200          34.900
 102024710.011 7  79352651.942 6                  19072435.805    19072435.004
  19072442.605                          45.500          39.900
 108040274.961 7  84187316.32546                  20559375.086
  20559380.652                          47.900          39.400
 119416425.516 6                  89174617.359 7  22724190.031
                  22724193.031          41.400                          45.200
 122648658.716 7                  91588330.433 8  23339252.883
                  23339257.094          46.500                          50.600
 114052773.432 7                  85169289.444 7  21703519.195
                  21703520.523          43.000                          45.500
 137179865.778 5                 102439543.258 6  26104454.914
                  26104459.148          34.600                          37.700
 106184640.938 7                  79293741.986 8  20206265.656
                  20206270.320          47.100                          50.800
 123133798.002 7                  91950613.096 7  23431575.039
                  23431581.426          42.100                          45.400
 19  7  9 10  1 30.0000000  0 21G06G29R24R08G30R22G13G07R01G15G09G02
                                R07R23G05E12E04E11E19E14E09
 117083552.097 6  91234043.43045  87432621.875 8  22280269.156
  22280279.000    22280279.313          41.100          31.300          48.300
 120190706.090 6  93655254.12944                  22871562.164
  22871568.027                          40.700          25.500
 112765681.593 6                                  21087752.008    21087751.984
                                        36.100
 106787694.275 7  83057124.602 7                  19941840.117    19941839.324
  19941843.738                          42.900          44.200
 125079459.336 6  97464508.85243  93403494.918 7  23801817.109
  23801826.758    23801825.867          36.500          22.300          43.900
 117211903.184 6  91164828.507 6                  21957736.000    21957735.621
  21957741.754                          40.200          39.500
 115593555.148 7  90072917.30844                  21996715.758
  21996721.887                          42.000          29.700
 127461334.086 6  99320456.62443                  24255061.266
  24255068.309                          36.300          20.600
 106366242.486 7  82729341.941 6                  19897996.273    19897995.691
  19898003.090                          42.100          40.000
 129670682.360 5 101042024.48142                  24675486.234
  24675493.449                          33.700          15.600
 127097249.045 5  99036895.67243  94910350.350 6  24185802.906
  24185811.742    24185812.066          33.400          18.600          41.600
 108490292.131 7  84537930.93446                  20645008.609
  20645011.707                          45.400          40.400
 125082298.562 6  97286254.974 5                  23366420.039    23366418.715
  23366424.598                          36.000          34.600
 102024809.513 7  79352729.357 6                  19072454.727    19072453.691
  19072461.172                          45.300          40.500
 108039793.416 8  84186941.09246                  20559283.508
  20559288.980                          48.000          39.800
 119418400.366 6                  89176092.074 7  22724565.648
                  22724568.820          41.500                          45.100
 122648829.296 7                  91588457.815 8  23339285.422
                  23339289.590          46.200                          50.500
 114052112.640 7                  85168795.999 7  21703393.234
                  21703394.684          43.300                          45.600
 137182284.410 5                 102441349.421 6  26104914.984
                  26104919.383          34.900                          37.300
 106188459.082 7                  79296593.192 8  20206992.320
                  20206996.809          46.800                          50.900
 123131664.173 6                  91949019.647 7  23431169.266
                  23431175.262          41.900                          45.600
 19  7  9 10  1 31.0000000  0 21G06G29R24R08G30R22G13G07R01G15G09G02
                                R07R23G05E12E04E11E19E14E09
 117085951.191 6  91235912.84945  87434413.398 8  22280725.422
  22280735.148    22280735.918          41.300          30.500          48.400
 120188529.120 6  93653557.80644                  22871148.016
  22871153.863                          40.900          25.800
 112762387.932 6                                  21087136.289    21087135.609
                                        36.100
 106789636.635 7  83058635.330 7                  19942203.242    19942202.215
  19942206.332                          42.900          44.500
 125077589.091 6  97463051.52443  93402098.303 7  23801461.047
  23801470.145    23801470.008          36.100          22.600          43.600
 117215758.049 6  91167826.744 6                  21958458.883    21958457.539
  21958464.023                          40.400          39.600
 115590413.989 7  90070469.64544                  21996118.508
  21996124.141                          42.100          29.900
 127460861.841 6  99320088.65743                  24254972.063
  24254978.168                          36.200          20.900
 106365154.631 7  82728495.864 6                  19897792.797    19897791.934
  19897799.090                          42.200          40.200
 129666845.722 5 101039034.85242                  24674756.453
  24674763.316                          33.100          15.600
 127100633.622 5  99039532.96243  94912877.804 6  24186446.133
  24186456.371    24186456.141          33.300          19.000          41.100
 108490088.955 7  84537772.61946                  20644969.430
  20644972.684                          45.100          40.900
 125085890.344 5  97289048.551 5                  23367090.852    23367089.738
  23367095.848                          35.600          34.300
 102024909.891 7  79352807.387 6                  19072473.688    19072472.629
  19072479.953                          45.200          40.200
 108039312.154 8  84186566.09146                  20559192.086
  20559197.945                          48.400          39.900
 119420375.491 6                  89177567.011 7  22724941.398
                  22724944.598          41.900                          45.200
 122649000.206 7                  91588585.442 8  23339318.094
                  23339322.223          46.400                          50.700
 114051452.206 7                  85168302.808 7  21703267.711
                  21703269.074          43.100                          45.500
 137184703.157 5                 102443155.630 6  26105375.094
                  26105379.848          35.000                          37.100
 106192278.195 7                  79299445.135 8  20207719.109
                  20207723.629          46.700                          50.700
 123129530.604 7                  91947426.386 7  23430763.156
                  23430769.160          42.300                          45.200
 19  7  9 10  1 32.0000000  0 21G06G29R24R08G30R22G13G07R01G15G09G02
                                R07R23G05E12E04E11E19E14E09
 117088350.559 6  91237782.49145  87436205.141 8  22281182.266
  22281191.723    22281192.520          41.100          30.900          48.500
 120186352.670 6  93651861.83944                  22870734.305
  22870739.957                          40.700          25.100
 112759094.614 6                                  21086521.008    21086519.855
                                        36.300
 106791579.320 7  83060146.326 7                  19942565.125    19942564.707
  19942568.813                          42.600          44.600
 125075719.127 6  97461594.39843  93400701.923 7  23801105.594
  23801114.465    23801114.512          36.300          21.100          44.000
 117219613.304 6  91170825.256 6                  21959181.266    21959180.016
  21959186.414                          40.200          39.400
 115587273.188 7  90068022.27144                  21995520.453
  21995526.668                          42.100          29.700
 127460389.989 6  99319720.97243                  24254882.398
  24254888.809                          36.000          20.400
 106364067.334 7  82727650.183 6                  19897589.992    19897588.918
  19897595.844                          42.300          40.100
 129663009.136 5 101036045.34542                  24674026.555
  24674033.551                          33.000          15.600
 127104018.349 5  99042170.43043  94915405.355 6  24187089.961
  24187099.813    24187100.207          32.400          18.300          41.200
 108489886.188 7  84537614.61746                  20644930.992
  20644933.895                          45.400          40.700
 125089482.103 5  97291842.123 5                  23367762.438    23367760.809
  23367766.555                          35.600          34.500
 102025011.093 7  79352886.120 6                  19072492.742    19072491.660
  19072499.051                          45.500          40.500
 108038831.168 8  84186191.29346                  20559100.461
  20559106.234                          48.100          40.300
 119422350.926 6                  89179042.172 7  22725317.078
                  22725320.563          41.300                          45.200
 122649171.425 7                  91588713.299 8  23339350.297
                  23339354.621          46.300                          50.400
 114050792.100 7                  85167809.864 7  21703141.945
                  21703143.418          43.400                          45.400
 137187121.947 5                 102444961.877 6  26105835.641
                  26105839.918          34.400                          37.000
 106196098.267 7                  79302297.781 8  20208446.063
                  20208450.578          46.700                          50.600
 123127397.221 7                  91945833.287 7  23430357.336
                  23430363.375          42.300                          45.400
 19  7  9 10  1 33.0000000  0 21G06G29R24R08G30R22G13G07R01G15G09G02
                                R07R23G05E12E04E11E19E14E09
 117090750.312 6  91239652.42045  87437997.167 8  22281638.953
  22281648.613    22281649.199          40.900          31.200          48.800
 120184176.794 6  93650166.36744                  22870320.047
  22870325.797                          40.800          26.000
 112755801.868 6                                  21085904.844    21085903.879
                                        36.200
 106793522.447 7  83061657.627 7                  19942928.289    19942927.473
  19942931.785                          42.600          44.700
 125073849.574 5  97460137.60343  93399305.801 7  23800749.828
  23800758.902    23800758.750          35.800          21.300          44.300
 117223468.966 6  91173824.120 6                  21959904.281    21959902.609
  21959908.508                          40.200          39.800
 115584132.765 6  90065575.19345                  21994922.859
  21994929.098                          41.800          30.000
 127459918.719 6  99319353.75843                  24254791.555
  24254798.852                          36.500          19.900
 106362980.616 7  82726804.956 6                  19897387.422    19897385.598
  19897392.316                          42.400          40.000
 129659172.679 5 101033055.89442                  24673295.297
  24673303.242                          33.800          13.900
 127107403.298 5  99044808.03543  94917933.091 6  24187733.930
  24187743.711    24187744.527          32.400          18.600          41.300
 108489683.851 7  84537456.95546                  20644892.477
  20644895.770                          45.200          40.400
 125093073.842 5  97294635.698 5                  23368432.609    23368431.824
  23368437.930                          35.500          35.000
 102025113.208 7  79352965.537 6                  19072511.086    19072510.520
  19072518.035                          45.400          40.400
 108038350.522 8  84185816.75946                  20559008.875
  20559014.973                          48.000          40.300
 119424326.709 6                  89180517.593 7  22725693.305
                  22725696.523          41.300                          45.200
 122649343.031 7                  91588841.444 8  23339383.063
                  23339387.367          46.100                          50.500
 114050132.401 7                  85167317.228 7  21703016.484
                  21703017.969          43.600                          45.500
 137189540.899 5                 102446768.202 6  26106296.148
                  26106300.453          34.600                          36.900
 106199919.360 7                  79305151.189 8  20209173.102
                  20209177.723          47.000                          50.500
 123125264.137 7                  91944240.399 7  23429951.461
                  23429957.367          42.400                          45.800
 19  7  9 10  1 34.0000000  0 21G06G29R24R08G30R22G13G07R01G15G09G02
                                R07R23G05E12E04E11E19E14E09
 117093150.395 6  91241522.61945  87439789.433 8  22282095.031
  22282104.992    22282106.043          40.300          31.400          48.400
 120182001.446 6  93648471.30444                  22869905.961
  22869911.934                          40.700          25.700
 112752509.529 5                                  21085289.578    21085288.238
                                        35.500
 106795465.924 7  83063169.244 7                  19943291.000    19943290.488
  19943294.766                          42.600          44.700
 125071980.312 5  97458681.05243  93397909.936 7  23800393.133
  23800403.066    23800403.102          35.500          20.900          44.600
 117227325.030 6  91176823.278 6                  21960626.563    21960624.914
  21960631.254                          40.200          39.800
 115580992.732 7  90063128.41345                  21994325.203
  21994331.465                          42.200          30.000
 127459447.900 6  99318986.88043                  24254702.242
  24254709.477                          37.200          20.400
 106361894.428 7  82725960.148 6                  19897183.711    19897182.590
  19897189.527                          42.100          40.200
 129655336.327 5 101030066.48142                  24672565.594
  24672573.207                          33.600          15.600
 127110788.404 5  99047445.78843  94920460.933 6  24188378.242
  24188387.969    24188388.926          32.800          19.600          41.400
 108489481.945 7  84537299.62546                  20644854.000
  20644857.227                          45.500          40.500
 125096665.470 5  97297429.196 5                  23369103.375    23369102.871
  23369108.332                          35.300          35.000
 102025216.178 7  79353045.641 6                  19072530.719    19072529.590
  19072537.301                          45.400          40.400
 108037870.188 8  84185442.47546                  20558917.883
  20558923.313                          48.000          40.200
 119426302.791 6                  89181993.232 7  22726069.383
                  22726072.441          41.400                          45.200
 122649514.977 7                  91588969.851 8  23339415.820
                  23339420.117          46.200                          50.800
 114049473.065 7                  85166824.871 7  21702891.102
                  21702892.469          43.000                          45.700
 137191959.941 5                 102448574.628 6  26106756.453
                  26106760.828          35.300                          37.100
 106203741.418 7                  79308005.332 8  20209900.578
                  20209905.008          47.300                          50.500
 123123131.311 7                  91942647.710 7  23429545.547
                  23429551.594          42.800                          45.400
 19  7  9 10  1 35.0000000  0 21G06G29R24R08G30R22G13G07R01G15G09G02
                                R07R23G05E12E04E11E19E14E09
 117095550.820 6  91243393.08545  87441581.955 7  22282552.625
  22282561.520    22282562.781          40.100          31.100          47.900
 120179826.653 6  93646776.64644                  22869491.563
  22869497.957                          40.500          24.700
 112749217.698 5                                  21084673.391    21084672.543
                                        35.400
 106797409.783 7  83064681.114 7                  19943654.281    19943653.699
  19943657.770                          43.000          44.700
 125070111.386 5  97457224.73643  93396514.313 7  23800038.609
  23800047.527    23800047.777          35.500          21.800          44.600
 117231181.449 6  91179822.736 6                  21961349.516    21961347.797
  21961353.324                          40.700          40.000
 115577853.070 7  90060681.92545                  21993727.969
  21993734.105                          42.200          30.400
 127458977.621 6  99318620.43843                  24254613.148
  24254620.023                          36.500          20.100
 106360808.807 7  82725115.780 6                  19896980.289    19896979.613
  19896986.395                          42.200          40.000
 129651500.035 5 101027077.16342                  24671834.336
  24671842.918                          33.100          16.300
 127114173.694 5  99050083.71443  94922988.890 6  24189023.359
  24189032.016    24189032.703          33.000          19.000          41.600
 108489280.466 7  84537142.63046                  20644815.633
  20644818.719                          45.700          40.300
 125100257.007 5  97300222.612 5                  23369775.039    23369773.434
  23369779.254                          35.300          35.000
 102025320.025 7  79353126.394 6                  19072550.430    19072549.160
  19072556.715                          45.700          40.200
 108037390.109 7  84185068.39446                  20558826.359
  20558831.793                          47.800          40.100
 119428279.162 6                  89183469.092 7  22726445.445
                  22726448.547          41.700                          45.200
 122649687.258 7                  91589098.509 8  23339448.617
                  23339452.859          46.400                          51.200
 114048814.070 7                  85166332.777 7  21702765.648
                  21702767.008          43.000                          45.600
 137194379.026 5                 102450381.142 6  26107216.438
                  26107221.027          35.000                          36.800
 106207564.462 7                  79310860.197 8  20210627.883
                  20210632.563          47.100                          50.500
 123120998.756 7                  91941055.204 7  23429139.750
                  23429145.637          42.400                          45.200
 19  7  9 10  1 36.0000000  0 21G06G29R24R08G30R22G13G07R01G15G09G02
                                R07R23G05E12E04E11E19E14E09
 117097951.588 6  91245263.80545  87443374.748 8  22283009.523
  22283018.996    22283019.559          40.400          31.100          48.100
 120177652.407 6  93645082.41844                  22869077.953
  22869084.441                          40.600          25.300
 112745926.367 5                                  21084058.320    21084057.473
                                        35.700
 106799354.050 7  83066193.337 7                  19944017.539    19944016.723
  19944020.734                          43.200          44.900
 125068242.875 5  97455768.75243  93395118.993 7  23799682.648
  23799691.734    23799692.426          35.800          22.300          44.300
 117235038.304 6  91182822.482 6                  21962072.164    21962070.492
  21962076.273                          41.000          39.500
 115574713.789 7  90058235.72445                  21993130.875
  21993136.895                          42.400          30.700
 127458507.823 6  99318254.34243                  24254523.383
  24254530.313                          36.600          19.300
 106359723.735 7  82724271.831 6                  19896777.789    19896776.785
  19896783.426                          42.200          39.700
 129647663.967 5 101024088.06242                  24671105.461
  24671113.098                          33.000          16.300
 127117559.163 5  99052721.76743  94925517.018 6  24189668.273
  24189676.301    24189676.832          33.200          19.300          41.400
 108489079.424 7  84536985.97246                  20644777.484
  20644780.492                          45.500          40.400
 125103848.537 5  97303015.993 5                  23370446.664    23370444.402
  23370450.352                          35.900          35.000
 102025424.731 7  79353207.854 6                  19072569.922    19072568.770
  19072576.336                          45.300          40.300
 108036910.394 7  84184694.58846                  20558734.766
  20558740.809                          47.800          39.200
 119430255.908 6                  89184945.218 7  22726821.469
                  22726824.742          41.600                          45.200
 122649859.916 7                  91589227.438 8  23339481.523
                  23339485.727          46.300                          51.200
 114048155.479 7                  85165840.973 7  21702640.570
                  21702641.844          43.100                          45.400
 137196798.284 5                 102452187.668 6  26107676.602
                  26107681.344          34.700                          37.100
 106211388.511 7                  79313715.814 8  20211355.539
                  20211360.203          46.600                          50.500
 123118866.424 7                  91939462.910 7  23428734.133
                  23428739.844          42.300                          45.200
 19  7  9 10  1 37.0000000  0 21G06G29R24R08G30R22G13G07R01G15G09G02
                                R07R23G05E12E04E11E19E14E09
 117100352.634 6  91247134.75145  87445167.734 7  22283466.305
  22283475.684    22283476.445          40.400          31.400          47.800
 120175478.658 6  93643388.59144                  22868664.922
  22868670.395                          40.800          25.500
 112742635.488 5                                  21083442.156    21083442.016
                                        35.600
 106801298.704 7  83067705.835 7                  19944381.422    19944380.113
  19944383.988                          43.200          45.000
 125066374.608 5  97454312.96843  93393723.849 7  23799327.500
  23799336.363    23799337.082          35.800          21.300          43.900
 117238895.488 6  91185822.517 6                  21962794.266    21962792.594
  21962798.785                          41.100          39.800
 115571574.847 7  90055789.79745                  21992533.375
  21992539.383                          42.300          31.200
 127458038.510 6  99317888.66743                  24254434.820
  24254441.008                          37.000          20.400
 106358639.183 7  82723428.298 6                  19896574.516    19896573.840
  19896580.184                          42.200          39.600
 129643827.921 5 101021098.89342                  24670374.523
  24670383.320                          32.300          16.300
 127120944.743 5  99055359.85643  94928045.224 6  24190312.195
  24190320.742    24190321.207          33.000          19.000          41.500
 108488878.739 7  84536829.58946                  20644739.148
  20644742.418                          45.600          40.500
 125107439.926 5  97305809.315 5                  23371117.453    23371115.285
  23371121.379                          35.900          34.900
 102025530.269 7  79353289.910 6                  19072589.102    19072588.207
  19072595.988                          45.400          40.200
 108036430.922 7  84184320.97546                  20558643.391
  20558649.336                          47.600          39.700
 119432232.888 6                  89186421.570 7  22727197.750
                  22727200.906          41.500                          45.300
 122650032.873 7                  91589356.594 8  23339514.406
                  23339518.555          45.700                          50.300
 114047497.239 7                  85165349.424 7  21702515.195
                  21702516.391          43.200                          45.500
 137199217.574 5                 102453994.300 6  26108137.383
                  26108141.820          34.900                          37.100
 106215213.497 7                  79316572.142 8  20212083.539
                  20212088.094          46.900                          50.000
 123116734.352 7                  91937870.758 7  23428328.258
                  23428334.086          42.300                          45.100
 19  7  9 10  1 38.0000000  0 21G06G29R24R08G30R22G13G07R01G15G09G02
                                R07R23G05E12E04E11E19E14E09
 117102754.005 6  91249005.94845  87446960.960 8  22283923.211
  22283932.617    22283933.398          40.200          31.400          48.000
 120173305.423 6  93641695.16144                  22868250.984
  22868257.242                          40.800          24.300
 112739345.010 5                                  21082826.563    21082826.539
                                        35.900
 106803243.721 7  83069218.617 7                  19944742.609    19944743.246
  19944747.348                          43.000          44.700
 125064506.651 5  97452857.41843  93392328.956 7  23798971.438
  23798980.836    23798981.789          35.700          21.500          44.100
 117242753.017 6  91188822.827 6                  21963517.430    21963515.242
  21963521.250                          41.300          39.500
 115568436.241 7  90053344.12845                  21991936.109
  21991942.270                          42.400          30.600
 127457569.639 6  99317523.28743                  24254345.266
  24254351.203                          36.400          21.700
 106357555.152 7  82722585.169 6                  19896372.141    19896370.855
  19896377.715                          42.000          39.600
 129639991.978 5 101018109.83642                  24669645.195
  24669653.492                          32.400          15.600
 127124330.485 5  99057998.11843  94930573.532 6  24190956.500
  24190964.727    24190965.520          33.800          19.000          41.300
 108488678.472 7  84536673.54346                  20644701.313
  20644704.172                          45.900          40.200
 125111031.309 5  97308602.643 5                  23371787.836    23371786.746
  23371792.309                          35.200          34.800
 102025636.624 7  79353372.635 6                  19072608.953    19072608.246
  19072615.996                          45.400          40.200
 108035951.713 7  84183947.56746                  20558552.094
  20558558.258                          47.100          39.400
 119434210.206 6                  89187898.109 7  22727573.984
                  22727577.141          41.400                          45.500
 122650206.147 7                  91589485.979 8  23339547.445
                  23339551.617          46.000                          50.500
 114046839.326 7                  85164858.130 7  21702389.969
                  21702391.207          42.900                          45.400
 137201636.927 5                 102455800.931 6  26108597.789
                  26108602.137          35.100                          36.900
 106219039.432 7                  79319429.165 8  20212811.586
                  20212816.145          47.400                          50.000
 123114602.499 7                  91936278.791 7  23427922.445
                  23427928.477          42.600                          45.100
