     2.11           OBSERVATION DATA    M (MIXED)           RINEX VERSION / TYPE
teqc  2016Apr1      bjfs                20190111 00:25:03UTCPGM / RUN BY / DATE
Linux 2.4.21-27.ELsmp|Opteron|gcc|Linux x86_64|=+           COMMENT
BIT 2 OF LLI FLAGS DATA COLLECTED UNDER A/S CONDITION       COMMENT
BJFS                                                        MARKER NAME
21601M001                                                   MARKER NUMBER
GNSS Observer       CASM                                    OBSERVER / AGENCY
5310K42306          TRIMBLE NETR9       4.85                REC # / TYPE / VERS
5317361110          TRM59900.00     SCIS                    ANT # / TYPE
 -2148744.8320  4426641.7236  4044656.2003                  APPROX POSITION XYZ
        0.0465        0.0000        0.0000                  ANTENNA: DELTA H/E/N
     1     1                                                WAVELENGTH FACT L1/2
     7    L1    L2    C1    P1    P2    S1    S2            # / TYPES OF OBSERV
    18                                                      LEAP SECONDS
 SNR is mapped to RINEX snr flag value [0-9]                COMMENT
  L1 & L2: min(max(int(snr_dBHz/6), 0), 9)                  COMMENT
  2019     1    10     0     0    0.0000000     GPS         TIME OF FIRST OBS
                                                            END OF HEADER
 19  1 10  0  0  0.0000000  0 15R03G05G21G13R19R13G02R20R04G30R14R18
                                G29G15R05
 124717428.202 6  97002460.096 5  23298267.180    23298266.176    23298269.234
        38.400          35.600
 111656706.958 8  87005262.59846  21247566.188                    21247570.359
        49.600          41.000
 124853557.988 7  97288514.92244  23758842.766                    23758846.859
        42.600          27.000
 106271633.074 7  82809079.21947  20222820.461                    20222824.539
        47.200          43.600
 106692003.315 7  82982674.244 7  19944945.484    19944945.125    19944947.152
        45.200          45.100
 123749613.125 5  96249706.268 5  23174325.063    23174324.023    23174327.723
        33.500          30.900
 119111777.122 6  92814381.36145  22666216.977                    22666219.023
        41.800          30.900
 109156016.379 7  84899126.074 8  20412722.813    20412722.816    20412726.148
        44.500          48.000
 106110039.762 8  82530041.677 7  19815303.000    19815301.668    19815304.379
        49.500          47.200
 124655594.117 6  97134259.71144  23721173.570                    23721180.691
        37.700          24.400
 125562596.407 6  97659803.864 6  23555224.063    23555223.051    23555226.871
        38.300          36.300
 125640500.378 6  97720402.899 6  23536702.898    23536701.352    23536706.375
        36.000          36.500
 114577783.464 8  89281411.37046  21803427.563                    21803432.531
        48.700          37.600
 109818620.472 8  85572964.63647  20897789.695                    20897794.438
        50.400          42.300
 109559331.702 8  85212831.597 7  20495343.773    20495343.504    20495345.164
        50.400          46.000
 19  1 10  0  0 30.0000000  0 15R03G05G21G13R19R13G02R20R04G30R14R18
                                G29G15R05
 124816112.266 6  97079214.295 5  23316701.453    23316701.035    23316704.316
        38.500          35.200
 111707734.063 8  87045023.96946  21257275.961                    21257280.730
        49.600          40.900
 124770465.052 7  97223767.18144  23743030.844                    23743034.770
        43.400          27.000
 106269875.869 7  82807709.97547  20222486.477                    20222490.270
        47.400          43.200
 106769463.777 7  83042921.244 7  19959426.938    19959425.285    19959427.613
        44.700          43.800
 123726906.088 5  96232045.238 5  23170073.266    23170071.520    23170075.598
        33.000          30.100
 119195675.660 7  92879756.81445  22682182.461                    22682184.859
        42.200          30.100
 109094032.275 7  84850916.226 7  20401130.844    20401131.551    20401134.988
        44.300          46.600
 106154904.960 8  82564936.833 7  19823680.852    19823680.457    19823682.918
        49.800          46.800
 124673466.299 6  97148186.05743  23724574.758                    23724580.762
        39.100          22.800
 125468072.944 6  97586285.588 5  23537491.281    23537490.391    23537493.883
        37.000          34.700
 125776320.453 6  97826040.685 5  23562147.984    23562145.383    23562149.605
        36.100          35.800
 114631761.590 8  89323472.21946  21813698.961                    21813704.203
        49.100          36.900
 109753210.109 8  85521995.52246  20885342.391                    20885347.336
        50.600          41.600
 109513053.280 8  85176837.277 7  20486686.094    20486686.293    20486688.098
        50.600          45.700
 19  1 10  0  1  0.0000000  0 15R03G05G21G13R19R13G02R20R04G30R14R18
                                G29G15R05
 124914752.245 6  97155934.264 6  23335126.617    23335126.906    23335131.402
        36.900          36.400
 111758960.470 8  87084940.64046  21267024.344                    21267028.875
        50.100          41.100
 124687482.567 7  97159105.49844  23727240.039                    23727243.301
        42.900          26.400
 106268692.067 7  82806787.53647  20222260.945                    20222265.191
        47.300          43.400
 106847600.097 7  83103693.914 7  19974033.141    19974032.426    19974034.535
        44.600          45.100
 123704903.037 5  96214931.757 5  23165954.516    23165951.480    23165955.680
        32.600          32.700
 119279876.884 6  92945368.11845  22698205.297                    22698207.578
        41.600          30.200
 109032744.128 7  84803247.660 7  20389670.320    20389670.910    20389674.281
        44.600          47.300
 106200067.321 8  82600063.101 7  19832114.797    19832113.465    19832116.137
        50.000          47.700
 124691872.098 6  97162528.24243  23728076.781                    23728083.730
        38.400          23.000
 125373819.139 6  97512977.153 6  23519810.172    23519808.223    23519812.488
        38.900          37.100
 125912234.622 5  97931751.619 6  23587609.063    23587607.047    23587611.086
        35.800          36.200
 114686243.284 8  89365925.46746  21824066.852                    21824071.426
        48.700          37.500
 109688253.873 8  85471380.28147  20872981.578                    20872986.344
        50.200          43.100
 109467145.123 8  85141130.954 7  20478098.727    20478098.223    20478100.059
        50.000          46.300
 19  1 10  0  1 30.0000000  0 15R03G05G21G13R19R13G02R20R04G30R14R18
                                G29G15R05
 125013346.972 6  97232619.008 5  23353546.867    23353545.512    23353549.473
        37.100          35.300
 111810384.960 8  87125011.66946  21276809.961                    21276814.504
        50.400          40.800
 124604612.047 7  97094531.07844  23711470.523                    23711474.434
        43.400          26.800
 106268080.687 7  82806311.14047  20222144.242                    20222148.602
        47.800          43.000
 106926408.212 7  83164989.090 7  19988765.727    19988764.777    19988766.934
        45.000          44.200
 123683605.108 5  96198366.706 5  23161965.039    23161962.941    23161966.746
        33.400          31.400
 119364378.854 6  93011213.78745  22714285.359                    22714287.852
        41.800          30.500
 108972154.748 7  84756122.566 7  20378340.398    20378339.934    20378343.090
        44.200          46.400
 106245524.444 8  82635418.625 7  19840603.758    19840602.777    19840605.188
        50.200          46.600
 124710810.517 6  97177285.44843  23731681.523                    23731687.715
        38.300          22.600
 125279839.446 6  97439881.881 6  23502179.430    23502178.656    23502182.734
        38.100          36.700
 126048238.555 5  98037532.420 5  23613086.922    23613085.375    23613089.645
        35.800          35.400
 114741225.373 8  89408768.63846  21834529.719                    21834534.270
        49.300          37.000
 109623752.192 8  85421119.23247  20860707.477                    20860712.215
        50.600          42.600
 109421605.811 8  85105711.475 7  20469579.039    20469578.652    20469580.832
        50.400          46.000
 19  1 10  0  2  0.0000000  0 15R03G05G21G13R19R13G02R20R04G30R14R18
                                G29G15R05
 125111894.441 6  97309266.969 5  23371955.961    23371955.426    23371958.824
        37.200          35.300
 111862006.921 8  87165236.56346  21286633.109                    21286637.785
        50.800          40.900
 124521855.123 7  97030045.16644  23695722.852                    23695726.000
        43.900          27.200
 106268040.842 7  82806280.09547  20222136.953                    20222140.871
        47.700          43.800
 107005885.428 7  83226804.677 7  20003622.414    20003621.938    20003623.844
        44.400          44.600
 123663014.072 5  96182351.467 5  23158108.938    23158106.840    23158111.082
        32.900          31.200
 119449179.883 6  93077292.48845  22730422.477                    22730425.000
        41.100          30.500
 108912267.026 7  84709543.235 7  20367141.250    20367140.434    20367143.824
        44.500          46.900
 106291274.203 8  82671001.786 8  19849147.398    19849146.652    19849148.738
        49.900          48.200
 124730281.423 6  97192457.56443  23735385.352                    23735393.328
        37.600          22.300
 125186137.812 6  97367002.879 5  23484600.930    23484599.332    23484603.363
        37.900          35.600
 126184328.802 5  98143380.321 5  23638580.789    23638579.477    23638583.555
        35.800          35.600
 114796705.882 8  89452000.19046  21845087.016                    21845091.820
        48.700          37.200
 109559706.458 8  85371213.48047  20848519.727                    20848524.754
        50.500          42.600
 109376435.185 8  85070578.772 7  20461129.102    20461128.598    20461130.516
        50.200          46.800
 19  1 10  0  2 30.0000000  0 15R03G05G21G13R19R13G02R20R04G30R14R18
                                G29G15R05
 125210394.735 6  97385878.288 5  23390357.727    23390355.785    23390359.883
        37.300          35.300
 111913826.415 8  87205615.38046  21296494.359                    21296498.672
        51.000          40.400
 124439213.330 7  96965648.95844  23679995.672                    23679999.305
        42.600          25.300
 106268572.192 7  82806694.13847  20222237.539                    20222241.535
        47.500          43.400
 107086028.552 7  83289138.213 7  20018604.766    20018604.051    20018606.262
        44.300          44.400
 123643131.634 5  96166887.377 5  23154384.445    23154383.289    23154387.805
        33.000          31.800
 119534279.216 6  93143603.63344  22746616.008                    22746619.363
        41.000          29.700
 108853084.552 7  84663512.408 7  20356073.547    20356072.965    20356076.715
        44.100          47.200
 106337315.283 8  82706811.502 7  19857744.906    19857743.691    19857746.258
        49.800          47.000
 124750284.745 6  97208044.56843  23739192.523                    23739199.527
        37.900          23.500
 125092719.151 6  97294344.017 6  23467076.328    23467075.789    23467079.188
        39.100          37.000
 126320502.219 5  98249292.921 5  23664090.227    23664089.855    23664093.625
        35.800          35.500
 114852682.271 8  89495618.13946  21855738.922                    21855743.922
        49.100          37.000
 109496117.858 8  85321663.93047  20836419.219                    20836423.914
        51.300          42.000
 109331632.855 8  85035732.518 7  20452747.695    20452747.777    20452749.773
        50.100          46.400
 19  1 10  0  3  0.0000000  0 15R03G05G21G13R19R13G02R20R04G30R14R18
                                G29G15R05
 125308846.040 6  97462451.510 6  23408748.250    23408747.012    23408750.832
        37.100          37.000
 111965842.443 8  87246147.34446  21306392.813                    21306397.391
        50.800          40.600
 124356688.440 7  96901343.84144  23664291.961                    23664295.512
        42.500          27.300
 106269673.477 7  82807552.28647  20222447.484                    20222451.453
        47.300          43.100
 107166835.196 7  83351987.786 7  20033710.742    20033709.793    20033711.781
        44.600          44.700
 123623959.661 5  96151975.79915  23150796.938    23150793.316    23150796.957
        34.000          30.800
 119619674.937 6  93210145.73044  22762866.734                    22762869.215
        40.600          29.800
 108794610.143 7  84618032.309 7  20345138.477    20345138.598    20345141.645
        44.200          47.500
 106383644.645 8  82742845.438 7  19866396.930    19866395.832    19866398.477
        49.700          47.400
 124770819.794 6  97224045.89944  23743100.328                    23743107.215
        38.400          24.000
 124999587.377 6  97221908.326 6  23449604.367    23449603.828    23449607.754
        38.300          37.000
 126456754.698 5  98355266.951 6  23689615.156    23689614.082    23689618.641
        35.500          36.500
 114909151.647 8  89539620.23746  21866484.930                    21866489.805
        48.400          36.600
 109432987.115 8  85272471.15147  20824405.914                    20824410.738
        50.300          42.700
 109287197.886 8  85001171.969 7  20444434.914    20444435.113    20444437.070
        50.100          46.900
 19  1 10  0  3 30.0000000  0 15R03G05G21G13R19R13G02R20R04G30R14R18
                                G29G15R05
 125407248.875 6  97538987.004 5  23427131.570    23427129.746    23427133.461
        36.900          35.300
 112018055.877 8  87286833.12746  21316328.945                    21316333.156
        50.200          41.300
 124274283.448 7  96837132.16644  23648610.961                    23648614.766
        42.700          28.500
 106271345.444 7  82808855.12447  20222765.844                    20222769.750
        47.100          43.500
 107248302.940 7  83415351.575 7  20048940.133    20048939.418    20048941.441
        45.000          44.200
 123605500.265 5  96137618.480 5  23147339.078    23147335.926    23147339.727
        34.500          31.300
 119705367.102 6  93276918.81845  22779173.313                    22779175.570
        41.500          31.000
 108736847.901 7  84573106.135 7  20334336.250    20334335.785    20334339.430
        44.200          47.400
 106430261.929 8  82779103.326 7  19875102.547    19875101.098    19875103.598
        49.900          47.300
 124791887.529 6  97240462.31844  23747109.742                    23747115.738
        37.900          24.600
 124906748.334 6  97149700.184 6  23432187.250    23432187.180    23432190.859
        38.800          36.800
 126593083.981 6  98461300.760 6  23715156.266    23715154.250    23715157.879
        36.400          36.200
 114966113.167 7  89584005.81246  21877324.250                    21877328.621
        47.700          36.900
 109370316.510 8  85223636.92647  20812479.914                    20812484.445
        50.300          42.600
 109243130.995 8  84966897.718 7  20436191.359    20436190.738    20436192.813
        50.600          46.700
 19  1 10  0  4  0.0000000  0 15R03G05G21G13R19R13G02R20R04G30R14R18
                                G29G15R05
 125505599.743 6  97615482.094 5  23445504.891    23445502.949    23445506.309
        36.300          35.400
 112070464.018 8  87327670.62946  21326301.484                    21326306.352
        50.900          40.500
 124191998.349 7  96773013.89944  23632952.117                    23632955.637
        43.200          27.900
 106273585.105 7  82810600.31947  20223191.789                    20223195.770
        47.900          43.000
 107330427.342 7  83479226.089 7  20064292.742    20064291.793    20064294.035
        44.300          45.200
 123587752.991 5  96123815.051 5  23144015.914    23144013.465    23144016.742
        33.700          31.100
 119791352.120 6  93343920.11344  22795536.156                    22795537.984
        41.000          29.600
 108679799.134 7  84528734.832 8  20323667.906    20323668.379    20323671.859
        44.000          48.000
 106477162.675 8  82815581.679 7  19883860.594    19883858.910    19883861.723
        49.800          47.300
 124813485.516 6  97257291.88543  23751218.477                    23751226.176
        38.500          22.900
 124814204.280 6  97077721.525 6  23414827.305    23414826.059    23414829.910
        38.400          37.300
 126729484.494 5  98567389.942 6  23740707.461    23740705.328    23740710.180
        35.400          37.300
 115023562.168 7  89628771.25046  21888256.563                    21888261.465
        47.900          37.200
 109308104.681 8  85175160.18147  20800641.680                    20800646.035
        49.800          42.400
 109199429.793 8  84932907.882 7  20428016.648    20428016.496    20428018.480
        50.400          46.700
 19  1 10  0  4 30.0000000  0 15R03G05G21G13R19R13G02R20R04G30R14R18
                                G29G15R05
 125603898.395 6  97691936.525 5  23463867.242    23463866.824    23463869.707
        36.800          35.800
 112123067.086 8  87368660.02646  21336311.570                    21336315.992
        50.600          40.800
 124109835.369 7  96708990.80044  23617317.227                    23617320.918
        42.600          27.400
 106276392.477 7  82812787.88047  20223726.195                    20223730.223
        47.800          43.100
 107413205.910 7  83543609.403 7  20079767.500    20079765.730    20079768.180
        43.800          44.000
 123570720.561 5  96110567.643 5  23140825.227    23140823.719    23140827.348
        33.900          32.000
 119877629.213 6  93411148.99545  22811953.664                    22811956.074
        40.800          30.300
 108623467.417 7  84484921.270 7  20313134.070    20313133.254    20313136.883
        44.500          47.200
 106524346.114 8  82852279.888 7  19892671.453    19892670.355    19892673.164
        49.900          46.500
 124835614.102 6  97274534.94143  23755429.211                    23755436.957
        38.000          22.900
 124721960.312 6  97005976.299 6  23397521.258    23397520.953    23397524.375
        38.600          36.200
 126865953.466 5  98673532.387 6  23766272.047    23766271.324    23766276.262
        35.100          37.900
 115081496.769 7  89673915.08146  21899280.695                    21899285.727
        47.800          37.000
 109246353.625 8  85127042.48347  20788890.781                    20788895.496
        49.600          42.800
 109156094.269 8  84899202.478 7  20419909.773    20419909.621    20419911.648
        50.600          46.000
 19  1 10  0  5  0.0000000  0 15R03G05G21G13R19R13G02R20R04G30R14R18
                                G29G15R05
 125702146.425 5  97768351.652 6  23482220.070    23482218.363    23482222.633
        35.400          36.300
 112175867.222 8  87409802.98546  21346359.070                    21346363.629
        50.900          40.800
 124027798.749 7  96645066.16244  23601706.273                    23601710.105
        42.300          27.200
 106279769.306 8  82815419.18047  20224368.633                    20224372.559
        48.900          43.200
 107496637.663 7  83608500.760 7  20095363.242    20095362.883    20095365.063
        43.900          44.300
 123554406.683 5  96097879.044 5  23137770.391    23137768.176    23137772.219
        34.300          31.400
 119964199.633 6  93478606.45445  22828427.508                    22828430.223
        40.700          30.400
 108567858.482 7  84441669.876 7  20302734.445    20302734.332    20302738.008
        44.000          47.100
 106571812.305 8  82889198.042 7  19901535.352    19901534.723    19901537.555
        50.200          47.400
 124858275.526 6  97292193.19443  23759742.484                    23759749.723
        37.900          22.500
 124630023.545 6  96934469.914 5  23380275.563    23380273.965    23380277.020
        38.100          35.800
 127002490.005 5  98779727.333 6  23791849.758    23791848.918    23791853.727
        35.500          37.400
 115139916.954 7  89719437.28846  21910398.195                    21910403.133
        47.900          36.800
 109185066.712 8  85079286.45747  20777228.148                    20777232.898
        50.200          42.500
 109113126.546 8  84865783.137 7  20411871.617    20411872.168    20411874.063
        50.200          46.400
 19  1 10  0  5 30.0000000  0 16R03G05G21G13R19G24R13G02R20R04G30R14
                                R18G29G15R05
 125800339.717 5  97844724.173 5  23500564.898    23500562.840    23500566.703
        35.800          35.000
 112228860.695 8  87451096.59246  21356443.000                    21356448.082
        51.100          40.800
 123945887.373 7  96581239.11944  23586118.844                    23586122.633
        42.600          27.300
 106283711.478 8  82818491.00747  20225118.930                    20225123.027
        48.900          43.000
 107580716.520 7  83673895.401 7  20111082.086    20111080.668    20111083.102
        44.300          43.600
 132014206.37515 102868259.23452  25121470.961                    25121480.180
        33.600          16.900
 123538810.146 5  96085748.408 5  23134849.766    23134846.965    23134851.000
        34.100          31.500
 120051058.588 6  93546288.73345  22844956.438                    22844958.879
        40.900          30.300
 108512971.902 7  84398980.307 7  20292470.805    20292470.809    20292474.047
        44.600          47.200
 106619556.361 8  82926332.290 7  19910451.641    19910450.543    19910453.129
        49.600          46.600
 124881466.042 6  97310263.72143  23764155.000                    23764161.969
        38.700          22.200
 124538395.198 6  96863203.441 6  23363085.703    23363084.223    23363088.059
        37.800          36.800
 127139087.237 6  98885969.575 6  23817440.461    23817437.625    23817442.867
        36.200          37.700
 115198817.449 8  89765333.75746  21921606.422                    21921611.547
        48.100          37.000
 109124241.915 8  85031890.51447  20765653.633                    20765658.219
        51.100          42.500
 109070522.817 8  84832646.895 7  20403901.922    20403902.004    20403903.699
        50.500          46.200
 19  1 10  0  6  0.0000000  0 16R03G05G21G13R19G24R13G02R20R04G30R14
                                R18G29G15R05
 125898479.857 5  97921055.305 6  23518898.156    23518896.566    23518899.957
        35.800          36.500
 112282049.436 8  87492542.35246  21366564.867                    21366569.340
        50.800          40.200
 123864105.169 7  96517512.71944  23570556.195                    23570559.945
        42.300          28.500
 106288220.531 8  82822004.56147  20225976.898                    20225980.727
        49.700          43.300
 107665441.784 7  83739792.816 7  20126919.805    20126918.621    20126920.926
        44.100          44.100
 131904835.274 5 102783034.97042  25100658.516                    25100667.496
        33.900          17.400
 123523934.485 5  96074178.440 5  23132064.203    23132062.223    23132065.129
        32.600          31.200
 120138207.401 6  93614196.86944  22861540.289                    22861542.500
        41.100          29.700
 108458813.093 7  84356856.806 7  20282342.336    20282342.340    20282346.047
        44.500          47.700
 106667578.564 8  82963682.903 7  19919419.273    19919418.527    19919421.238
        50.200          47.300
 124905187.766 6  97328748.16643  23768668.984                    23768676.617
        38.300          22.900
 124447082.044 6  96792182.141 5  23345955.344    23345953.512    23345957.867
        38.300          35.600
 127275744.237 6  98992258.177 6  23843041.102    23843038.734    23843043.582
        36.500          37.500
 115258197.667 8  89811604.03946  21932906.289                    21932910.875
        48.200          36.700
 109063882.399 8  84984857.12947  20754167.531                    20754172.230
        51.000          43.000
 109028284.841 8  84799795.139 7  20396000.500    20396000.348    20396001.914
        50.800          46.300
 19  1 10  0  6 30.0000000  0 16R03G05G21G13R19G24R13G02R20R04G30R14
                                R18G29G15R05
 125996562.280 5  97997341.664 5  23537221.281    23537218.988    23537222.914
        35.400          34.300
 112335430.037 8  87534137.62046  21376722.758                    21376727.469
        50.900          40.400
 123782451.150 7  96453886.22544  23555018.039                    23555021.977
        42.400          29.000
 106293292.759 8  82825956.95347  20226942.195                    20226946.223
        49.900          43.900
 107750807.147 7  83806188.081 7  20142878.297    20142877.230    20142879.563
        44.500          43.700
 131795350.529 5 102697722.29342  25079824.141                    25079833.137
        33.800          17.400
 123509778.049 5  96063167.944 5  23129414.125    23129411.324    23129414.621
        33.600          30.600
 120225641.769 6  93682327.52045  22878178.641                    22878180.918
        41.700          30.500
 108405382.152 7  84315299.383 7  20272350.891    20272350.895    20272353.934
        45.000          47.300
 106715874.276 8  83001246.217 7  19928438.344    19928437.246    19928439.879
        50.600          47.400
 124929437.207 6  97347643.82644  23773284.070                    23773291.020
        38.300          24.100
 124356085.634 6  96721407.164 6  23328883.922    23328883.969    23328888.086
        38.300          36.400
 127412454.315 5  99098588.191 6  23868651.477    23868649.344    23868653.910
        35.700          36.500
 115318052.051 8  89858243.80446  21944296.328                    21944300.992
        48.700          37.400
 109003986.278 8  84938184.82847  20742769.570                    20742774.078
        51.300          43.100
 108986409.151 8  84767225.175 7  20388166.289    20388165.902    20388167.660
        50.500          46.100
 19  1 10  0  7  0.0000000  0 16R03G05G21G13R19G24R13G02R20R04G30R14
                                R18G29G15R05
 126094590.298 5  98073585.614 6  23555533.125    23555532.473    23555535.430
        35.200          36.400
 112389005.671 8  87575884.85646  21386917.914                    21386922.500
        49.800          40.400
 123700931.292 6  96390364.24444  23539505.023                    23539508.836
        41.600          28.100
 106298931.052 8  82830350.42647  20228015.148                    20228019.098
        49.000          43.200
 107836812.249 7  83873080.932 7  20158955.414    20158954.582    20158956.676
        44.200          43.500
 131685758.167 5 102612325.68242  25058970.227                    25058978.102
        32.000          17.800
 123496346.042 5  96052720.816 5  23126897.492    23126895.395    23126899.016
        33.200          31.200
 120313363.434 6  93750682.03744  22894871.656                    22894873.508
        41.000          29.300
 108352685.510 7  84274313.099 7  20262496.000    20262496.355    20262499.930
        43.900          47.800
 106764444.883 8  83039023.344 7  19937508.117    19937507.254    19937509.938
        49.800          47.900
 124954217.608 6  97366953.22943  23777999.055                    23778006.730
        37.300          22.300
 124265414.101 6  96650884.887 6  23311875.219    23311873.504    23311877.582
        38.700          36.200
 127549217.899 6  99204959.729 6  23894270.891    23894269.578    23894274.402
        36.100          36.200
 115378382.038 7  89905254.17846  21955776.359                    21955781.703
        47.900          36.900
 108944558.261 8  84891877.29147  20731460.711                    20731465.641
        49.800          42.500
 108944899.123 8  84734939.592 7  20380401.234    20380400.730    20380402.594
        50.700          46.200
 19  1 10  0  7 30.0000000  0 16R03G05G21G13R19G24R13G02R20R04G30R14
                                R18G29G15R05
 126192560.523 5  98149784.623 5  23573834.727    23573834.074    23573836.738
        35.600          35.200
 112442773.621 8  87617781.94546  21397149.781                    21397154.027
        50.800          40.300
 123619544.455 6  96326945.92344  23524018.023                    23524021.238
        41.800          29.000
 106305131.909 8  82835182.27147  20229195.070                    20229198.926
        49.100          43.700
 107923453.146 7  83940468.294 7  20175152.930    20175151.395    20175153.734
        44.300          43.600
 131576058.65315 102526845.55752  25038094.828                    25038103.266
        32.200          16.300
 123483637.444 5  96042836.383 5  23124517.508    23124515.059    23124518.465
        34.000          31.700
 120401369.031 6  93819257.80544  22911618.828                    22911621.012
        41.500          29.900
 108300724.022 7  84233898.589 7  20252779.617    20252779.152    20252782.141
        44.600          46.700
 106813286.078 8  83077010.940 7  19946629.422    19946628.676    19946631.207
        49.800          47.000
 124979526.305 6  97386674.29043  23782816.172                    23782822.242
        37.000          23.500
 124175069.663 6  96580617.019 5  23294926.602    23294925.355    23294929.043
        39.500          35.200
 127686029.228 6  99311368.450 6  23919899.758    23919898.801    23919903.473
        36.300          36.100
 115439182.813 7  89952631.38846  21967346.688                    21967351.570
        47.100          36.900
 108885597.145 8  84845933.57247  20720240.859                    20720245.691
        50.200          42.400
 108903751.611 8  84702935.986 7  20372703.813    20372703.543    20372705.340
        50.600          46.000
 19  1 10  0  8  0.0000000  0 16R03G05G21G13R19G24R13G02R20R04G30R14
                                R18G29G15R05
 126290471.025 5  98225937.172 5  23592125.219    23592124.684    23592127.586
        35.000          35.600
 112496732.464 8  87659827.78546  21407417.625                    21407422.020
        49.700          40.200
 123538291.779 7  96263632.15844  23508556.641                    23508559.734
        43.300          28.400
 106311893.590 8  82840451.11447  20230481.688                    20230485.934
        50.300          43.200
 108010724.715 7  84008346.147 7  20191467.516    20191465.746    20191468.129
        44.700          44.400
 131466253.740 5 102441283.34742  25017199.141                    25017208.051
        32.600          17.400
 123471652.554 5  96033514.734 5  23122274.469    23122271.316    23122275.137
        33.000          31.400
 120489655.782 6  93888052.64944  22928418.938                    22928421.223
        41.400          29.900
 108249499.441 7  84194057.245 7  20243199.398    20243199.754    20243203.168
        44.600          47.700
 106862395.325 8  83115207.008 7  19955799.578    19955799.305    19955801.844
        49.400          47.100
 125005361.635 6  97406805.71643  23787731.867                    23787738.813
        36.700          22.600
 124085055.566 6  96510606.075 6  23278039.953    23278039.297    23278043.055
        39.000          36.700
 127822883.609 6  99417810.705 5  23945539.109    23945537.094    23945541.230
        36.300          35.700
 115500450.648 7  90000372.54046  21979005.430                    21979010.527
        47.000          36.500
 108827102.432 8  84800353.28247  20709109.742                    20709114.801
        50.100          42.600
 108862965.039 8  84671213.094 7  20365073.352    20365072.496    20365074.469
        50.400          46.200
 19  1 10  0  8 30.0000000  0 16R03G05G21G13R19G24R13G02R20R04G30R14
                                R18G29G15R05
 126388323.135 5  98302044.401 5  23610405.109    23610403.402    23610407.695
        34.400          35.600
 112550883.963 8  87702023.74946  21417722.688                    21417726.398
        50.700          40.000
 123457177.236 7  96200426.01944  23493121.086                    23493124.117
        43.500          28.300
 106319217.749 8  82846158.25347  20231875.570                    20231879.691
        49.900          43.200
 108098626.558 7  84076714.239 7  20207900.031    20207898.145    20207900.500
        44.100          43.700
 131356347.714 5 102355642.37042  24996285.250                    24996294.250
        33.400          16.300
 123460395.021 5  96024758.889 5  23120164.914    23120162.230    23120166.691
        33.000          32.200
 120578224.895 6  93957067.51044  22945272.750                    22945274.914
        41.100          29.300
 108199016.905 7  84154793.058 7  20233759.320    20233759.559    20233763.105
        44.100          47.200
 106911772.937 8  83153611.819 7  19965021.578    19965020.012    19965022.559
        49.600          47.000
 125031725.544 6  97427349.01943  23792749.141                    23792755.441
        36.700          23.200
 123995378.888 6  96440857.609 6  23261216.969    23261216.430    23261220.082
        39.500          36.000
 127959780.259 5  99524285.733 5  23971185.141    23971182.539    23971187.090
        35.900          35.600
 115562185.655 7  90048477.72146  21990753.250                    21990758.387
        47.300          36.700
 108769077.558 8  84755139.10747  20698068.141                    20698072.695
        50.500          42.900
 108822541.463 8  84639772.527 7  20357511.398    20357511.480    20357513.484
        50.200          46.700
 19  1 10  0  9  0.0000000  0 16R03G05G21G13R19G24R13G02R20R04G30R14
                                R18G29G15R05
 126486115.029 5  98378104.669 5  23628672.555    23628672.609    23628675.371
        35.700          35.900
 112605226.794 8  87744368.80346  21428063.422                    21428067.730
        50.600          40.200
 123376201.727 7  96137328.22144  23477711.375                    23477715.234
        43.400          28.600
 106327101.919 8  82852301.76647  20233375.805                    20233379.594
        49.800          43.200
 108187153.654 7  84145568.634 7  20224449.016    20224447.715    20224449.891
        44.100          44.300
 131246342.934 5 102269924.36043  24975351.578                    24975361.070
        32.600          18.300
 123449864.606 5  96016568.546 5  23118193.281    23118190.598    23118194.520
        33.200          31.000
 120667073.493 6  94026300.16244  22962180.383                    22962182.605
        41.300          29.300
 108149278.114 7  84116107.312 7  20224457.969    20224458.090    20224461.582
        44.600          47.700
 106961415.843 8  83192222.959 7  19974291.477    19974290.379    19974293.039
        49.500          47.400
 125058616.195 6  97448302.75843  23797865.781                    23797872.898
        37.300          22.900
 123906042.560 6  96371373.821 6  23244457.469    23244457.281    23244460.109
        40.100          36.600
 128096714.216 5  99630789.834 6  23996836.328    23996834.078    23996839.551
        35.700          36.200
 115624383.320 7  90096943.43046  22002588.961                    22002594.262
        47.400          36.600
 108711521.708 8  84710290.40147  20687115.422                    20687120.336
        50.200          42.900
 108782478.844 8  84608612.716 7  20350017.016    20350017.098    20350019.105
        50.200          46.600
 19  1 10  0  9 30.0000000  0 16R03G05G21G13R19G24R13G02R20R04G30R14
                                R18G29G15R05
 126583845.148 5  98454116.958 5  23646930.273    23646928.215    23646932.809
        34.600          35.300
 112659760.165 8  87786862.31946  21438440.805                    21438445.313
        50.300          39.700
 123295367.371 7  96074340.42044  23462328.984                    23462333.363
        44.200          28.800
 106335545.185 8  82858880.94047  20234982.266                    20234986.582
        49.400          43.200
 108276302.492 7  84214906.602 7  20241114.000    20241112.699    20241114.992
        44.500          43.300
 131136241.03815                  24954400.063
        32.600
 123440062.578 5  96008944.813 5  23116357.641    23116355.309    23116359.168
        32.900          31.400
 120756200.042 6  94095749.39744  22979140.336                    22979143.027
        41.300          29.100
 108100285.635 7  84078002.047 7  20215295.820    20215295.473    20215298.863
        44.400          47.100
 107011321.472 8  83231038.439 7  19983610.984    19983609.770    19983612.043
        49.300          46.300
 125086033.027 6  97469666.52543  23803082.953                    23803090.262
        36.800          22.300
 123817050.894 6  96302158.109 6  23227763.438    23227761.840    23227766.027
        39.500          36.300
 128233682.113 5  99737320.304 5  24022496.359    24022493.875    24022498.828
        34.300          35.300
 115687041.020 8  90145767.58946  22014512.781                    22014518.008
        48.200          36.400
 108654436.638 8  84665808.53547  20676252.602                    20676257.402
        51.200          42.900
 108742776.625 8  84577733.197 7  20342589.836    20342589.918    20342591.969
        50.700          46.000
 19  1 10  0 10  0.0000000  0 17R03G05G21G13R19G24R13G02R20R04G30R14
                                R21R18G29G15R05
 126681513.337 5  98530081.039 5  23665174.195    23665172.723    23665177.164
        33.900          35.200
 112714484.016 8  87829504.26746  21448854.641                    21448858.832
        49.600          39.500
 123214675.768 7  96011463.83545  23446974.539                    23446977.754
        44.300          30.200
 106344546.552 8  82865894.99947  20236695.664                    20236699.543
        50.100          43.800
 108366070.302 7  84284725.994 7  20257894.469    20257893.754    20257896.059
        44.200          44.100
 131026045.108 5 102098263.79552  24933429.633                    24933439.316
        34.500          16.900
 123430989.891 5  96001888.240 5  23114658.781    23114655.395    23114659.457
        32.500          31.600
 120845603.219 6  94165414.19644  22996153.070                    22996155.570
        41.600          27.400
 108052042.144 7  84040479.300 7  20206273.828    20206274.184    20206277.707
        44.300          47.400
 107061488.418 8  83270057.177 7  19992978.938    19992978.664    19992981.301
        49.400          46.700
 125113975.366 6  97491439.76243  23808400.336                    23808407.363
        36.500          22.300
 123728408.477 6  96233214.067 6  23211133.695    23211133.273    23211136.348
        40.500          36.600
 129242298.66416 100522003.69315  24152070.844    24152069.637    24152073.660
        36.400          34.800
 128370680.473 5  99843874.495 6  24048159.758    24048158.211    24048162.957
        34.900          36.200
 115750156.552 7  90194948.51546  22026522.750                    22026528.164
        47.800          36.700
 108597822.749 8  84621693.82047  20665479.398                    20665483.848
        51.200          42.500
 108703434.219 8  84547133.543 7  20335230.547    20335230.277    20335232.328
        50.000          46.500
 19  1 10  0 10 30.0000000  0 17R03G05G21G13R19G24R13G02R20R04G30R14
                                R21R18G29G15R05
 126779118.647 5  98605996.220 5  23683407.766    23683406.879    23683411.777
        33.900          35.800
 112769397.680 8  87872294.12046  21459304.141                    21459308.465
        49.600          39.900
 123134128.835 7  95948699.98944  23431646.727                    23431650.707
        44.300          28.900
 106354105.170 8  82873343.27447  20238514.281                    20238518.070
        50.000          42.900
 108456453.317 7  84355023.863 7  20274790.984    20274789.684    20274792.430
        43.800          43.900
 130915756.984 5 102012325.01643  24912443.523                    24912452.273
        34.600          18.300
 123422648.090 5  95995400.155 5  23113097.172    23113094.371    23113097.637
        32.900          31.500
 120935281.744 6  94235293.53144  23013218.508                    23013221.379
        41.100          28.100
 108004550.677 7  84003541.498 7  20197392.813    20197393.051    20197396.488
        43.900          47.300
 107111915.043 8  83309277.892 7  20002396.352    20002394.785    20002397.395
        49.000          46.400
 125142442.845 6  97513622.21443  23813816.922                    23813824.660
        37.100          22.300
 123640119.895 6  96164545.186 6  23194571.188    23194570.766    23194574.055
        40.500          36.100
 129115786.033 5 100423604.903 5  24128429.148    24128428.996    24128432.426
        35.900          34.600
 128507706.056 5  99950449.779 6  24073829.375    24073828.418    24073832.320
        35.800          36.300
 115813727.154 8  90244484.02946  22038620.273                    22038625.234
        48.100          36.800
 108541680.840 8  84577946.89447  20654795.719                    20654800.629
        51.300          42.600
 108664451.028 8  84516813.285 7  20327937.734    20327936.996    20327938.984
        50.500          46.600
 19  1 10  0 11  0.0000000  0 17R03G05G21G13R19G24R13G02R20R04G30R14
                                R21R18G29G15R05
 126876660.327 5  98681861.956 5  23701629.805    23701628.332    23701632.215
        33.800          35.400
 112824501.351 8  87915232.02746  21469790.273                    21469794.895
        49.900          39.500
 123053728.359 7  95886050.27044  23416346.883                    23416350.770
        44.100          29.700
 106364220.456 8  82881225.32647  20240439.297                    20240443.262
        49.800          43.400
 108547449.614 7  84425798.736 7  20291802.195    20291801.129    20291803.652
        43.700          44.100
 130805381.011 5 101926317.79342  24891439.805                    24891447.766
        34.700          17.800
 123415038.892 5  95989481.897 5  23111670.461    23111668.715    23111672.691
        33.200          31.500
 121025234.389 6  94305386.47744  23030336.219                    23030338.418
        40.600          28.900
 107957814.254 7  83967190.942 7  20188653.336    20188653.105    20188656.406
        44.700          47.400
 107162599.562 8  83348699.193 7  20011861.250    20011860.152    20011862.676
        49.600          46.900
 125171435.269 6  97536213.70344  23819334.328                    23819341.957
        37.900          24.600
 123552189.928 6  96096155.285 6  23178075.234    23178074.461    23178078.234
        39.500          36.000
 128989460.459 6 100325351.620 5  24104821.102    24104820.832    24104824.934
        36.200          34.200
 128644755.831 5 100057043.954 6  24099503.305    24099502.465    24099506.980
        35.000          37.800
 115877750.774 8  90294372.54546  22050803.828                    22050808.629
        48.800          36.600
 108486012.376 8  84534568.87247  20644202.648                    20644207.344
        51.500          42.800
 108625827.290 8  84486772.601 7  20320712.273    20320712.004    20320713.828
        50.600          46.400
 19  1 10  0 11 30.0000000  0 17R03G05G21G13R19G24R13G02R20R04G30R14
                                R21R18G29G15R05
 126974137.705 5  98757677.671 5  23719842.063    23719838.715    23719842.965
        34.600          34.600
 112879794.023 8  87958317.21746  21480311.898                    21480316.703
        49.300          39.200
 122973476.476 7  95823516.34144  23401075.711                    23401079.387
        43.700          29.800
 106374890.594 8  82889539.71747  20242469.625                    20242473.766
        49.800          43.300
 108639054.412 7  84497046.906 7  20308926.367    20308925.418    20308927.965
        44.100          44.200
 130694918.875 5 101840243.43043  24870418.906                    24870427.035
        33.900          18.300
 123408162.547 5  95984133.648 5  23110384.781    23110381.746    23110385.418
        33.700          31.400
 121115458.723 6  94375691.12544  23047504.969                    23047507.836
        40.800          26.800
 107911835.075 7  83931429.338 7  20180054.633    20180054.168    20180057.539
        44.100          47.300
 107213539.834 8  83388319.386 7  20021374.227    20021372.660    20021375.293
        49.300          46.100
 125200951.392 6  97559213.25944  23824951.188                    23824958.777
        37.900          24.400
 123464622.372 6  96028047.242 6  23161647.977    23161647.320    23161651.391
        40.500          36.000
 128863325.020 6 100227246.218 5  24081250.953    24081249.863    24081253.125
        36.500          35.100
 128781825.816 5 100163653.787 6  24125180.719    24125179.523    24125185.551
        34.600          37.500
 115942223.776 7  90344611.23346  22063072.430                    22063077.500
        47.800          36.500
 108430817.533 8  84491559.92047  20633699.328                    20633703.680
        51.200          43.100
 108587561.183 8  84457010.068 7  20313553.891    20313553.152    20313555.137
        50.500          46.200
 19  1 10  0 12  0.0000000  0 16R03G05G21G13R19G24R13G02R20R04G30R14
                                R21G29G15R05
 127071550.526 5  98833443.130 5  23738037.422    23738036.418    23738039.910
        33.000          34.300
 112935276.554 8  88001550.34946  21490869.977                    21490874.605
        49.000          38.500
 122893376.456 7  95761100.73144  23385832.859                    23385836.949
        42.500          29.700
 106386116.005 8  82898286.79247  20244605.508                    20244609.980
        49.600          43.400
 108731265.769 7  84568766.841 7  20326164.156    20326163.324    20326165.910
        43.800          43.200
 130584373.864 5 101754104.49143  24849382.008                    24849391.262
        32.800          19.000
 123402021.293 5  95979357.099 5  23109234.242    23109232.379    23109235.738
        33.100          32.600
 121205954.834 6  94446207.55244  23064725.992                    23064728.605
        40.800          27.200
 107866617.005 7  83896259.737 7  20171599.938    20171599.238    20171602.566
        44.100          47.100
 107264734.938 8  83428137.783 7  20030934.070    20030932.738    20030935.289
        49.300          46.400
 125230991.790 6  97582621.34543  23830668.180                    23830674.891
        37.800          22.800
 123377423.047 6  95960225.537 5  23145289.414    23145288.168    23145291.375
        39.800          35.000
 128737385.184 6 100129292.960 5  24057715.094    24057714.355    24057718.516
        36.000          35.700
 116007145.284 8  90395199.40446  22075426.766                    22075431.652
        49.000          36.400
 108376098.324 8  84448921.58147  20623286.258                    20623291.344
        51.400          42.900
 108549653.749 8  84427526.504 7  20306462.883    20306462.027    20306464.012
        50.000          46.600
 19  1 10  0 12 30.0000000  0 17R03G05G21G13R19G24R13G02R20R04G30R14
                                R21G20G29G15R05
 127168895.524 5  98909155.909 5  23756221.664    23756220.543    23756225.129
        34.200          35.200
 112990945.778 8  88044928.95046  21501463.367                    21501467.750
        49.400          39.600
 122813427.322 7  95698802.70445  23370619.242                    23370622.641
        43.600          30.600
 106397893.039 8  82907463.70247  20246847.047                    20246850.793
        50.000          43.800
 108824077.495 7  84640953.707 7  20343514.195    20343513.602    20343515.762
        43.600          43.600
 130473746.407 5 101667901.29143  24828332.492                    24828339.566
        32.600          19.000
 123396613.082 5  95975150.703 5  23108220.797    23108218.934    23108222.664
        33.800          32.200
 121296718.656 6  94516932.57644  23081997.656                    23082000.512
        41.100          29.100
 107822159.954 7  83861681.991 7  20163285.008    20163285.246    20163288.637
        44.800          47.500
 107316180.397 8  83468150.931 7  20040541.570    20040540.121    20040542.703
        49.800          45.900
 125261553.295 6  97606435.49444  23836483.305                    23836491.031
        37.300          25.200
 123290593.698 6  95892691.645 6  23129000.078    23129000.594    23129003.898
        41.300          36.600
 128611642.229 6 100031492.810 6  24034218.820    24034218.199    24034220.930
        37.300          36.000
 131797822.98815                  25080300.820
        32.600
 116072509.934 8  90446132.88446  22087865.133                    22087869.805
        49.300          36.200
 108321853.148 8  84406652.61747  20612964.023                    20612968.766
        52.500          43.600
 108512101.779 8  84398319.406 7  20299437.375    20299437.457    20299439.461
        50.800          46.500
 19  1 10  0 13  0.0000000  0 17R03G05G21G13R19G24R13G02R20R04G30R14
                                R21G20G29G15R05
 127266174.281 5  98984817.118 5  23774393.656    23774391.949    23774396.652
        32.900          35.500
 113046803.421 8  88088454.37746  21512092.766                    21512096.996
        49.000          40.000
 122733632.884 7  95636625.21745  23355434.281                    23355437.934
        43.000          30.600
 106410222.543 8  82917071.11647  20249193.406                    20249197.074
        50.000          43.600
 108917487.217 7  84713605.685 7  20360976.484    20360975.770    20360977.816
        43.900          43.600
 130363040.862 5 101581637.25343  24807264.414                    24807273.410
        33.200          18.300
 123391940.966 5  95971516.856 5  23107345.328    23107343.230    23107347.441
        33.600          31.000
 121387750.506 6  94587866.46544  23099320.156                    23099323.281
        40.800          27.900
 107778468.585 7  83827699.813 8  20155115.086    20155114.621    20155118.305
        44.600          48.000
 107367876.576 8  83508359.057 7  20050195.344    20050194.246    20050196.563
        49.600          46.600
 125292637.025 6  97630656.57144  23842398.078                    23842405.813
        37.500          24.300
 123204140.650 6  95825450.456 6  23112781.836    23112781.063    23112785.285
        40.500          36.400
 128486101.904 6  99933850.270 5  24010758.938    24010757.145    24010761.004
        37.100          35.500
 131709578.536 5 102630896.92752  25063508.313                    25063512.773
        31.500          16.300
 116138316.597 8  90497410.78545  22100387.586                    22100391.902
        48.400          35.800
 108268084.402 8  84364754.89747  20602732.227                    20602736.805
        51.300          43.500
 108474906.325 8  84369389.620 7  20292479.117    20292479.551    20292481.441
        50.600          46.800
 19  1 10  0 13 30.0000000  0 17R03G05G21G13R19G24R13G02R20R04G30R14
                                R21G20G29G15R05
 127363384.585 5  99060425.053 6  23792553.828    23792552.707    23792557.871
        33.200          36.200
 113102847.822 8  88132125.32346  21522757.391                    21522762.055
        49.100          39.900
 122653993.673 7  95574568.70045  23340279.852                    23340283.496
        42.900          31.300
 106423102.243 8  82927107.24147  20251643.898                    20251648.113
        50.600          43.700
 109011491.167 7  84786719.852 7  20378549.602    20378549.008    20378551.051
        43.800          43.700
 130252259.312 5 101495313.98843  24786183.898                    24786192.617
        31.900          19.300
 123388005.028 5  95968455.551 5  23106609.945    23106607.145    23106610.387
        34.000          32.200
 121479047.864 6  94659007.22744  23116694.180                    23116696.512
        41.100          28.500
 107735544.102 7  83794314.111 7  20147087.773    20147087.660    20147091.125
        45.000          47.300
 107419820.413 8  83548759.811 7  20059896.000    20059893.965    20059896.551
        50.000          46.800
 125324241.126 6  97655283.13644  23848413.273                    23848419.828
        37.900          24.100
 123118067.080 6  95758504.378 5  23096635.313    23096634.422    23096637.074
        41.300          35.800
 128360767.085 6  99836367.591 6  23987336.023    23987335.051    23987338.809
        36.500          36.000
 131621322.531 5 102562125.91842  25046715.375                    25046718.594
        33.600          15.600
 116204561.311 8  90549030.02246  22112993.664                    22112998.250
        48.300          36.200
 108214791.898 8  84323228.27847  20592590.586                    20592595.371
        51.900          43.600
 108438065.924 8  84340735.979 7  20285587.484    20285587.801    20285589.738
        50.700          46.500
 19  1 10  0 14  0.0000000  0 17R03G05G21G13R19G24R13G02R20R04G30R14
                                R21G20G29G15R05
 127460527.211 5  99135980.382 5  23810701.539    23810700.535    23810704.918
        33.900          35.800
 113159080.825 8  88175943.23546  21533458.281                    21533462.895
        49.200          39.100
 122574513.834 7  95512636.35444  23325155.969                    23325158.949
        43.600          29.900
 106436532.762 8  82937572.58947  20254199.891                    20254203.984
        50.300          43.700
 109106087.424 7  84860294.716 7  20396234.016    20396232.949    20396234.973
        44.700          42.900
 130141405.77115 101408934.63752  24765087.578                    24765097.516
        31.000          17.800
 123384807.885 5  95965968.877 5  23106011.063    23106008.379    23106012.031
        34.300          31.200
 121570610.996 6  94730355.10144  23134118.047                    23134120.367
        41.400          28.300
 107693390.799 7  83761528.186 7  20139204.914    20139205.152    20139208.473
        44.600          47.700
 107472012.110 8  83589353.348 7  20069642.445    20069640.879    20069643.535
        49.600          47.000
 125356366.904 6  97680316.20744  23854526.125                    23854532.918
        38.400          25.200
 123032379.301 6  95691858.346 6  23080561.195    23080559.480    23080562.957
        41.900          36.300
 128235643.809 5  99739049.426 5  23963952.844    23963951.871    23963956.574
        35.100          35.400
 131533057.691 5 102493348.18442  25029917.141                    25029922.355
        31.800          14.800
 116271243.851 8  90600990.42646  22125682.695                    22125687.324
        48.900          36.100
 108161978.294 8  84282074.83347  20582540.805                    20582545.570
        52.300          43.600
 108401581.675 8  84312359.331 7  20278762.508    20278762.473    20278764.367
        51.400          47.200
 19  1 10  0 14 30.0000000  0 17R03G05G21G13R19G24R13G02R20R04G30R14
                                R21G20G29G15R05
 127557600.215 5  99211481.563 5  23828834.281    23828834.219    23828838.785
        34.200          35.300
 113215499.974 8  88219906.20046  21544194.727                    21544199.176
        49.300          40.000
 122495193.800 7  95450828.53645  23310061.188                    23310064.914
        43.100          31.300
 106450511.416 8  82948465.04747  20256859.875                    20256863.867
        49.700          43.900
 109201271.249 7  84934326.552 7  20414027.148    20414026.316    20414028.207
        44.600          43.100
 130030480.95815 101322499.80752  24743980.164                    24743989.043
        31.900          16.900
 123382348.212 5  95964055.833 5  23105550.117    23105547.668    23105551.512
        33.400          32.000
 121662436.419 6  94801907.34944  23151591.469                    23151594.652
        40.900          28.300
 107652009.475 7  83729342.711 7  20131466.352    20131466.473    20131469.844
        44.500          47.900
 107524447.734 8  83630136.599 7  20079433.539    20079432.910    20079435.434
        50.300          46.500
 125389011.762 6  97705753.75244  23860737.680                    23860745.223
        38.200          24.700
 122947080.214 7  95625514.653 6  23064557.453    23064557.266    23064560.945
        42.000          36.600
 128110734.316 6  99641897.556 5  23940612.195    23940610.637    23940613.828
        36.400          35.200
 131444782.17415 102424561.93552  25013120.508                    25013123.469
        33.100          15.600
 116338359.481 8  90653288.30946  22138454.414                    22138459.191
        48.400          36.300
 108109642.662 8  84241293.83447  20572581.672                    20572586.492
        52.400          44.500
 108365451.263 8  84284257.901 7  20272003.539    20272003.387    20272005.434
        50.700          46.800
 19  1 10  0 15  0.0000000  0 17R03G05G21G13R19G24R13G02R20R04G30R14
                                R21G20G29G15R05
 127654602.725 5  99286927.873 5  23846956.281    23846954.809    23846959.738
        32.500          35.600
 113272105.083 8  88264014.06746  21554966.273                    21554970.613
        49.100          39.800
 122416035.446 7  95389146.69945  23294997.383                    23295001.527
        42.900          30.400
 106465037.001 8  82959783.69047  20259623.672                    20259627.820
        50.500          43.700
 109297039.398 7  85008812.874 7  20431930.148    20431929.555    20431931.848
        44.200          43.500
 129919487.90615                  24722859.031
        33.100
 123380627.025 5  95962717.110 5  23105228.453    23105225.418    23105229.023
        34.300          31.900
 121754522.450 6  94873662.67144  23169115.313                    23169117.902
        40.900          27.800
 107611402.808 7  83697759.721 8  20123871.945    20123872.066    20123875.438
        44.100          48.100
 107577125.499 8  83671108.194 7  20089271.031    20089269.934    20089272.555
        50.000          46.700
 125422174.923 6  97731595.15744  23867048.461                    23867056.063
        38.400          24.900
 122862173.758 7  95559476.316 6  23048630.063    23048629.289    23048632.582
        42.300          36.400
 127986042.508 6  99544914.974 6  23917310.398    23917309.777    23917312.176
        36.900          36.100
 131356496.472 5 102355767.91942  24996319.141                    24996323.625
        30.800          16.300
 116405905.217 8  90705921.32145  22151308.398                    22151312.781
        48.300          35.500
 108057785.776 8  84200885.88147  20562713.367                    20562718.375
        52.600          43.700
 108329674.097 8  84256431.242 7  20265311.070    20265310.801    20265312.582
        51.000          46.900
 19  1 10  0 15 30.0000000  0 17R03G05G21G13R19G24R13G02R20R04G30R14
                                R21G20G29G15R05
 127751534.334 5  99362319.095 5  23865064.422    23865063.184    23865066.266
        34.400          34.000
 113328896.024 8  88308266.73346  21565773.383                    21565777.684
        49.000          39.200
 122337040.615 6  95327592.29745  23279965.445                    23279969.410
        41.800          30.400
 106480108.519 8  82971527.72647  20262491.820                    20262496.340
        50.500          43.500
 109393388.106 7  85083750.756 7  20449941.859    20449940.676    20449943.281
        43.700          43.500
 129808429.84115 101149473.02052  24701726.438                    24701734.863
        33.500          17.400
 123379646.243 5  95961954.318 5  23105044.094    23105041.293    23105045.199
        34.100          32.400
 121846868.413 6  94945620.52744  23186687.828                    23186690.781
        40.900          28.000
 107571573.494 7  83666781.377 8  20116423.422    20116424.953    20116428.086
        44.700          48.200
 107630044.392 8  83712267.333 7  20099153.289    20099151.723    20099154.563
        49.500          46.600
 125455856.027 6  97757840.16643  23873458.242                    23873465.586
        37.800          22.800
 122777664.955 6  95493747.273 6  23032776.250    23032775.359    23032778.723
        41.700          36.300
 127861572.866 5  99448105.210 5  23894050.945    23894048.445    23894052.184
        35.900          35.200
 131268201.24715 102286966.42952  24979518.156                    24979522.191
        32.200          16.300
 116473878.861 7  90758887.77945  22164242.945                    22164247.688
        47.700          35.400
 108006408.179 8  84160851.40047  20552936.961                    20552941.395
        51.300          43.600
 108294249.799 8  84228879.003 7  20258684.203    20258683.934    20258685.758
        50.900          47.300
 19  1 10  0 16  0.0000000  0 17R03G05G21G13R19G24R13G02R20R04G30R14
                                R21G20G29G15R05
 127848394.612 5  99437654.784 5  23883159.180    23883156.770    23883161.473
        33.700          35.800
 113385872.388 8  88352663.88746  21576615.531                    21576620.215
        48.500          38.600
 122258211.061 7  95266166.66445  23264965.000                    23264968.371
        42.000          30.000
 106495724.849 8  82983696.29547  20265463.555                    20265467.762
        50.100          42.900
 109490313.407 7  85159137.073 7  20468061.305    20468059.301    20468061.848
        43.200          43.400
 129697308.72815                  24680579.352
        33.600
 123379405.294 5  95961766.860 5  23104999.539    23104996.387    23105000.207
        32.800          30.900
 121939472.427 6  95017779.48244  23204310.047                    23204312.426
        41.000          28.600
 107532523.701 7  83636409.292 7  20109122.133    20109121.902    20109125.023
        44.800          47.800
 107683202.348 8  83753612.416 7  20109079.414    20109079.020    20109081.605
        50.100          46.900
 125490054.153 6  97784488.06244  23879965.695                    23879972.992
        39.200          24.700
 122693558.065 7  95428330.852 6  23016997.656    23016997.117    23017000.742
        42.200          37.900
 127737329.380 5  99351471.363 6  23870832.633    23870831.309    23870834.844
        35.500          36.400
 131179896.763 5 102218157.76542  24962715.719                    24962718.563
        33.500          15.600
 116542277.457 7  90812185.37145  22177258.547                    22177263.770
        47.500          35.000
 107955510.938 8  84121191.22347  20543251.492                    20543256.258
        51.900          43.500
 108259177.717 8  84201600.725 7  20252122.570    20252122.770    20252124.695
        50.500          47.700
 19  1 10  0 16 30.0000000  0 17R03G05G21G13R19G24R13G02R20R04G30R14
                                R21G20G29G15R05
 127945183.131 5  99512934.682 5  23901239.203    23901238.082    23901242.391
        34.100          34.700
 113443034.322 8  88397205.64046  21587493.094                    21587497.656
        48.900          39.400
 122179549.858 7  95204872.22245  23249996.039                    23249999.840
        43.000          31.900
 106511885.110 8  82996288.71047  20268539.016                    20268542.730
        51.100          43.900
 109587813.212 7  85234970.240 7  20486287.891    20486286.355    20486288.961
        44.000          43.400
 129586129.25515                  24659423.344
        33.300
 123379906.027 5  95962156.315 5  23105093.242    23105089.504    23105093.629
        33.700          31.700
 122032333.252 6  95090138.52644  23221980.852                    23221984.043
        40.500          28.200
 107494256.163 7  83606645.635 8  20101965.695    20101965.230    20101968.676
        45.100          48.700
 107736597.808 8  83795142.208 7  20119051.547    20119050.449    20119052.953
        50.000          46.700
 125524768.755 6  97811538.37444  23886571.805                    23886578.914
        38.300          24.000
 122609857.628 6  95363230.501 6  23001295.430    23001295.594    23001299.145
        41.800          36.700
 127613316.421 5  99255016.806 6  23847658.656    23847657.098    23847660.266
        35.400          36.700
 131091583.735 5 102149342.38642  24945908.406                    24945912.926
        33.500          15.600
 116611098.558 7  90865812.18745  22190354.719                    22190360.391
        47.500          35.600
 107905095.043 8  84081906.11847  20533657.469                    20533662.109
        52.700          44.400
 108224457.440 8  84174596.059 7  20245628.008    20245627.738    20245629.813
        50.500          47.300
 19  1 10  0 17  0.0000000  0 17R03G05G21G13R19G24R13G02R20R04G30R14
                                R21G20G29G15R05
 128041897.674 5  99588156.997 5  23919305.391    23919304.621    23919309.379
        33.700          35.500
 113500380.725 8  88441891.13646  21598405.563                    21598410.648
        48.800          39.500
 122101058.357 7  95143709.99645  23235059.914                    23235063.387
        43.900          30.200
 106528587.457 8  83009303.52447  20271717.352                    20271721.207
        50.100          43.700
 109685881.157 7  85311245.308 7  20504620.305    20504619.238    20504621.336
        43.400          42.800
 129474892.01215 100889573.27652  24638255.438                    24638263.563
        33.500          17.400
 123381147.378 5  95963121.785 5  23105323.898    23105322.977    23105326.594
        33.900          32.000
 122125448.558 6  95162695.86144  23239700.297                    23239702.754
        41.000          27.400
 107456772.068 7  83577491.336 8  20094955.578    20094955.816    20094959.301
        44.900          48.300
 107790228.362 8  83836854.852 7  20129066.656    20129065.676    20129068.234
        49.900          46.900
 125559998.190 6  97838989.86244  23893275.680                    23893282.898
        38.900          24.400
 122526567.458 7  95298449.280 6  22985670.695    22985670.625    22985673.816
        42.200          36.500
 127489537.082 6  99158743.994 6  23824527.484    23824525.570    23824529.313
        36.400          36.400
 131003261.658 5 102080519.90442  24929101.359                    24929104.578
        31.000          14.800
 116680338.728 7  90919765.55645  22203530.672                    22203535.957
        47.300          35.600
 107855160.366 8  84042995.98347  20524155.281                    20524159.941
        52.400          44.000
 108190087.561 8  84147863.947 7  20239198.508    20239198.004    20239199.906
        50.900          47.200
 19  1 10  0 17 30.0000000  0 17R03G05G21G13R19G24R13G02R20R04G30R14
                                R21G20G29G15R05
 128138539.397 5  99663322.781 6  23937358.891    23937359.297    23937363.758
        34.300          36.900
 113557912.250 8  88486720.88146  21609353.805                    21609358.219
        50.300          40.200
 122022739.077 7  95082681.99945  23220156.047                    23220160.047
        43.700          31.500
 106545831.866 8  83022740.72847  20274998.508                    20275002.965
        50.900          44.700
 109784516.786 7  85387961.874 7  20523059.078    20523057.543    20523059.953
        43.700          42.800
 129363601.260 5 100802853.22643  24617077.969                    24617086.227
        33.200          18.600
 123383132.029 5  95964665.472 5  23105696.266    23105694.285    23105697.980
        33.700          32.300
 122218818.086 6  95235451.30644  23257468.250                    23257470.621
        41.400          28.300
 107420075.176 7  83548949.310 8  20088093.875    20088092.590    20088096.258
        45.100          48.200
 107844093.249 8  83878749.762 7  20139125.641    20139124.777    20139127.141
        49.600          46.400
 125595742.825 6  97866842.83444  23900077.789                    23900084.582
        39.900          25.500
 122443692.863 7  95233991.290 6  22970124.086    22970123.898    22970127.461
        42.500          38.000
 127365996.728 6  99062657.017 5  23801440.219    23801440.066    23801442.660
        36.800          35.800
 130914932.15615 102011691.73352  24912293.938                    24912297.238
        30.800          14.800
 116749996.367 7  90974044.21946  22216786.172                    22216791.629
        47.900          36.300
 107805708.503 8  84004462.08347  20514744.656                    20514749.441
        53.000          44.700
 108156068.749 8  84121404.856 7  20232833.688    20232833.887    20232835.777
        51.800          47.300
 19  1 10  0 18  0.0000000  0 17R03G05G21G13R19G24R13G02R20R04G30R14
                                R21G20G29G15R05
 128235107.012 5  99738430.885 5  23955399.578    23955399.160    23955403.355
        34.600          35.300
 113615627.663 8  88531693.91746  21620336.383                    21620341.156
        48.700          39.600
 121944593.218 7  95021789.11945  23205285.453                    23205289.352
        43.500          31.800
 106563616.241 8  83036598.68347  20278382.703                    20278386.793
        50.200          43.900
 109883714.895 7  85465115.951 7  20541602.453    20541601.504    20541604.367
        43.100          44.000
 129252258.852 5 100716092.88942  24595889.789                    24595898.023
        33.700          16.900
 123385859.029 5  95966786.470 5  23106206.992    23106204.426    23106208.453
        33.800          31.500
 122312439.163 6  95308402.76844  23275283.570                    23275285.938
        40.500          26.500
 107384167.189 7  83521020.867 8  20081378.102    20081377.871    20081381.480
        45.000          48.000
 107898190.443 8  83920825.345 7  20149227.719    20149226.504    20149229.418
        49.200          46.900
 125632001.154 6  97895096.06443  23906976.961                    23906984.480
        39.000          23.900
 122361237.703 7  95169859.517 6  22954655.469    22954655.398    22954658.523
        42.200          37.200
 127242698.880 5  98966758.682 5  23778399.563    23778398.473    23778401.367
        35.800          35.300
 130826595.044 5 101942857.60242  24895483.273                    24895487.301
        31.900          14.800
 116820067.212 7  91028644.86145  22230120.211                    22230125.348
        47.200          35.400
 107756739.612 8  83966304.51447  20505426.539                    20505431.027
        52.100          44.300
 108122399.545 8  84095217.708 7  20226535.539    20226535.504    20226537.391
        50.600          47.300
 19  1 10  0 18 30.0000000  0 17R03G05G21G13R19G24R13G02R20R04G30R14
                                R21G20G29G15R05
 128331599.147 5  99813480.249 5  23973425.492    23973423.551    23973428.488
        32.900          35.800
 113673526.215 8  88576809.65346  21631354.539                    21631358.711
        49.200          39.000
 121866622.572 7  94961032.76545  23190448.141                    23190452.031
        44.700          31.600
 106581938.553 8  83050875.80847  20281869.500                    20281873.645
        51.000          43.600
 109983470.822 7  85542703.858 7  20560251.461    20560249.809    20560251.949
        43.900          42.900
 129140867.481 5 100629294.39643  24574691.828                    24574701.078
        32.800          19.300
 123389328.660 5  95969485.037 5  23106855.797    23106854.406    23106858.500
        33.100          30.500
 122406309.849 6  95381548.69644  23293145.750                    23293149.020
        40.800          27.000
 107349049.591 7  83493707.165 8  20074811.570    20074811.457    20074815.172
        45.000          48.000
 107952517.673 8  83963079.867 7  20159372.914    20159371.816    20159374.469
        49.600          46.600
 125668771.696 6  97923748.40344  23913974.672                    23913981.965
        38.200          24.700
 122279205.771 6  95106056.895 6  22939266.516    22939266.094    22939269.641
        41.300          38.100
 127119646.979 6  98871051.578 6  23755404.906    23755403.113    23755406.285
        36.000          36.000
 130738250.60315                  24878670.984
        31.500
 116890548.919 7  91083565.66545  22243532.320                    22243537.738
        47.800          35.400
 107708253.679 8  83928523.28247  20496199.992                    20496204.707
        53.000          44.700
 108089078.892 8  84069301.645 7  20220301.602    20220301.684    20220303.559
        50.300          46.600
 19  1 10  0 19  0.0000000  0 17R03G05G21G13R19G24R13G02R20R04G30R14
                                R21G20G29G15R05
 128428015.813 5  99888470.963 5  23991435.906    23991434.434    23991439.109
        34.300          35.500
 113731607.969 8  88622068.14546  21642406.773                    21642411.688
        48.200          39.300
 121788829.341 7  94900414.65945  23175643.664                    23175648.375
        44.600          31.900
 106600798.110 8  83065571.56647  20285458.102                    20285462.191
        50.200          43.700
 110083782.153 7  85620723.772 7  20579003.375    20579002.781    20579004.629
        43.300          42.800
 129029429.842 5 100542459.88243  24553486.180                    24553496.230
        31.800          19.000
 123393542.271 5  95972762.292 5  23107646.109    23107643.426    23107647.074
        33.500          32.500
 122500428.607 6  95454887.95644  23311056.664                    23311059.148
        40.300          27.300
 107314724.493 7  83467009.851 8  20068392.695    20068392.465    20068395.789
        45.100          48.000
 108007072.812 8  84005511.638 7  20169561.320    20169559.871    20169562.383
        49.400          46.600
 125706053.699 6  97952799.32244  23921069.414                    23921076.230
        38.400          25.200
 122197601.322 6  95042586.813 6  22923958.328    22923957.672    22923960.871
        41.800          38.100
 126996845.358 6  98775539.188 6  23732455.422    23732455.152    23732457.996
        37.400          36.500
 130649897.954 5 101805171.54252  24861859.680                    24861862.078
        34.100          16.900
 116961438.437 7  91138804.23545  22257022.258                    22257027.887
        46.400          35.500
 107660251.347 8  83891118.87147  20487065.133                    20487070.078
        51.700          44.000
 108056106.040 8  84043656.095 7  20214134.039    20214133.770    20214135.797
        51.500          47.200
 19  1 10  0 19 30.0000000  0 17R03G05G21G13R19G24R13G02R20R04G30R14
                                R21G20G29G15R05
 128524355.995 5  99963402.105 5  24009434.586    24009434.406    24009437.785
        35.200          34.600
 113789872.630 8  88667469.16746  21653494.156                    21653498.730
        48.600          39.500
 121711215.901 7  94839936.65745  23160875.281                    23160878.781
        45.100          31.800
 106620193.584 8  83080684.92547  20289149.023                    20289153.270
        50.000          43.800
 110184644.999 7  85699172.616 7  20597859.336    20597857.332    20597859.738
        43.500          43.200
 128917948.721 5 100455591.47442  24532272.133                    24532281.789
        32.200          16.900
 123398499.689 5  95976618.036 5  23108575.477    23108571.855    23108575.594
        34.300          31.200
 122594794.182 6  95528419.53244  23329013.852                    23329016.469
        40.900          25.300
 107281194.209 7  83440930.743 7  20062122.773    20062121.723    20062125.016
        44.900          47.600
 108061854.467 8  84048119.581 7  20179791.727    20179789.809    20179792.172
        48.500          46.400
 125743846.404 6  97982248.17943  23928260.617                    23928268.023
        39.000          23.200
 122116429.074 6  94979452.858 6  22908729.789    22908728.426    22908732.316
        41.400          38.500
 126874298.295 6  98680224.807 6  23709554.758    23709553.434    23709557.605
        37.000          36.500
 130561539.070 5 101736320.38842  24845044.688                    24845047.641
        33.400          16.900
 117032733.210 7  91194358.59145  22270589.586                    22270594.820
        47.000          34.800
 107612733.779 8  83854092.20047  20478022.789                    20478027.598
        51.900          44.000
 108023480.651 8  84018280.797 7  20208030.805    20208030.535    20208032.383
        51.000          46.700
 19  1 10  0 20  0.0000000  0 17R03G05G21G13R19G24R13G02R20R04G30R14
                                R21G20G29G15R05
 128620619.150 5 100038273.416 5  24027417.336    24027416.918    24027420.285
        33.700          34.900
 113848319.835 8  88713012.43046  21664616.195                    21664621.145
        49.200          39.400
 121633783.523 7  94779599.73745  23146140.109                    23146144.117
        45.200          31.700
 106640123.595 8  83096214.80347  20292941.625                    20292945.805
        50.900          43.500
 110286055.893 7  85778047.738 7  20616816.906    20616815.723    20616817.848
        43.400          42.800
 128806426.844 5 100368691.33643  24511050.688                    24511059.910
        32.000          18.600
 123404201.526 5  95981052.829 5  23109642.555    23109639.988    23109644.340
        33.700          31.900
 122689404.931 6  95602142.15044  23347018.109                    23347020.477
        40.500          26.000
 107248461.167 7  83415471.688 8  20056001.008    20056001.012    20056004.324
        45.100          49.000
 108116861.351 8  84090902.718 7  20190062.594    20190061.496    20190064.254
        49.200          46.900
 125782148.831 6  98012094.20444  23935549.602                    23935556.699
        38.500          24.500
 122035693.201 6  94916658.314 6  22893584.898    22893584.359    22893587.074
        41.800          38.300
 126752009.776 6  98585111.504 5  23686702.289    23686700.375    23686704.262
        36.200          35.600
 130473173.681 5 101667464.19142  24828229.102                    24828232.883
        32.300          16.900
 117104430.082 7  91250226.26345  22284232.641                    22284238.320
        47.300          35.400
 107565701.268 8  83817443.50147  20469072.859                    20469077.477
        52.500          43.900
 107991202.004 8  83993175.202 7  20201992.102    20201992.535    20201994.344
        51.000          46.800
 19  1 10  0 20 30.0000000  0 17R03G05G21G13R19G24R13G02R20R04G30R14
                                R21G20G29G15R05
 128716804.795 5 100113084.428 5  24045385.055    24045384.285    24045389.047
        33.500          35.400
 113906949.061 8  88758697.53146  21675772.953                    21675777.992
        48.700          39.100
 121556534.474 7  94719405.67045  23131440.281                    23131443.863
        43.700          32.000
 106660586.355 8  83112159.81347  20296835.758                    20296839.754
        50.100          43.600
 110388009.796 7  85857345.202 7  20635876.063    20635875.113    20635876.965
        42.700          42.300
 128694866.839 5 100281761.47843  24489821.367                    24489829.742
        33.700          19.000
 123410647.303 5  95986066.108 5  23110849.695    23110845.957    23110850.211
        33.900          30.800
 122784258.542 6  95676054.03044  23365067.867                    23365070.793
        39.400          24.800
 107216526.561 7  83390633.661 8  20050029.117    20050028.418    20050031.895
        45.000          48.200
 108172091.072 8  84133859.156 7  20200376.836    20200375.855    20200378.371
        49.100          46.000
 125820959.562 6  98042336.31144  23942934.938                    23942942.172
        38.100          24.400
 121955397.693 6  94854206.245 6  22878520.992    22878520.570    22878523.180
        41.800          38.200
 126629983.668 5  98490202.236 5  23663898.898    23663897.105    23663900.281
        35.200          35.700
 130384802.044 5 101598603.09542  24811413.000                    24811416.977
        31.900          15.600
 117176526.234 7  91306405.07345  22297952.305                    22297957.699
        46.600          35.300
 107519154.070 8  83781172.96347  20460215.281                    20460220.031
        52.500          43.900
 107959268.826 8  83968338.281 7  20196018.828    20196018.559    20196020.262
        51.000          47.000
 19  1 10  0 21  0.0000000  0 17R03G05G21G13R19G24R13G02R20R04G30R14
                                R21G20G29G15R05
 128812912.320 5 100187834.634 5  24063338.563    24063337.793    24063341.551
        32.500          34.800
 113965760.044 8  88804524.25846  21686964.695                    21686968.813
        48.300          38.700
 121479470.878 7  94659356.11245  23116775.297                    23116779.438
        43.900          32.100
 106681580.978 8  83128519.25947  20300830.758                    20300835.008
        50.400          43.600
 110490504.006 7  85937062.904 7  20655036.063    20655034.527    20655037.242
        42.700          42.400
 128583271.661 5 100194804.25542  24468585.391                    24468594.824
        33.400          16.900
 123417837.953 5  95991658.868 5  23112196.867    23112193.715    23112197.355
        33.700          30.200
 122879353.739 6  95750154.15144  23383164.094                    23383166.590
        40.000          26.200
 107185392.816 7  83366418.522 8  20044206.477    20044206.949    20044210.336
        44.600          48.500
 108227542.103 8  84176987.726 7  20210731.805    20210730.473    20210733.078
        48.600          46.500
 125860277.873 6  98072973.93844  23950416.797                    23950424.313
        39.200          24.000
 121875546.959 6  94792100.152 6  22863540.977    22863540.203    22863544.293
        41.600          39.200
 126508224.224 5  98395500.459 5  23641145.039    23641142.539    23641146.645
        35.200          34.700
 130296424.682 5 101529737.58842  24794595.328                    24794598.703
        32.800          15.600
 117249018.533 7  91362892.56645  22311746.875                    22311752.438
        47.000          35.500
 107473092.854 8  83745281.11547  20451450.094                    20451454.797
        52.300          44.400
 107927680.903 8  83943769.898 7  20190109.508    20190109.238    20190111.012
        50.500          47.100
 19  1 10  0 21 30.0000000  0 17R03G05G21G13R19G24R13G02R20R04G30R14
                                R21G20G29G15R05
 128908940.265 5 100262523.008 5  24081277.352    24081276.230    24081281.086
        33.900          34.600
 114024751.920 8  88850491.93446  21698190.656                    21698194.770
        48.600          38.800
 121402593.664 7  94599451.78345  23102146.352                    23102149.887
        44.600          32.000
 106703105.693 8  83145291.77147  20304926.844                    20304931.258
        50.200          43.400
 110593533.384 7  86017196.841 7  20674295.648    20674294.934    20674297.703
        42.800          42.400
 128471643.561 5 100107821.32043  24447344.430                    24447352.660
        34.900          19.000
 123425773.586 5  95997831.068 5  23113682.133    23113679.684    23113683.793
        34.100          31.000
 122974688.501 6  95824440.91644  23401305.477                    23401308.254
        39.500          25.200
 107155061.602 7  83342827.559 7  20038535.695    20038534.645    20038538.102
        45.100          47.900
 108283212.594 8  84220286.977 7  20221127.383    20221126.871    20221129.578
        49.400          45.700
 125900102.323 6  98104005.96844  23957995.961                    23958002.793
        39.000          24.500
 121796144.810 7  94730342.950 6  22848645.766    22848645.344    22848648.348
        42.000          38.900
 126386735.165 6  98301008.940 6  23618442.469    23618440.438    23618443.910
        36.600          36.800
 130208041.557 5 101460867.59942  24777776.516                    24777779.746
        32.400          13.900
 117321903.916 8  91419686.34845  22325617.141                    22325621.988
        48.000          35.400
 107427517.549 8  83709767.89847  20442777.492                    20442781.887
        52.000          44.500
 107896437.175 8  83919469.238 7  20184265.203    20184264.699    20184266.805
        50.700          47.300
 19  1 10  0 22  0.0000000  0 17R03G05G21G13R19G24R13G02R20R04G30R14
                                R21G20G29G15R05
 129004889.170 5 100337149.828 5  24099202.227    24099200.520    24099205.367
        32.200          34.600
 114083924.943 8  88896600.76946  21709450.914                    21709455.293
        48.600          38.700
 121325905.934 7  94539695.10045  23087553.125                    23087557.316
        44.400          32.800
 106725158.886 8  83162476.07947  20309123.617                    20309127.637
        50.600          43.900
 110697095.172 7  86097744.898 7  20693655.852    20693655.020    20693657.680
        43.100          42.500
 128359985.950 5 100020815.42943  24426095.695                    24426104.547
        35.400          19.600
 123434454.375 5  96004582.745 5  23115307.969    23115305.285    23115309.043
        34.600          31.200
 123070261.665 6  95898913.48544  23419492.195                    23419494.359
        39.400          24.200
 107125535.014 7  83319862.437 8  20033013.023    20033013.262    20033017.078
        45.400          48.200
 108339100.665 8  84263755.485 7  20231564.523    20231563.309    20231566.078
        48.600          45.900
 125940432.266 6  98135431.87744  23965670.258                    23965677.195
        39.000          25.600
 121717195.967 6  94668938.324 6  22833835.234    22833833.754    22833837.090
        41.700          39.300
 126265520.961 6  98206731.233 6  23595789.484    23595788.746    23595792.539
        36.000          36.000
 130119653.726 5 101391993.90042  24760955.633                    24760961.504
        30.500          13.900
 117395179.773 8  91476784.40845  22339561.125                    22339566.379
        48.000          35.800
 107382429.373 8  83674634.25947  20434197.211                    20434201.922
        52.500          44.000
 107865537.083 8  83895435.833 7  20178483.875    20178483.840    20178485.973
        51.600          47.600
 19  1 10  0 22 30.0000000  0 17R03G05G21G13R19G24R13G02R20R04G30R14
                                R21G20G29G15R05
 129100758.969 5 100411715.199 5  24117111.945    24117111.176    24117114.652
        33.800          34.400
 114143279.541 8  88942851.09446  21720745.820                    21720750.090
        48.400          38.800
 121249410.445 7  94480088.22745  23072996.672                    23073000.898
        44.000          32.700
 106747740.537 8  83180072.17547  20313420.672                    20313424.754
        49.500          43.200
 110801186.936 7  86178705.130 7  20713114.398    20713113.332    20713116.238
        42.400          42.800
 128248302.650 5  99933789.51043  24404843.000                    24404852.313
        35.500          19.300
 123443881.402 5  96011914.857 5  23117074.070    23117070.332    23117074.035
        34.200          30.600
 123166072.152 6  95973570.96944  23437724.602                    23437727.293
        39.300          24.100
 107096815.923 7  83297525.344 8  20027642.508    20027642.512    20027646.086
        44.800          48.100
 108395206.058 8  84307393.006 7  20242041.656    20242040.676    20242043.352
        48.200          46.300
 125981267.300 6  98167251.38243  23973440.461                    23973447.770
        37.200          22.000
 121638705.270 6  94607890.032 6  22819110.961    22819109.480    22819113.590
        41.100          39.800
 126144586.640 6  98112671.168 5  23573190.898    23573189.926    23573193.285
        36.200          35.400
 130031262.06615 101323117.30252  24744136.367                    24744140.422
        30.500          14.800
 117468844.311 7  91534185.32945  22353579.438                    22353584.117
        47.100          35.600
 107337829.371 8  83639881.00547  20425710.211                    20425715.316
        51.900          43.900
 107834980.642 8  83871669.719 7  20172767.883    20172767.730    20172769.758
        51.100          47.400
 19  1 10  0 23  0.0000000  0 16G05G21G13R19G24R13G02R20R04G30R14R21
                                G20G29G15R05
 114202814.242 8  88989241.75446  21732074.508                    21732079.043
        48.400          38.700
 121173108.205 7  94420631.93545  23058477.133                    23058480.793
        44.600          33.400
 106770848.030 8  83198078.01847  20317817.883                    20317821.605
        50.400          43.900
 110905802.832 7  86260073.016 7  20732671.258    20732670.664    20732673.234
        42.700          42.200
 128136595.097 6  99846744.74343  24383586.234                    24383594.684
        36.000          19.000
 123454053.492 5  96019826.519 5  23118978.141    23118976.043    23118979.309
        33.900          30.400
 123262117.242 6  96048411.25144  23456000.930                    23456004.016
        40.100          24.700
 107068904.723 7  83275816.616 8  20022423.289    20022422.824    20022426.418
        45.200          49.000
 108451526.020 8  84351197.402 7  20252559.773    20252558.676    20252561.520
        49.100          46.300
 126022605.419 6  98199462.87443  23981307.289                    23981314.219
        39.000          23.800
 121560676.093 6  94547200.684 6  22804472.992    22804471.043    22804474.723
        41.300          40.400
 126023935.278 6  98018831.188 6  23550645.125    23550644.035    23550647.352
        37.000          36.300
 129942866.01815 101254237.27052  24727315.789                    24727319.574
        31.900          15.600
 117542893.130 7  91591885.69345  22367669.945                    22367675.180
        47.000          35.500
 107293717.011 8  83605507.74247  20417315.695                    20417320.797
        52.000          44.600
 107804766.303 8  83848169.662 7  20167115.602    20167115.684    20167117.777
        51.300          47.500
 19  1 10  0 23 30.0000000  0 16G05G21G13R19G24R13G02R20R04G30R14R21
                                G20G29G15R05
 114262527.859 8  89035771.82546  21743437.492                    21743442.480
        48.600          37.900
 121097000.019 7  94361326.84445  23043994.289                    23043997.973
        44.700          33.400
 106794478.954 8  83216491.72647  20322314.445                    20322318.520
        49.300          43.300
 111010937.897 7  86341844.739 6  20752326.188    20752324.887    20752327.563
        43.000          41.500
 128024864.841 6  99759682.21243  24362324.898                    24362333.301
        36.300          19.000
 123464969.838 5  96028316.975 4  23121021.227    23121020.305    23121023.238
        33.900          29.900
 123358394.303 6  96123432.29044  23474322.461                    23474324.629
        39.500          25.400
 107041802.359 7  83254736.993 8  20017355.141    20017354.910    20017358.395
        45.100          48.000
 108508057.619 8  84395166.417 7  20263116.195    20263115.215    20263117.910
        48.800          45.600
 126064444.396 6  98232064.66044  23989269.266                    23989275.742
        38.600          24.600
 121483111.430 6  94486872.641 6  22789922.156    22789920.441    22789924.324
        41.300          39.700
 125903569.901 6  97925213.690 5  23528151.242    23528149.801    23528153.352
        36.500          35.700
 129854465.170 5 101185353.49742  24710494.695                    24710496.949
        34.100          16.300
 117617322.069 7  91649882.24345  22381833.250                    22381838.289
        47.000          35.000
 107250091.874 8  83571514.13747  20409014.313                    20409018.977
        51.900          44.200
 107774892.281 8  83824934.312 7  20161527.430    20161527.512    20161529.438
        51.100          47.300
 19  1 10  0 24  0.0000000  0 17G05G21G13R19G24R13G02R20R04G30R14R21
                                G20G29G15R05R06
 114322421.236 8  89082441.97546  21754835.094                    21754839.523
        48.500          39.100
 121021089.358 7  94302175.68445  23029549.023                    23029552.605
        44.900          33.800
 106818633.024 8  83235313.08347  20326910.703                    20326914.625
        48.900          43.800
 111116590.395 7  86424018.859 7  20772076.734    20772075.316    20772077.738
        42.700          42.400
 127913116.582 6  99672605.69943  24341059.414                    24341067.691
        36.700          20.600
 123476632.397 5  96037387.830 5  23123205.945    23123204.789    23123208.070
        33.600          31.500
 123454902.817 6  96198633.67844  23492687.227                    23492689.723
        39.800          24.900
 107015512.120 7  83234289.016 8  20012438.172    20012437.941    20012441.594
        45.100          48.800
 108564800.650 8  84439299.875 7  20273712.094    20273711.699    20273714.102
        48.500          46.300
 126106784.612 6  98265057.04844  23997325.773                    23997332.930
        38.400          25.100
 121406017.048 6  94426910.371 6  22775458.922    22775457.207    22775460.832
        41.600          39.300
 125783496.058 6  97831822.933 5  23505712.961    23505711.402    23505714.188
        36.700          35.500
 129766061.24715 101116467.24452  24693670.023                    24693674.203
        33.100          16.900
 117692129.874 7  91708174.02245  22396068.938                    22396073.543
        46.900          35.300
 107206955.751 8  83537901.58247  20400805.664                    20400810.805
        52.000          44.700
 107745359.037 8  83801964.030 7  20156002.531    20156002.379    20156004.230
        51.000          47.500
 128300580.79114                  24043474.922    24043473.934
        29.400
 19  1 10  0 24 30.0000000  0 17G05G21G13R19G24R13G02R20R04G30R14R21
                                G20G29G15R05R06
 114382494.116 8  89129251.99546  21766266.484                    21766271.371
        48.900          39.000
 120945378.100 7  94243179.90045  23015141.438                    23015145.215
        45.400          33.700
 106843308.620 8  83254540.82647  20331606.742                    20331610.828
        50.000          43.700
 111222756.094 7  86506592.177 7  20791923.383    20791921.965    20791924.605
        42.900          42.300
 127801352.460 5  99585516.83043  24319791.102                    24319799.902
        35.200          20.100
 123489040.452 5  96047038.495 5  23125529.422    23125527.324    23125531.410
        33.700          30.700
 123551641.069 6  96274014.09244  23511096.516                    23511098.613
        40.100          24.500
 106990035.298 7  83214473.699 8  20007673.586    20007673.590    20007676.809
        45.400          48.100
 108621753.389 8  84483596.436 7  20284347.875    20284346.074    20284348.773
        49.100          45.700
 126149624.608 6  98298438.82644  24005478.320                    24005485.098
        38.400          24.900
 121329396.832 7  94367316.892 6  22761083.922    22761084.086    22761087.395
        42.100          39.600
 125663717.808 6  97738662.014 5  23483329.625    23483328.652    23483331.277
        37.500          34.900
 129677654.28415 101047578.73952  24676846.266                    24676852.250
        32.500          15.600
 117767313.394 7  91766758.56645  22410375.711                    22410380.637
        46.800          34.900
 107164308.516 8  83504669.97147  20392690.398                    20392694.934
        52.300          44.900
 107716165.834 8  83779258.211 7  20150541.203    20150540.816    20150542.668
        51.200          47.500
 128210979.083 5                  24026685.234    24026682.840
        30.700
 19  1 10  0 25  0.0000000  0 17G05G21G13R19G24R13G02R20R04G30R14R21
                                G20G29G15R05R06
 114442744.726 8  89176200.50846  21777732.008                    21777736.211
        49.300          38.300
 120869866.996 7  94184340.07745  23000772.070                    23000775.043
        45.000          33.700
 106868502.927 8  83274172.75747  20336400.961                    20336405.004
        49.100          43.800
 111329429.508 7  86589560.363 6  20811864.484    20811863.418    20811865.859
        42.900          41.900
 127689574.151 6  99498416.89943  24298520.445                    24298529.254
        36.500          19.600
 123502192.989 5  96057268.252 5  23127993.547    23127990.395    23127993.895
        34.600          31.600
 123648605.991 6  96349571.12744  23529548.938                    23529550.652
        41.000          25.300
 106965372.463 7  83195291.474 8  20003062.453    20003061.754    20003065.430
        45.300          48.400
 108678912.931 8  84528053.865 7  20295021.523    20295020.777    20295023.262
        48.800          46.200
 126192961.888 6  98332208.13344  24013724.844                    24013731.762
        39.400          25.300
 121253253.517 6  94308094.351 6  22746801.266    22746799.668    22746803.328
        41.800          40.200
 125544237.852 6  97645733.128 6  23461002.367    23461000.574    23461003.617
        37.700          36.600
 129589243.56715 100978687.28252  24660023.328                    24660027.625
        33.000          16.900
 117842868.429 7  91825632.60245  22424753.023                    22424758.137
        46.400          33.900
 107122149.348 8  83471818.67647  20384667.867                    20384672.535
        52.500          44.600
 107687310.593 8  83756815.247 7  20145142.977    20145143.176    20145144.996
        51.300          47.000
 128121511.79415                  24009916.102    24009916.992
        32.000
 19  1 10  0 25 30.0000000  0 17G05G21G13R19G24R13G02R20R04G30R14R21
                                G20G29G15R05R06
 114503174.883 8  89223288.93046  21789231.305                    21789236.188
        48.800          38.500
 120794560.097 7  94125659.37745  22986441.820                    22986445.281
        44.900          34.200
 106894216.894 8  83294209.61747  20341294.172                    20341298.141
        49.900          43.800
 111436609.141 7  86672922.290 6  20831900.078    20831899.602    20831902.039
        43.000          41.800
 127577787.362 6  99411310.38543  24277248.719                    24277257.242
        37.300          20.100
 123516091.683 5  96068078.328 5  23130598.102    23130592.953    23130597.195
        33.800          30.600
 123745798.010 6  96425305.12144  23548043.641                    23548045.637
        40.700          25.500
 106941527.258 7  83176745.200 8  19998602.672    19998602.559    19998605.973
        45.200          48.600
 108736279.686 8  84572672.429 7  20305735.242    20305734.379    20305736.660
        49.300          45.900
 126236797.521 6  98366365.74143  24022066.859                    24022073.668
        39.400          22.900
 121177593.827 6  94249247.896 6  22732606.516    22732606.328    22732609.273
        41.800          40.100
 125425062.701 6  97553041.342 5  23438730.758    23438728.844    23438732.488
        37.200          35.900
 129500831.70815 100909794.90152  24643198.102                    24643203.641
        32.500          16.300
 117918794.173 7  91884795.49545  22439201.313                    22439206.273
        46.200          34.100
 107080481.013 8  83439349.84547  20376738.398                    20376743.191
        52.000          45.200
 107658794.770 8  83734636.276 7  20139808.703    20139808.785    20139810.680
        50.800          46.700
 128032181.84914                  23993175.891    23993175.723
        29.400
 19  1 10  0 26  0.0000000  0 16G05G21G13R19G24R13G02R20R04G30R14R21
                                G20G29G15R05
 114563782.055 8  89270515.28946  21800764.750                    21800769.578
        48.600          37.700
 120719456.730 7  94067137.26945  22972149.914                    22972153.301
        45.700          33.600
 106920446.085 8  83314647.95247  20346285.352                    20346289.563
        50.000          43.800
 111544288.524 7  86756672.910 6  20852031.023    20852029.020    20852031.313
        42.600          41.500
 127465991.448 6  99324196.72543  24255975.289                    24255983.172
        37.500          20.600
 123530734.490 5  96079467.174 5  23133338.336    23133336.121    23133339.945
        33.800          30.300
 123843212.992 6  96501212.83344  23566580.117                    23566583.059
        40.900          26.800
 106918498.762 7  83158834.130 8  19994296.133    19994296.137    19994299.496
        45.200          48.000
 108793849.485 8  84617448.949 7  20316485.828    20316484.496    20316486.813
        49.000          45.900
 126281127.770 6  98400908.79443  24030502.766                    24030509.426
        39.300          23.300
 121102418.985 6  94190778.610 6  22718503.781    22718503.594    22718507.191
        41.600          40.000
 125306193.789 6  97460587.772 5  23416517.961    23416516.520    23416519.219
        38.100          35.600
 129412416.10915 100840899.57552  24626372.633                    24626379.027
        31.300          16.300
 117995084.497 7  91944242.49445  22453718.609                    22453723.551
        46.200          33.500
 107039301.298 8  83407261.75947  20368902.477                    20368907.188
        52.300          45.100
 107630614.970 8  83712718.671 7  20134537.313    20134536.926    20134538.777
        50.800          47.600
 19  1 10  0 26 30.0000000  0 16G05G21G13R19G24R13G02R20R04G30R14R21
                                G20G29G15R05
 114624567.934 8  89317880.89446  21812331.672                    21812335.969
        48.400          38.400
 120644561.838 7  94008777.60745  22957898.016                    22957901.441
        46.000          34.300
 106947191.735 8  83335488.71847  20351374.844                    20351379.145
        49.000          44.000
 111652465.899 7  86840810.827 7  20872252.836    20872251.418    20872253.996
        42.100          42.100
 127354192.433 6  99237080.65943  24234700.109                    24234708.684
        37.900          20.600
 123546123.589 5  96091436.426 5  23136220.891    23136217.738    23136221.195
        34.100          31.900
 123940851.339 6  96577294.61944  23585160.688                    23585163.469
        40.300          26.700
 106896291.154 7  83141561.541 8  19990143.328    19990143.332    19990147.117
        44.900          48.600
 108851623.309 8  84662384.116 7  20327275.055    20327273.020    20327275.883
        49.300          45.300
 126325953.869 6  98435838.20544  24039033.500                    24039040.383
        39.000          24.700
 121027735.488 7  94132691.477 6  22704493.586    22704492.574    22704496.148
        42.100          40.100
 125187637.890 6  97368377.609 5  23394361.891    23394360.918    23394364.426
        38.200          35.900
 129324000.52615 100772004.27452  24609548.672                    24609552.781
        32.600          14.800
 118071739.913 7  92003973.97345  22468305.594                    22468310.809
        46.000          34.100
 106998612.912 8  83375556.52347  20361159.781                    20361164.098
        52.100          45.200
 107602772.986 8  83691063.797 7  20129328.539    20129328.270    20129330.492
        51.000          47.300
 19  1 10  0 27  0.0000000  0 16G05G21G13R19G24R13G02R20R04G30R14R21
                                G20G29G15R05
 114685531.051 8  89365384.60646  21823932.547                    21823937.297
        48.300          38.200
 120569875.645 7  93950580.57045  22943685.313                    22943689.121
        46.200          34.600
 106974450.774 8  83356729.52947  20356561.953                    20356566.012
        49.000          44.000
 111761136.420 6  86925332.331 6  20892567.039    20892566.090    20892568.395
        41.600          41.300
 127242391.212 6  99149962.86243  24213424.945                    24213433.156
        38.500          21.300
 123562257.001 5  96103984.639 5  23139242.008    23139238.855    23139242.723
        33.900          31.600
 124038710.379 6  96653548.36944  23603782.547                    23603785.527
        41.400          25.200
 106874904.442 7  83124927.393 8  19986143.664    19986143.668    19986147.039
        45.200          48.500
 108909598.365 8  84707475.836 7  20338101.313    20338100.215    20338102.527
        48.700          45.100
 126371273.248 6  98471151.98144  24047656.266                    24047663.316
        38.100          24.900
 120953546.472 7  94074988.939 6  22690576.578    22690574.746    22690578.023
        42.200          40.100
 125069397.976 6  97276413.229 5  23372266.445    23372265.121    23372268.613
        38.900          35.000
 129235583.86315 100703108.18052  24592724.594                    24592728.082
        32.300          16.900
 118148755.356 7  92063985.98445  22482961.406                    22482966.184
        45.700          33.300
 106958415.013 8  83344233.48747  20353510.180                    20353514.754
        53.000          45.200
 107575266.739 8  83669670.048 7  20124183.234    20124182.379    20124184.449
        51.000          47.200
 19  1 10  0 27 30.0000000  0 16G05G21G13R19G24R13G02R20R04G30R14R21
                                G20G29G15R05
 114746669.633 8  89413025.05046  21835566.703                    21835571.270
        48.800          37.800
 120495399.076 7  93892546.88445  22929512.836                    22929516.656
        45.500          33.800
 107002219.990 8  83378367.88247  20361846.414                    20361850.668
        49.600          43.900
 111870294.025 7  87010232.661 6  20912972.703    20912972.695    20912974.887
        42.600          41.500
 127130589.303 6  99062844.51443  24192149.781                    24192157.949
        37.500          20.900
 123579133.234 5  96117110.585 5  23142400.938    23142399.309    23142402.898
        33.900          30.800
 124136786.728 6  96729971.44544  23622445.813                    23622448.688
        41.400          24.900
 106854338.341 7  83108931.540 8  19982297.602    19982297.137    19982300.914
        44.900          48.300
 108967771.286 8  84752721.434 7  20348964.414    20348963.316    20348965.621
        49.400          45.700
 126417082.945 6  98506847.83343  24056373.844                    24056380.621
        38.800          23.000
 120879854.252 6  94017672.775 6  22676752.063    22676750.582    22676753.547
        41.900          39.800
 124951476.386 6  97184696.405 5  23350229.883    23350228.910    23350231.758
        38.600          35.000
 129147164.80315                  24575899.125
        33.100
 118226126.401 7  92124275.09045  22497684.516                    22497689.750
        45.900          33.700
 106918705.909 8  83313291.32747  20345953.836                    20345958.633
        52.800          44.900
 107548093.739 8  83648535.497 7  20119099.945    20119099.793    20119101.762
        50.800          47.700
 19  1 10  0 28  0.0000000  0 16G05G21G13R19G24R13G02R20R04G30R14R21
                                G20G29G15R05
 114807986.721 7  89460804.58846  21847235.141                    21847239.449
        47.900          38.300
 120421137.242 7  93834680.51845  22915381.430                    22915385.297
        45.600          34.600
 107030501.550 8  83400405.46447  20367228.117                    20367232.395
        48.600          43.400
 111979939.802 7  87095512.701 6  20933470.516    20933470.273    20933472.105
        42.800          41.400
 127018793.247 6  98975730.76143  24170875.016                    24170883.531
        37.900          21.300
 123596755.922 5  96130817.116 5  23145702.391    23145699.238    23145703.359
        33.800          31.400
 124235082.009 6  96806565.12344  23641150.695                    23641153.668
        41.500          24.600
 106834598.066 7  83093577.971 8  19978606.797    19978606.566    19978610.176
        45.100          48.500
 109026144.055 8  84798122.468 7  20359864.992    20359864.246    20359866.715
        48.800          46.100
 126463385.446 6  98542927.68744  24065185.273                    24065191.660
        38.700          24.700
 120806666.325 7  93960748.871 6  22663021.547    22663020.418    22663024.668
        42.000          39.800
 124833880.976 6  97093233.286 5  23328253.734    23328253.113    23328256.828
        39.700          35.600
 129058746.83215 100565312.95252  24559072.195                    24559077.090
        32.300          14.800
 118303853.670 7  92184841.78245  22512475.648                    22512480.566
        46.100          33.300
 106879489.830 8  83282733.34847  20338491.180                    20338495.977
        53.000          45.200
 107521256.940 8  83627662.433 7  20114079.484    20114079.098    20114080.965
        50.600          47.000
 19  1 10  0 28 30.0000000  0 17G05G21G13R19G24R13G02R20R04G30R14R21
                                G20G29G15R05R06
 114869481.457 8  89508722.55046  21858937.297                    21858941.434
        48.000          37.900
 120347091.265 7  93776982.34345  22901291.078                    22901294.590
        45.900          34.400
 107059292.615 8  83422840.05247  20372706.883                    20372710.934
        48.800          43.600
 112090067.101 7  87181167.244 7  20954057.641    20954056.809    20954059.109
        42.700          42.100
 126907004.985 6  98888623.02343  24149603.047                    24149611.227
        38.400          21.800
 123615123.031 5  96145102.648 5  23149141.180    23149139.082    23149142.195
        34.100          30.200
 124333593.254 6  96883327.08844  23659896.883                    23659900.000
        41.700          25.400
 106815683.666 7  83078866.774 8  19975069.344    19975069.465    19975072.871
        45.200          48.200
 109084714.310 8  84843677.112 7  20370802.719    20370801.973    20370804.176
        49.000          45.700
 126510178.241 6  98579389.59443  24074089.000                    24074096.477
        38.600          22.800
 120733985.870 6  93904219.655 6  22649387.188    22649386.414    22649389.246
        41.700          39.800
 124716614.829 6  97002026.307 5  23306340.133    23306339.160    23306342.910
        39.200          35.400
 128970330.44115 100496417.13752  24542247.633                    24542252.395
        33.000          14.800
 118381933.018 7  92245682.81445  22527333.773                    22527339.129
        46.300          33.600
 106840765.927 8  83252558.88147  20331122.406                    20331127.004
        52.500          45.200
 107494754.582 8  83607049.504 7  20109121.422    20109121.270    20109123.211
        50.500          47.300
 127499062.68715                  23893271.258    23893270.152
        31.500
 19  1 10  0 29  0.0000000  0 17G05G21G13R19G24R13G02R20R04G30R14R21
                                G20G29G15R05R06
 114931152.126 7  89556777.60246  21870672.516                    21870677.367
        47.800          37.500
 120273262.812 7  93719453.67345  22887241.688                    22887245.547
        45.500          34.800
 107088590.650 8  83445669.68247  20378282.125                    20378286.023
        48.800          43.400
 112200671.802 7  87267193.109 7  20974734.367    20974733.535    20974735.867
        42.100          42.300
 126795226.393 6  98801522.86243  24128331.547                    24128340.563
        38.700          21.800
 123634233.496 5  96159966.287 5  23152721.391    23152717.418    23152720.930
        33.700          31.300
 124432317.640 6  96960255.12844  23678684.430                    23678686.625
        41.300          25.800
 106797595.611 7  83064798.267 7  19971687.297    19971686.480    19971690.090
        45.000          47.800
 109143478.905 8  84889382.905 7  20381776.617    20381775.988    20381778.418
        49.400          45.700
 126557458.921 6  98616231.66543  24083086.570                    24083093.742
        38.100          22.500
 120661815.872 6  93848087.438 6  22635848.188    22635846.824    22635850.277
        41.600          39.900
 124599681.072 6  96911077.800 5  23284487.758    23284487.723    23284490.961
        39.700          35.300
 128881914.12615 100427521.30152  24525423.508                    24525426.324
        32.600          16.300
 118460360.114 7  92306794.80045  22542258.109                    22542263.148
        46.700          33.600
 106802533.228 8  83222767.17147  20323846.797                    20323851.496
        52.400          44.900
 107468584.744 8  83586695.177 7  20104225.914    20104225.527    20104227.621
        51.200          46.900
 127410690.604 5                  23876711.313    23876708.801
        31.000
 19  1 10  0 29 30.0000000  0 17G05G21G13R19G24R13G02R20R04G30R14R21
                                G20G29G15R05R06
 114992998.205 8  89604969.34246  21882442.164                    21882446.293
        48.200          38.500
 120199653.500 7  93662095.76145  22873234.359                    22873237.883
        45.800          34.800
 107118393.811 8  83468892.92747  20383953.492                    20383957.691
        50.000          43.900
 112311749.147 7  87353586.563 6  20995499.445    20995498.379    20995500.836
        42.700          41.900
 126683460.394 6  98714432.48643  24107064.211                    24107072.016
        38.300          21.100
 123654087.048 5  96175407.954 5  23156439.344    23156436.191    23156439.148
        33.900          32.000
 124531253.647 6  97037348.08244  23697511.109                    23697513.387
        40.600          25.900
 106780335.137 7  83051373.438 8  19968459.164    19968458.934    19968462.445
        45.000          49.000
 109202436.896 8  84935239.119 7  20392786.359    20392785.730    20392788.453
        49.300          46.100
 126605226.328 6  98653452.99343  24092176.648                    24092183.203
        38.400          22.900
 120590160.397 6  93792355.423 6  22622404.742    22622404.789    22622407.738
        41.900          40.500
 124483084.060 6  96820391.217 6  23262699.445    23262698.238    23262701.551
        39.900          36.000
 128793498.97415 100358626.41052  24508598.711                    24508601.660
        33.200          16.300
 118539132.313 7  92368175.71445  22557248.289                    22557253.039
        46.400          33.000
 106764792.246 8  83193358.61747  20316664.891                    20316669.543
        52.400          45.600
 107442746.523 8  83566598.796 7  20099392.570    20099392.535    20099394.547
        50.700          47.600
 127322456.669 5                  23860175.656    23860174.785
        31.500
 19  1 10  0 30  0.0000000  0 17G05G21G13R19G24R13G02R20R04G30R14R21
                                G20G29G15R05R06
 115055018.981 8  89653297.20346  21894243.773                    21894248.195
        48.000          37.400
 120126264.061 7  93604909.18645  22859268.953                    22859272.777
        46.300          33.500
 107148699.542 8  83492507.78147  20389720.281                    20389724.324
        49.600          43.600
 112423294.452 7  87440344.009 7  21016351.586    21016350.637    21016352.992
        42.000          42.100
 126571708.517 6  98627353.11243  24085798.141                    24085805.367
        38.900          20.900
 123674681.568 5  96191425.880 5  23160295.898    23160292.160    23160296.398
        33.700          31.400
 124630398.353 6  97114603.65644  23716376.945                    23716380.230
        40.500          24.200
 106763902.382 7  83038592.403 7  19965385.977    19965386.332    19965390.039
        44.700          47.900
 109261585.440 8  84981243.526 7  20403831.750    20403831.121    20403833.488
        49.200          45.300
 126653478.063 6  98691051.73643  24101358.477                    24101365.820
        38.400          22.200
 120519022.363 7  93737025.876 6  22609059.414    22609059.813    22609063.035
        42.300          40.000
 124366826.863 6  96729968.946 5  23240973.992    23240972.785    23240976.512
        39.600          35.800
 128705084.12215 100289731.64152  24491773.250                    24491777.250
        33.300          17.400
 118618245.316 7  92429822.19645  22572302.930                    22572307.789
        46.600          33.500
 106727542.403 8  83164332.76747  20309576.602                    20309581.289
        52.300          45.500
 107417238.461 8  83546759.204 7  20094620.695    20094620.777    20094622.645
        50.700          47.000
 127234359.498 5                  23843665.578    23843665.059
        30.300
 19  1 10  0 30 30.0000000  0 17G05G21G13R19G24R13G02R20R04G30R14R21
                                G20G29G15R05R06
 115117214.755 7  89701761.42746  21906079.398                    21906083.898
        47.400          37.600
 120053097.494 7  93547896.27245  22845346.023                    22845349.230
        45.700          34.800
 107179507.267 8  83516513.80047  20395582.773                    20395587.195
        49.200          43.600
 112535305.320 6  87527463.572 7  21037290.875    21037289.340    21037291.867
        41.700          42.300
 126459974.822 6  98540287.92043  24064535.219                    24064543.016
        38.700          20.900
 123696018.174 5  96208020.983 5  23164289.789    23164287.926    23164291.715
        32.900          32.700
 124729750.680 6  97192020.98943  23735282.820                    23735286.527
        40.100          23.000
 106748299.608 7  83026456.888 8  19962468.734    19962468.621    19962472.121
        45.500          48.700
 109320924.109 8  85027395.832 7  20414912.898    20414912.270    20414914.820
        49.200          46.200
 126702213.638 6  98729027.48843  24110633.031                    24110639.504
        38.600          22.600
 120448406.628 7  93682102.535 6  22595813.664    22595812.301    22595815.273
        42.500          40.400
 124250914.679 6  96639815.023 6  23219313.563    23219312.121    23219315.422
        40.300          36.200
 128616671.63815                  24474948.344
        31.300
 118697696.512 7  92491732.19345  22587421.813                    22587427.219
        47.000          34.300
 106690784.373 8  83135690.14247  20302581.734                    20302586.121
        51.900          45.500
 107392060.292 8  83527176.183 7  20089910.391    20089910.121    20089911.965
        50.600          47.700
 127146400.147 4                  23827181.359    23827181.664
        29.400
 19  1 10  0 31  0.0000000  0 17G05G21G13R19G24R13G02R20R04G30R14R21
                                G20G29G15R05R06
 115179584.066 7  89750360.87446  21917947.922                    21917952.453
        47.900          37.200
 119980155.281 7  93491058.17545  22831465.648                    22831469.223
        45.900          33.900
 107210814.015 8  83540908.67347  20401540.344                    20401544.453
        48.800          43.300
 112647775.760 7  87614940.558 6  21058315.914    21058314.145    21058316.598
        42.400          41.400
 126348260.658 6  98453237.93943  24043276.992                    24043284.367
        38.400          21.700
 123718095.346 5  96225192.137 5  23168424.133    23168421.918    23168426.508
        33.600          31.500
 124829307.913 6  97269598.01344  23754228.570                    23754231.563
        40.500          24.700
 106733526.495 7  83014966.683 7  19959705.805    19959705.809    19959709.430
        45.000          47.600
 109380449.873 8  85073693.637 7  20426029.648    20426028.785    20426031.270
        48.600          45.400
 126751430.486 6  98767378.26043  24119997.477                    24120005.336
        39.000          22.000
 120378315.982 7  93627587.622 6  22582663.297    22582663.227    22582666.695
        42.300          39.900
 124135350.410 6  96549931.671 5  23197718.031    23197716.355    23197719.586
        40.800          35.500
 128528259.52215 100151946.29752  24458123.766                    24458129.301
        31.900          15.600
 118777482.475 7  92553903.04945  22602604.711                    22602609.969
        47.300          33.400
 106654517.214 8  83107430.02347  20295680.367                    20295684.828
        51.700          44.800
 107367210.194 8  83507848.329 7  20085261.641    20085261.488    20085263.746
        50.500          47.100
 127058577.99814                  23810726.500    23810723.871
        29.900
 19  1 10  0 31 30.0000000  0 18R15G05G21G13R19G24R13G02R20R04G30R14
                                R21G20G29G15R05R06
 128624377.24216 100041197.47115  24070302.453    24070301.777    24070305.660
        38.600          35.800
 115242127.404 8  89799095.91946  21929849.633                    21929854.152
        48.000          38.000
 119907439.591 7  93434396.60245  22817628.227                    22817631.652
        45.400          34.200
 107242618.711 8  83565691.55647  20407592.805                    20407597.039
        49.600          43.800
 112760702.035 6  87702772.094 6  21079425.742    21079425.266    21079427.945
        41.700          41.900
 126236570.126 6  98366206.37243  24022023.125                    24022030.637
        38.300          21.100
 123740912.745 5  96242938.980 5  23172697.547    23172695.215    23172699.086
        32.500          32.000
 124929069.033 6  97347333.90643  23773212.406                    23773215.129
        40.200          23.900
 106719585.002 7  83004123.284 8  19957098.398    19957098.402    19957101.984
        44.700          48.400
 109440162.158 8  85120136.511 7  20437180.023    20437179.160    20437181.793
        48.900          46.100
 126801127.830 6  98806103.45443  24129455.508                    24129462.320
        38.400          22.500
 120308755.093 6  93573484.733 6  22569614.867    22569613.738    22569617.320
        41.700          40.600
 124020138.824 6  96460322.635 6  23176187.539    23176186.215    23176189.441
        40.600          36.700
 128439849.99715 100083055.78252  24441301.180                    24441305.223
        34.300          15.600
 118857600.605 7  92616332.74745  22617850.867                    22617855.520
        46.400          34.400
 106618741.701 8  83079553.00547  20288872.352                    20288876.898
        51.300          45.500
 107342688.122 8  83488775.619 7  20080673.977    20080674.059    20080676.102
        50.500          47.100
 126970893.47815                  23794292.523    23794290.832
        31.200
 19  1 10  0 32  0.0000000  0 18R15G05G21G13R19G24R13G02R20R04G30R14
                                R21G20G29G15R05R06
 128508397.647 6  99950991.249 5  24048598.109    24048598.020    24048601.980
        38.300          35.500
 115304845.850 7  89847967.42046  21941784.195                    21941789.270
        47.600          36.900
 119834954.100 7  93377914.38945  22803834.352                    22803837.836
        45.800          34.600
 107274921.272 8  83590862.38747  20413739.734                    20413743.648
        49.500          42.900
 112874081.326 6  87790955.961 6  21100620.633    21100620.039    21100622.613
        41.500          41.200
 126124907.566 6  98279196.59143  24000774.195                    24000782.199
        38.600          22.300
 123764471.535 5  96261262.451 4  23177109.250    23177107.152    23177110.703
        33.700          29.900
 125029033.373 6  97425228.14244  23792235.453                    23792238.121
        40.000          25.300
 106706477.844 7  82993928.811 8  19954647.180    19954647.184    19954651.059
        45.300          48.000
 109500060.974 8  85166724.480 7  20448365.641    20448364.543    20448367.367
        48.400          45.700
 126851305.730 6  98845203.08643  24139003.289                    24139010.531
        37.700          22.800
 120239729.504 6  93519798.172 6  22556665.414    22556665.227    22556668.379
        41.900          39.800
 123905285.764 6  96370992.483 6  23154723.797    23154723.176    23154726.742
        40.500          36.200
 128351444.82815 100014168.67852  24424478.008                    24424481.934
        34.700          16.300
 118938049.433 7  92679020.12945  22633159.602                    22633164.688
        47.200          33.000
 106583459.569 8  83052060.43547  20282158.492                    20282163.129
        51.900          45.000
 107318494.830 8  83469958.619 7  20076148.484    20076148.449    20076150.215
        51.200          47.200
 126883348.949 5                  23777886.891    23777885.316
        30.800
 19  1 10  0 32 30.0000000  0 18R15G05G21G13R19G24R13G02R20R04G30R14
                                R21G20G29G15R05R06
 128392385.650 6  99860759.741 5  24026889.000    24026887.152    24026891.617
        38.300          34.800
 115367739.874 7  89896975.73646  21953752.516                    21953757.125
        47.400          36.900
 119762701.553 7  93321613.70445  22790085.211                    22790088.965
        45.800          34.100
 107307720.654 8  83616420.34747  20419980.930                    20419985.313
        49.300          43.600
 112987911.369 6  87879490.442 6  21121899.844    21121898.660    21121901.164
        41.400          41.200
 126013276.722 6  98192211.54543  23979531.539                    23979539.402
        39.200          21.800
 123788771.362 5  96280162.347 5  23181660.891    23181657.504    23181661.242
        33.600          30.800
 125129200.417 6  97503280.35243  23811295.484                    23811299.371
        39.100          22.000
 106694206.961 7  82984384.769 8  19952352.633    19952352.754    19952356.215
        44.900          48.200
 109560145.819 8  85213457.126 7  20459586.172    20459584.371    20459587.395
        48.300          45.900
 126901963.879 6  98884676.93643  24148643.469                    24148650.547
        38.600          22.900
 120171243.900 6  93466531.623 6  22543818.039    22543817.027    22543820.449
        41.800          40.400
 123790796.556 6  96281945.318 6  23133329.180    23133327.387    23133330.297
        40.800          36.900
 128263045.25015  99945285.82952  24407655.500                    24407660.004
        33.400          16.300
 119018826.423 7  92741963.21645  22648530.945                    22648536.016
        46.600          33.400
 106548672.314 8  83024953.48847  20275538.656                    20275543.000
        52.500          44.900
 107294630.518 8  83451397.480 7  20071684.188    20071683.449    20071685.746
        50.800          47.400
 126795945.08914                  23761506.766    23761505.543
        29.100
 19  1 10  0 33  0.0000000  0 18R15G05G21G13R19G24R13G02R20R04G30R14
                                R21G20G29G15R05R06
 128276341.331 6  99770503.070 5  24005171.984    24005171.309    24005176.637
        37.100          34.700
 115430805.615 8  89946117.85146  21965753.609                    21965758.320
        48.400          36.900
 119690680.530 7  93265493.42745  22776380.352                    22776383.855
        46.100          34.400
 107341011.357 8  83642361.15747  20426316.000                    20426320.406
        49.700          43.600
 113102184.086 6  87968369.171 6  21143262.594    21143261.176    21143263.492
        41.700          40.600
 125901676.862 6  98105250.61243  23958295.313                    23958302.594
        38.800          22.300
 123813809.036 5  96299636.158 5  23186349.070    23186347.207    23186350.160
        33.600          30.800
 125229564.295 6  97581485.90943  23830394.734                    23830397.480
        39.500          22.500
 106682768.831 7  82975488.415 7  19950214.469    19950213.770    19950217.488
        45.000          47.900
 109620410.922 8  85260329.982 7  20470840.133    20470839.504    20470842.168
        48.200          45.200
 126953096.687 6  98924520.66743  24158374.289                    24158380.867
        37.900          22.200
 120103298.106 6  93413684.899 6  22531071.227    22531070.336    22531073.789
        41.800          39.500
 123676671.218 6  96193181.108 6  23112002.320    23112000.996    23112004.141
        41.100          36.300
 128174647.85315  99876404.70252  24390834.445                    24390838.535
        33.300          15.600
 119099924.526 7  92805156.52945  22663963.055                    22663968.340
        46.000          32.300
 106514375.532 8  82998228.72847  20269012.547                    20269016.883
        52.100          44.600
 107271090.196 8  83433088.355 7  20067280.219    20067280.535    20067282.246
        50.800          46.900
 126708678.20814                  23745153.539    23745152.434
        28.900
 19  1 10  0 33 30.0000000  0 18R15G05G21G13R19G24R13G02R20R04G30R14
                                R21G20G29G15R05R06
 128160271.187 6  99680226.274 6  23983451.406    23983450.965    23983454.551
        38.200          36.700
 115494044.756 7  89995395.08246  21977787.742                    21977792.301
        47.800          37.500
 119618895.416 7  93209556.97445  22762719.766                    22762723.301
        45.800          34.800
 107374793.484 8  83668684.89547  20432744.836                    20432748.594
        49.400          43.300
 113216898.293 6  88057591.323 6  21164706.891    21164705.473    21164707.973
        41.400          40.600
 125790112.437 6  98018317.29343  23937065.039                    23937072.781
        38.400          22.500
 123839584.882 5  96319684.002 5  23191175.469    23191173.488    23191177.438
        33.700          31.900
 125330125.185 6  97659844.99843  23849530.891                    23849534.289
        39.700          22.900
 106672167.274 7  82967242.764 8  19948230.734    19948231.090    19948234.441
        45.100          48.500
 109680857.610 7  85307344.064 7  20482128.359    20482127.496    20482129.957
        47.700          45.900
 127004704.861 6  98964734.81243  24168194.602                    24168202.004
        38.200          22.200
 120035898.359 6  93361262.885 6  22518426.992    22518426.570    22518430.164
        41.200          41.200
 123562916.245 6  96104705.065 6  23090744.375    23090743.051    23090746.539
        40.900          37.500
 128086255.480 5  99807527.51242  24374013.641                    24374017.605
        32.200          16.300
 119181343.158 7  92868599.59645  22679456.742                    22679462.074
        45.700          32.600
 106480571.820 8  82971888.17947  20262579.633                    20262584.281
        51.800          45.300
 107247875.460 8  83415032.444 7  20062937.773    20062937.035    20062938.965
        50.700          47.400
 126621550.77814                  23728826.672    23728825.566
        29.900
 19  1 10  0 34  0.0000000  0 17R15G05G21G13R19G24R13G02R20R04G30R14
                                R21G20G29G15R05
 128044181.006 6  99589933.948 6  23961726.523    23961725.965    23961730.285
        37.900          36.000
 115557458.673 8  90044808.50346  21989854.875                    21989859.273
        48.400          36.700
 119547349.299 7  93153806.74345  22749105.219                    22749108.859
        46.000          33.600
 107409067.733 8  83695392.10547  20439267.023                    20439270.965
        50.200          43.400
 113332050.970 6  88147154.486 6  21186233.750    21186232.684    21186234.863
        41.900          40.500
 125678589.100 6  97931416.01043  23915842.758                    23915850.527
        38.100          22.000
 123866100.189 5  96340306.968 5  23196140.961    23196139.805    23196142.785
        33.100          30.300
 125430882.664 6  97738357.26243  23868705.055                    23868708.070
        40.100          22.300
 106662404.441 7  82959649.453 7  19946405.523    19946405.762    19946409.156
        45.400          47.600
 109741485.624 8  85354499.177 7  20493449.813    20493448.598    20493451.406
        48.500          45.400
 127056788.582 6  99005319.51343  24178106.195                    24178113.191
        38.100          21.800
 119969050.257 7  93309269.945 6  22505887.469    22505886.105    22505889.273
        42.000          39.300
 123449537.362 6  96016521.470 6  23069556.672    23069555.465    23069558.426
        41.600          36.400
 127997870.465 5  99738656.14942  24357194.477                    24357199.445
        32.900          16.300
 119263080.487 7  92932290.99845  22695010.883                    22695015.914
        46.600          31.300
 106447262.810 8  82945933.10747  20256241.281                    20256245.480
        51.600          44.300
 107224987.103 8  83397230.388 7  20058655.922    20058655.301    20058657.492
        50.500          46.800
 19  1 10  0 34 30.0000000  0 18R15G05G21G13R19G24R13G02R20R04G30R14
                                R21G20G29G15R05R06
 127928072.351 6  99499627.192 6  23939999.180    23939997.684    23940002.246
        37.800          36.400
 115621044.437 7  90094355.83346  22001954.875                    22001959.785
        47.500          37.400
 119476041.746 7  93098242.41045  22735535.867                    22735539.551
        46.300          35.200
 107443829.281 8  83722479.02847  20445882.117                    20445885.813
        49.900          43.300
 113447634.729 6  88237052.933 6  21207841.094    21207840.027    21207842.363
        41.300          41.300
 125567105.794 6  97844545.92843  23894627.469                    23894636.113
        38.200          22.300
 123893351.270 5  96361502.260 5  23201244.930    23201242.363    23201246.215
        33.000          30.400
 125531832.329 6  97817019.28043  23887915.734                    23887917.883
        40.000          22.500
 106653478.542 7  82952707.050 8  19944736.094    19944736.332    19944739.961
        44.600          48.500
 109802290.958 8  85401792.194 7  20504804.719    20504803.973    20504806.902
        48.100          46.200
 127109343.659 6  99046271.47843  24188107.102                    24188114.375
        38.100          22.500
 119902754.832 6  93257706.844 6  22493450.148    22493449.844    22493453.035
        41.400          40.800
 123336536.156 6  95928631.665 6  23048438.719    23048439.270    23048442.047
        41.300          37.800
 127909489.975 5  99669788.23542  24340377.070                    24340381.699
        33.600          16.900
 119345130.742 7  92996226.23645  22710625.000                    22710630.059
        46.000          32.700
 106414445.815 8  82920361.42847  20249996.227                    20250000.965
        51.300          45.300
 107202421.451 8  83379679.329 7  20054434.328    20054434.059    20054436.234
        50.900          47.800
 126447717.37215                  23696249.898    23696247.973
        31.600
 19  1 10  0 35  0.0000000  0 18R15G05G21G13R19G24R13G02R20R04G30R14
                                R21G20G29G15R05R06
 127811949.093 6  99409309.099 5  23918266.594    23918266.738    23918270.859
        38.000          34.700
 115684801.548 7  90144036.67546  22014087.531                    22014092.129
        47.900          36.800
 119404974.685 7  93042865.48245  22722012.414                    22722015.945
        46.800          33.100
 107479075.906 8  83749943.93847  20452588.891                    20452593.340
        49.500          42.200
 113563644.450 6  88327282.721 6  21229526.664    21229526.539    21229528.961
        41.400          39.500
 125455666.383 6  97757710.04143  23873421.711                    23873430.195
        37.800          22.000
 123921336.907 5  96383268.919 4  23206486.008    23206482.738    23206486.664
        32.600          28.400
 125632972.250 6  97895829.56543  23907161.102                    23907164.219
        39.200          20.600
 106645390.060 7  82946415.982 7  19943223.594    19943223.480    19943226.773
        44.900          47.000
 109863271.876 8  85449221.763 7  20516192.758    20516191.777    20516194.617
        48.100          44.200
 127162368.257 6  99087589.33343  24198196.711                    24198204.340
        38.400          20.900
 119837015.406 6  93206576.183 6  22481117.336    22481116.324    22481120.043
        41.600          39.900
 123223916.453 6  95841038.571 6  23027394.125    23027392.684    23027396.047
        40.700          36.200
 127821114.797 5  99600924.40842  24323559.492                    24323563.770
        33.700          16.900
 119427490.500 7  93060402.65445  22726296.766                    22726302.051
        45.500          31.300
 106382120.805 8  82895173.11747  20243844.922                    20243849.609
        51.300          44.000
 107180177.469 8  83362378.478 7  20050273.961    20050273.223    20050275.074
        50.700          46.500
 126361008.693 5                  23680000.695    23680000.176
        32.800
 19  1 10  0 35 30.0000000  0 18R15G05G21G13R19G24R13G02R20R04G30R14
                                R21G20G29G15R05R06
 127695815.231 6  99318982.825 5  23896534.727    23896534.168    23896538.102
        38.100          34.700
 115748729.617 7  90193850.74046  22026252.828                    22026257.715
        47.600          37.900
 119334149.986 7  92987677.40045  22708534.773                    22708538.262
        46.200          34.800
 107514805.525 8  83777785.19747  20459388.219                    20459392.184
        49.100          43.500
 113680077.195 6  88417841.498 6  21251293.883    21251291.996    21251294.695
        41.300          40.900
 125344272.854 6  97670909.92443  23852223.984                    23852232.328
        37.700          22.800
 123950056.296 5  96405606.179 5  23211864.930    23211861.191    23211864.758
        32.900          30.400
 125734300.182 6  97974786.33843  23926443.625                    23926445.906
        39.000          20.600
 106638139.407 7  82940776.576 8  19941867.758    19941867.527    19941870.926
        44.900          48.500
 109924426.813 7  85496786.710 7  20527613.398    20527612.301    20527615.055
        47.800          46.000
 127215860.644 6  99129271.68143  24208376.688                    24208383.602
        37.600          21.300
 119771835.507 6  93155880.705 6  22468889.742    22468888.852    22468892.359
        41.000          40.900
 123111682.363 6  95753745.360 6  23006420.359    23006419.387    23006422.789
        40.600          38.100
 127732745.147 5  99532065.00542  24306743.172                    24306747.895
        33.800          15.600
 119510156.910 7  93124818.02545  22742028.375                    22742033.648
        45.900          30.900
 106350287.446 8  82870367.90647  20237787.391                    20237791.957
        51.700          45.900
 107158254.254 8  83345327.086 7  20046172.211    20046172.059    20046173.906
        51.000          47.800
 126274438.16615                  23663777.063    23663776.191
        32.500
 19  1 10  0 36  0.0000000  0 18R15G05G21G13R19G24R13G02R20R04G30R14
                                R21G20G29G15R05R06
 127579677.771 6  99228653.791 5  23874800.430    23874799.988    23874803.922
        37.100          34.600
 115812830.843 7  90243799.72546  22038450.648                    22038455.492
        47.900          36.100
 119263572.358 7  92932681.85145  22695104.500                    22695107.961
        46.700          33.200
 107551019.184 8  83806003.63247  20466279.063                    20466283.246
        50.500          42.300
 113796931.225 6  88508727.960 6  21273137.094    21273137.320    21273139.828
        40.700          39.800
 125232931.504 6  97584150.43943  23831036.516                    23831044.621
        37.200          22.500
 123979511.143 5  96428515.528 4  23217378.883    23217377.020    23217380.645
        33.200          28.800
 125835816.847 6  98053890.15343  23945761.250                    23945763.691
        39.400          21.100
 106631730.051 7  82935791.502 7  19940669.719    19940669.605    19940672.852
        45.600          46.700
 109985756.667 8  85544487.707 7  20539066.211    20539065.348    20539067.879
        48.000          44.000
 127269821.874 6  99171319.37143  24218644.664                    24218651.867
        37.500          20.900
 119707221.868 6  93105625.692 6  22456769.281    22456767.918    22456771.441
        41.500          38.700
 122999840.596 6  95666757.310 5  22985520.039    22985518.715    22985521.551
        41.000          35.700
 127644384.194 5  99463212.30342  24289929.055                    24289933.207
        34.300          17.800
 119593129.019 7  93189471.59744  22757816.805                    22757822.398
        44.900          29.800
 106318948.486 8  82845947.94147  20231823.867                    20231828.238
        51.900          44.600
 107136653.640 8  83328526.615 7  20042130.836    20042130.918    20042132.910
        50.400          46.200
 126188008.916 5                  23647579.219    23647579.641
        31.600
 19  1 10  0 36 30.0000000  0 18R15G05G21G13R19G24R13G02R20R04G30R14
                                R21G20G29G15R05R06
 127463539.735 6  99138324.361 5  23853066.797    23853066.941    23853070.719
        37.800          35.600
 115877103.429 7  90293882.24246  22050681.641                    22050686.449
        47.700          38.300
 119193242.586 7  92877879.41945  22681720.883                    22681724.359
        46.500          34.800
 107587713.728 8  83834596.78947  20473261.797                    20473266.133
        50.000          43.900
 113914201.729 6  88599938.335 6  21295061.242    21295059.590    21295062.238
        40.700          41.100
 125121643.558 6  97497432.59643  23809859.383                    23809867.422
        38.200          23.900
 124009699.274 5  96451995.171 5  23223032.250    23223030.035    23223034.199
        32.600          30.400
 125937519.418 6  98133138.84143  23965114.938                    23965117.004
        38.600          20.400
 106626161.279 7  82931460.231 8  19939628.008    19939627.543    19939631.008
        45.100          49.100
 110047259.358 8  85592323.106 7  20550551.508    20550550.293    20550553.020
        48.200          46.700
 127324249.152 6  99213730.21643  24229001.906                    24229009.445
        37.700          21.300
 119643176.765 6  93055812.842 6  22444754.383    22444753.020    22444756.063
        41.600          40.700
 122888394.293 7  95580076.857 6  22964694.547    22964693.105    22964695.379
        42.000          38.400
 127556031.015 5  99394365.69843  24273116.633                    24273120.203
        34.600          18.300
 119676402.364 7  93254359.90045  22773663.188                    22773668.617
        45.400          32.300
 106288102.600 8  82821912.19047  20225953.867                    20225958.703
        51.600          46.000
 107115373.277 8  83311975.232 7  20038150.328    20038149.707    20038151.570
        50.000          47.700
 126101720.525 5                  23631410.242    23631408.668
        32.900
 19  1 10  0 37  0.0000000  0 18R15G05G21G13R19G24R13G02R20R04G30R14
                                R21G20G29G15R05R06
 127347406.023 6  99047998.282 5  23831334.344    23831333.785    23831337.551
        36.300          32.400
 115941548.168 7  90344098.89746  22062944.633                    22062949.598
        47.600          36.200
 119123163.670 7  92823272.47645  22668385.742                    22668388.973
        46.900          34.100
 107624888.004 8  83863563.75547  20480336.117                    20480340.340
        50.000          42.100
 114031884.387 6  88691469.291 6  21317060.000    21317059.051    21317062.070
        40.800          38.500
 125010412.416 6  97410759.01044  23788692.977                    23788700.906
        37.700          24.600
 124040619.999 5  96476044.617 4  23228824.633    23228821.246    23228824.703
        34.100          28.200
 126039406.259 6  98212531.10943  23984503.422                    23984505.109
        38.300          20.100
 106621434.641 7  82927783.936 7  19938744.289    19938744.176    19938747.875
        45.000          47.300
 110108933.745 7  85640292.062 7  20562068.313    20562067.332    20562070.059
        47.700          43.600
 127379141.589 6  99256503.51143  24239447.398                    24239454.480
        38.600          19.900
 119579704.878 7  93006445.860 6  22432847.430    22432845.715    22432849.047
        42.000          38.300
 122777348.372 6  95493707.813 6  22943941.102    22943940.715    22943943.648
        41.600          36.800
 127467687.230 5  99325526.36242  24256303.281                    24256309.016
        33.700          17.400
 119759974.737 7  93319481.22344  22789567.039                    22789571.992
        45.400          29.600
 106257750.527 8  82798261.23047  20220178.227                    20220182.504
        51.900          44.100
 107094413.416 8  83295673.124 7  20034229.063    20034228.676    20034230.777
        50.200          46.000
 126015573.314 5                  23615266.992    23615265.301
        32.200
 19  1 10  0 37 30.0000000  0 18R15G05G21G13R19G24R13G02R20R04G30R14
                                R21G20G29G15R05R06
 127231278.130 5  98957676.713 5  23809602.531    23809601.387    23809605.113
        35.500          33.400
 116006162.129 7  90394447.41846  22075240.258                    22075245.223
        47.600          37.300
 119053334.579 7  92768860.19345  22655097.664                    22655100.918
        47.400          34.400
 107662537.537 8  83892901.05647  20487500.453                    20487504.531
        50.300          43.500
 114149972.323 6  88783315.417 6  21339135.094    21339134.262    21339137.395
        40.300          40.700
 124899238.874 6  97324130.30444  23767537.117                    23767545.426
        38.700          25.900
 124072270.041 5  96500661.334 4  23234750.266    23234747.582    23234751.371
        33.700          29.300
 126141473.011 6  98292063.57643  24003926.406                    24003928.535
        37.800          20.100
 106617547.741 7  82924760.780 8  19938017.336    19938017.691    19938021.094
        45.100          48.700
 110170775.950 8  85688391.570 7  20573617.445    20573616.113    20573618.820
        48.200          46.000
 127434494.956 6  99299635.98443  24249981.469                    24249988.320
        37.400          21.800
 119516806.986 6  92957525.259 6  22421047.180    22421046.406    22421049.703
        41.900          40.900
 122666704.137 6  95407651.198 6  22923266.516    22923264.840    22923267.609
        40.900          38.600
 127379350.630 5  99256692.67242  24239494.484                    24239499.176
        33.800          17.400
 119843840.050 7  93384830.79645  22805525.867                    22805530.793
        45.200          32.500
 106227889.480 8  82774992.89147  20214495.773                    20214500.609
        51.600          45.500
 107073770.458 8  83279617.495 8  20030367.898    20030367.746    20030369.777
        50.500          48.000
 125929565.024 5                  23599148.320    23599147.566
        32.500
 19  1 10  0 38  0.0000000  0 18R15G05G21G13R19G24R13G02R20R04G30R14
                                R21G20G29G15R05R06
 127115160.722 6  98867363.364 5  23787871.148    23787871.293    23787875.176
        36.500          34.000
 116070945.396 7  90444927.86945  22087568.789                    22087573.125
        47.300          35.400
 118983757.878 7  92714644.58145  22641856.953                    22641860.578
        47.000          33.600
 107700660.980 8  83922607.63346  20494755.297                    20494759.484
        50.100          41.400
 114268461.776 6  88875473.871 6  21361285.875    21361285.281    21361287.543
        40.500          39.000
 124788126.284 6  97237549.11743  23746393.422                    23746401.203
        38.800          22.600
 124104649.142 5  96525845.015 4  23240813.102    23240811.828    23240814.738
        33.700          27.900
 126243718.412 6  98371735.24443  24023383.133                    24023384.957
        38.000          19.600
 106614501.795 7  82922391.703 7  19937447.836    19937447.371    19937450.660
        45.000          46.100
 110232785.060 7  85736620.866 7  20585197.086    20585196.105    20585198.863
        47.800          43.300
 127490308.008 6  99343126.65543  24260601.578                    24260609.652
        36.600          19.900
 119454487.336 7  92909054.416 6  22409356.523    22409355.160    22409358.461
        42.500          39.100
 122556466.335 6  95321910.672 6  22902665.000    22902663.910    22902666.844
        41.900          36.500
 127291022.032 5  99187865.14942  24222685.766                    24222690.547
        35.200          17.400
 119927996.114 7  93450406.93244  22821540.172                    22821545.332
        45.600          29.700
 106198519.836 8  82752107.45647  20208906.719                    20208911.766
        51.800          43.900
 107053444.015 8  83263808.052 7  20026565.305    20026564.801    20026566.609
        50.900          45.100
 125843695.659 4                  23583053.750    23583054.289
        28.900
 19  1 10  0 38 30.0000000  0 18R15G05G21G13R19G24R13G02R20R04G30R14
                                R21G20G29G15R05R06
 126999061.087 6  98777063.802 5  23766145.547    23766145.926    23766149.426
        36.800          35.800
 116135900.767 7  90495542.42946  22099929.094                    22099934.043
        47.600          37.000
 118914438.562 7  92660629.53045  22628666.547                    22628670.148
        46.700          34.800
 107739259.297 8  83952684.24347  20502100.266                    20502104.508
        50.200          43.000
 114387351.389 6  88967943.548 6  21383510.711    21383509.645    21383512.543
        40.300          40.400
 124677080.176 6  97151019.71344  23725261.500                    23725270.203
        38.900          26.000
 124137758.545 5  96551596.814 4  23247014.617    23247012.402    23247015.520
        32.400          29.900
 126346143.373 6  98451546.84443  24042874.086                    24042876.359
        38.100          19.300
 106612299.833 7  82920679.035 8  19937035.609    19937035.848    19937039.652
        44.900          48.400
 110294962.723 7  85784981.245 7  20596807.859    20596806.527    20596809.539
        47.800          45.100
 127546581.913 6  99386976.42543  24271310.391                    24271317.984
        36.800          19.300
 119392752.413 6  92861038.374 6  22397774.516    22397774.094    22397777.344
        41.600          40.900
 122446642.072 6  95236491.784 6  22882142.258    22882140.465    22882143.641
        41.100          38.400
 127202705.058 5  99119046.75042  24205879.930                    24205884.793
        35.200          17.400
 120012442.102 7  93516208.98645  22837609.664                    22837615.008
        45.100          31.000
 106169644.668 8  82729607.32347  20203412.055                    20203416.648
        51.900          45.700
 107033436.377 8  83248246.549 7  20022822.258    20022822.105    20022823.887
        50.500          47.300
 125757968.61015                  23566990.500    23566989.629
        30.300
 19  1 10  0 39  0.0000000  0 18R15G05G21G13R19G24R13G02R20R04G30R14
                                R21G20G29G15R05R06
 126882979.617 5  98686778.358 5  23744421.969    23744422.934    23744426.668
        34.800          33.600
 116201024.039 7  90546287.81645  22112321.406                    22112326.422
        46.900          35.700
 118845374.966 7  92606813.73145  22615524.008                    22615527.383
        46.900          33.600
 107778326.882 8  83983126.51446  20509534.453                    20509538.508
        50.200          40.800
 114506633.699 6  89060718.689 6  21405809.125    21405809.234    21405811.430
        40.400          38.200
 124566100.198 6  97064541.85043  23704143.031                    23704151.645
        39.400          23.800
 124171593.641 5  96577912.984 4  23253349.992    23253348.246    23253352.344
        32.900          27.900
 126448742.115 6  98531493.84343  24062396.359                    24062399.430
        36.900          18.300
 106610938.615 7  82919620.297 7  19936781.172    19936781.410    19936785.027
        44.400          46.300
 110357303.417 8  85833468.453 7  20608449.711    20608448.496    20608451.527
        48.300          43.700
 127603311.416 5  99431181.24643  24282105.547                    24282113.656
        35.400          20.600
 119331602.112 7  92813477.035 6  22386302.070    22386302.117    22386305.273
        42.000          38.500
 122337231.681 6  95151394.830 6  22861696.195    22861694.754    22861697.703
        41.900          36.400
 127114396.61815  99050235.02752  24189075.422                    24189079.102
        35.000          16.900
 120097171.439 7  93582231.82644  22853733.398                    22853738.277
        44.800          28.100
 106141259.960 8  82707489.37647  20198010.664                    20198015.449
        51.400          43.100
 107013742.540 8  83232929.129 7  20019138.133    20019137.746    20019139.395
        51.000          44.900
 125672380.063 5                  23550950.789    23550949.684
        31.300
 19  1 10  0 39 30.0000000  0 18R15G05G21G13R19G24R13G02R20R04G30R14
                                R21G20G29G15R05R06
 126766922.693 6  98596512.052 5  23722704.664    23722703.754    23722707.836
        36.100          34.100
 116266316.863 7  90597165.32146  22124746.305                    22124750.801
        47.100          37.100
 118776571.236 7  92553200.43345  22602431.336                    22602434.801
        47.300          35.700
 107817863.807 8  84013934.50047  20517058.203                    20517062.492
        49.800          42.400
 114626307.063 6  89153797.936 6  21428181.734    21428180.082    21428182.750
        40.800          39.600
 124455191.465 6  96978119.49244  23683037.148                    23683046.234
        38.900          25.400
 124206155.119 5  96604794.089 5  23259824.352    23259820.262    23259823.906
        33.200          30.300
 126551514.627 6  98611576.25243  24081954.633                    24081957.367
        37.700          19.600
 106610420.524 7  82919217.325 8  19936684.734    19936684.504    19936687.988
        44.900          48.200
 110419808.238 7  85882083.302 7  20620122.195    20620120.863    20620123.559
        47.700          45.300
 127660496.803 6  99475741.24543  24292987.813                    24292995.398
        36.000          20.100
 119271042.038 7  92766374.790 6  22374943.484    22374941.418    22374944.871
        42.800          41.200
 122228241.405 6  95066624.632 6  22841328.359    22841327.152    22841330.145
        41.300          39.100
 127026098.975 5  98981431.66042  24172273.516                    24172276.066
        35.700          16.900
 120182182.886 7  93648474.49245  22869910.211                    22869915.586
        45.500          30.800
 106113367.675 8  82685755.12847  20192703.055                    20192707.570
        51.500          45.100
 106994363.931 8  83217856.889 7  20015512.781    20015512.629    20015514.289
        50.800          47.100
 125586932.468 5                  23534937.898    23534937.730
        32.400
 19  1 10  0 40  0.0000000  0 18R15G05G21G13R19G24R13G02R20R04G30R14
                                R21G20G29G15R05R06
 126650893.396 5  98506267.195 5  23700989.313    23700989.809    23700993.520
        35.700          33.300
 116331777.951 7  90648173.94845  22137203.391                    22137208.398
        47.500          35.500
 118708027.765 7  92499789.93445  22589387.406                    22589391.227
        47.000          34.200
 107857866.842 8  84045105.69246  20524670.469                    20524674.508
        50.000          41.100
 114746364.595 6  89247176.019 6  21450624.625    21450624.383    21450626.707
        40.400          37.800
 124344355.406 6  96891753.77043  23661946.859                    23661954.949
        37.700          22.800
 124241440.806 5  96632238.499 4  23266431.313    23266429.098    23266432.406
        33.000          27.000
 126654457.843 6  98691791.66843  24101544.414                    24101546.500
        36.500          18.600
 106610744.628 7  82919469.400 7  19936745.266    19936744.918    19936748.684
        44.300          44.900
 110482474.302 8  85930823.566 7  20631824.836    20631823.621    20631826.191
        48.300          42.800
 127718135.012 6  99520654.13343  24303956.234                    24303963.723
        36.000          19.000
 119211074.361 7  92719733.258 6  22363692.477    22363692.289    22363695.699
        43.200          38.800
 122119674.214 6  94982183.467 6  22821039.406    22821039.254    22821042.391
        41.100          37.500
 126937811.505 6  98912636.23342  24155471.992                    24155475.902
        36.100          17.800
 120267471.667 7  93714933.27444  22886140.305                    22886145.293
        45.600          28.200
 106085966.473 8  82664403.54247  20187488.914                    20187492.836
        50.900          44.300
 106975298.298 8  83203028.060 7  20011946.914    20011946.293    20011948.156
        50.800          45.300
 125501624.511 5                  23518954.328    23518951.582
        32.900
 19  1 10  0 40 30.0000000  0 18R15G05G21G13R19G24R13G02R20R04G30R14
                                R21G20G29G15R05R06
 126534900.428 5  98416050.571 5  23679283.164    23679282.723    23679286.992
        34.100          35.000
 116397411.499 7  90699316.96446  22149692.992                    22149697.660
        47.400          37.000
 118639751.789 7  92446587.86745  22576394.922                    22576399.270
        46.600          35.800
 107898338.444 8  84076642.00447  20532371.914                    20532376.254
        50.800          42.000
 114866808.149 6  89340854.310 6  21473140.836    21473139.652    21473142.145
        41.000          40.000
 124233599.354 6  96805450.36544  23640870.641                    23640878.648
        36.900          24.600
 124277453.398 5  96660248.232 5  23273174.617    23273172.051    23273175.992
        33.700          30.500
 126757574.324 6  98772142.11143  24121166.086                    24121169.047
        36.500          19.000
 106611915.670 7  82920380.200 7  19936964.547    19936964.082    19936967.602
        45.400          47.800
 110545304.818 8  85979691.748 7  20643557.820    20643557.074    20643559.590
        48.100          45.500
 127776228.842 5  99565922.02743  24315011.195                    24315018.305
        35.600          19.900
 119151707.240 7  92673558.852 6  22352555.391    22352554.734    22352558.230
        42.600          40.900
 122011538.701 6  94898078.078 6  22800831.961    22800831.691    22800834.094
        41.500          38.600
 126849539.271 5  98843852.66942  24138674.031                    24138678.801
        35.400          17.800
 120353039.375 7  93781609.39444  22902422.828                    22902427.262
        44.600          29.100
 106059060.528 8  82643437.87147  20182368.586                    20182373.000
        51.300          44.800
 106956549.294 8  83188445.512 7  20008438.750    20008438.480    20008440.398
        50.800          47.300
 125416460.537 5                  23502992.773    23502991.668
        32.900
 19  1 10  0 41  0.0000000  0 18R15G05G21G13R19G24R13G02R20R04G30R14
                                R21G20G29G15R05R06
 126418943.116 5  98325861.718 5  23657583.703    23657583.145    23657586.793
        35.900          32.300
 116463211.828 7  90750589.93146  22162214.281                    22162219.270
        47.200          36.100
 118571740.033 7  92393591.69545  22563453.289                    22563456.707
        46.700          34.500
 107939271.921 8  84108538.21646  20540161.117                    20540165.227
        50.500          40.900
 114987627.113 6  89434824.588 6  21495726.133    21495725.539    21495727.926
        40.300          38.100
 124122921.456 6  96719207.88743  23619809.078                    23619816.598
        37.600          22.200
 124314186.492 5  96688818.362 4  23280054.523    23280051.840    23280055.090
        31.900          29.500
 126860856.936 6  98852621.97143  24140819.945                    24140823.137
        36.300          19.000
 106613928.936 7  82921946.060 7  19937341.016    19937340.434    19937343.805
        44.900          46.400
 110608293.382 8  86028682.824 7  20655321.203    20655318.934    20655321.758
        48.300          43.000
 127834771.533 6  99611539.68043  24326151.078                    24326158.441
        36.200          18.600
 119092939.141 7  92627850.346 6  22341530.648    22341530.578    22341533.809
        43.000          39.800
 121903833.926 6  94814307.700 6  22780705.141    22780703.816    22780706.551
        41.400          37.700
 126761277.874 6  98775077.57043  24121879.430                    24121883.727
        36.800          19.300
 120438877.576 7  93848496.27744  22918757.914                    22918763.125
        44.600          28.800
 106032644.786 8  82622854.17747  20177341.727                    20177346.121
        50.900          43.800
 106938111.268 8  83174104.837 7  20004989.711    20004989.559    20004991.270
        50.500          46.300
 125331436.035 5                  23487060.555    23487058.512
        31.000
 19  1 10  0 41 30.0000000  0 18R15G05G21G13R19G24R13G02R20R04G30R14
                                R21G20G29G15R05R06
 126303026.778 6  98235704.649 5  23635891.625    23635891.535    23635894.762
        36.400          34.900
 116529179.720 7  90801993.46746  22174767.742                    22174772.324
        47.900          36.400
 118503995.084 7  92340803.42045  22550561.734                    22550565.750
        46.800          35.400
 107980666.174 8  84140793.47447  20548038.328                    20548042.516
        50.500          42.500
 115108819.165 6  89529085.064 6  21518382.336    21518380.801    21518383.250
        40.800          39.700
 124012325.579 6  96633029.31343  23598762.852                    23598771.152
        37.000          23.000
 124351640.312 5  96717949.137 5  23287065.961    23287064.922    23287069.043
        32.200          31.000
 126964305.182 5  98933230.92643  24160504.813                    24160508.945
        34.700          19.600
 106616785.429 7  82924167.760 8  19937875.344    19937874.410    19937877.867
        44.900          48.000
 110671439.631 7  86077796.569 7  20667112.539    20667111.910    20667114.426
        47.600          45.100
 127893762.254 6  99657506.50443  24337377.203                    24337383.902
        37.000          19.300
 119034774.406 7  92582611.108 6  22330619.063    22330618.758    22330622.063
        43.200          40.600
 121796565.178 6  94730876.434 6  22760659.711    22760657.918    22760660.902
        41.400          39.600
 126673028.727 5  98706311.98842  24105086.180                    24105090.180
        35.800          17.800
 120524984.074 7  93915592.22445  22935143.367                    22935148.438
        44.500          31.100
 106006720.048 8  82602653.08847  20172408.508                    20172413.234
        51.800          44.700
 106919984.169 8  83160005.978 7  20001598.203    20001598.520    20001600.254
        50.800          47.100
 125246551.460 5                  23471153.398    23471151.004
        32.300
 19  1 10  0 42  0.0000000  0 18R15G05G21G13R19G24R13G02R20R04G30R14
                                R21G20G29G15R05R06
 126187157.411 5  98145584.190 5  23614207.711    23614206.449    23614211.469
        34.300          33.700
 116595316.846 8  90853528.87246  22187353.352                    22187358.051
        48.200          36.400
 118436520.999 7  92288226.20545  22537721.430                    22537725.266
        45.700          35.800
 108022520.885 8  84173407.53046  20556003.031                    20556007.305
        50.100          41.400
 115230381.329 6  89623633.365 6  21541106.930    21541105.746    21541107.961
        40.000          38.900
 123901816.542 6  96546918.41943  23577733.953                    23577742.164
        36.600          23.000
 124389814.908 5  96747640.454 4  23294216.852    23294214.637    23294217.977
        32.300          29.400
 127067918.255 6  99013968.30443  24180222.938                    24180226.008
        36.700          18.300
 106620487.055 7  82927046.788 7  19938566.438    19938566.676    19938570.117
        45.600          46.500
 110734744.046 8  86127033.313 7  20678934.492    20678933.512    20678936.223
        48.000          43.700
 127953201.103 6  99703822.45942  24348687.578                    24348694.961
        36.200          17.800
 118977218.456 7  92537845.370 6  22319821.984    22319821.445    22319824.891
        43.100          40.000
 121689738.165 6  94647788.762 6  22740696.195    22740694.871    22740698.121
        40.600          37.800
 126584794.011 6  98637557.65742  24088295.453                    24088299.328
        37.100          17.800
 120611357.740 7  93982896.36944  22951579.750                    22951584.738
        43.700          28.600
 105981287.858 8  82582835.80147  20167569.016                    20167573.500
        51.700          44.000
 106902168.997 8  83146149.726 7  19998266.102    19998265.598    19998267.641
        50.700          46.200
 125161809.504 5                  23455271.320    23455270.098
        33.000
 19  1 10  0 42 30.0000000  0 18R15G05G21G13R19G24R13G02R20R04G30R14
                                R21G20G29G15R05R06
 126071338.185 6  98055502.695 5  23592534.438    23592534.230    23592537.270
        36.900          34.900
 116661621.526 7  90905194.84246  22199970.391                    22199975.238
        47.800          36.800
 118369318.978 7  92235860.99045  22524933.508                    22524937.625
        46.200          34.800
 108064832.823 8  84206377.87547  20564055.023                    20564058.945
        49.900          43.100
 115352308.070 6  89718465.241 6  21563899.445    21563898.969    21563901.199
        39.400          39.700
 123791396.298 6  96460876.71544  23556721.938                    23556729.836
        37.000          24.700
 124428707.726 5  96777890.468 5  23301497.633    23301497.531    23301501.508
        32.000          30.100
 127171692.990 5  99094831.70742  24199970.586                    24199973.672
        34.600          17.800
 106625032.541 7  82930582.147 8  19939416.836    19939417.309    19939420.816
        44.600          48.200
 110798204.391 8  86176391.371 7  20690785.375    20690784.746    20690787.168
        48.500          44.600
 128013085.053 5  99750485.27043  24360083.766                    24360090.680
        35.700          18.600
 118920273.321 7  92493554.728 6  22309138.695    22309138.273    22309141.699
        43.000          41.100
 121583356.046 6  94565047.125 6  22720816.336    22720815.246    22720817.867
        40.600          39.700
 126496573.355 6  98568814.29543  24071508.047                    24071512.520
        37.300          20.900
 120697994.036 7  94050405.15344  22968066.172                    22968071.152
        44.700          29.900
 105956346.601 8  82563401.06047  20162822.766                    20162827.242
        51.700          45.300
 106884663.445 8  83132534.313 7  19994991.320    19994991.285    19994993.285
        50.600          47.700
 125077208.346 5                  23439417.891    23439415.730
        33.000
 19  1 10  0 43  0.0000000  0 18R15G05G21G13R19G24R13G02R20R04G30R14
                                R21G20G29G15R05R06
 125955574.910 6  97965464.608 5  23570871.758    23570870.496    23570874.270
        36.600          33.000
 116728095.340 8  90956992.60446  22212620.070                    22212624.766
        48.400          37.200
 118302391.785 7  92183709.92646  22512197.445                    22512201.957
        45.600          36.000
 108107601.846 8  84239704.38047  20572193.414                    20572197.441
        50.000          42.000
 115474596.667 6  89813578.618 6  21586759.969    21586759.727    21586762.074
        39.700          38.600
 123681068.975 6  96374907.39843  23535726.461                    23535735.168
        36.700          23.000
 124468318.582 5  96808698.835 4  23308917.031    23308915.285    23308918.730
        32.300          29.100
 127275629.214 5  99175820.88942  24219749.109                    24219751.988
        35.300          17.800
 106630423.609 7  82934775.190 7  19940425.242    19940424.543    19940428.313
        45.000          47.100
 110861820.495 8  86225870.539 7  20702664.969    20702663.871    20702666.500
        48.200          43.500
 128073413.712 6  99797494.56342  24371564.344                    24371570.578
        37.900          16.900
 118863944.039 7  92449743.100 6  22298571.805    22298570.793    22298574.379
        43.800          40.000
 121477424.361 6  94482655.847 6  22701020.094    22701018.887    22701022.609
        40.600          38.900
 126408368.933 6  98500083.59043  24054722.625                    24054727.797
        37.300          19.600
 120784891.080 7  94118117.12444  22984602.242                    22984606.789
        44.600          29.300
 105931897.516 8  82544349.83247  20158170.508                    20158175.148
        52.000          45.000
 106867468.202 8  83119160.236 7  19991774.555    19991774.285    19991776.266
        51.200          46.400
 124992750.042 5                  23423590.375    23423588.098
        32.600
 19  1 10  0 43 30.0000000  0 18R15G05G21G13R19G24R13G02R20R04G30R14
                                R21G20G29G15R05R06
 125839870.356 6  97875472.289 5  23549217.609    23549217.754    23549221.391
        36.500          33.900
 116794735.922 8  91008920.30846  22225301.086                    22225305.676
        49.400          37.300
 118235740.431 7  92131773.80946  22499514.000                    22499518.074
        46.700          36.100
 108150823.959 8  84273383.94747  20580418.430                    20580422.414
        51.300          42.600
 115597240.873 6  89908968.524 6  21609687.578    21609686.746    21609689.059
        39.700          40.400
 123570836.082 6  96289011.67144  23514750.242                    23514757.797
        36.500          24.300
 124508644.326 5  96840063.359 5  23316469.602    23316467.621    23316471.082
        31.900          32.100
 127379723.165 6  99256932.98543  24239557.898                    24239559.711
        36.500          19.000
 106636658.317 7  82939624.396 8  19941590.797    19941591.387    19941594.809
        45.000          48.600
 110925589.594 8  86275468.721 7  20714573.164    20714572.418    20714575.063
        48.200          44.800
 128134183.675 6  99844847.76043  24383128.313                    24383135.332
        37.800          20.400
 118808232.305 7  92406411.737 6  22288120.477    22288119.820    22288123.008
        43.900          41.400
 121371945.488 6  94400616.715 6  22681308.359    22681307.973    22681311.434
        41.200          40.000
 126320179.506 6  98431364.56743  24037941.195                    24037945.359
        37.600          19.900
 120872043.994 7  94186028.46845  23001187.094                    23001192.336
        44.800          31.000
 105907939.051 8  82525680.90047  20153611.328                    20153615.969
        53.500          45.800
 106850580.988 8  83106025.725 7  19988615.531    19988615.145    19988616.918
        50.900          47.900
 124908432.688 5                  23407788.539    23407787.316
        33.000
 19  1 10  0 44  0.0000000  0 18R15G05G21G13R19G24R13G02R20R04G30R14
                                R21G20G29G15R05R06
 125724229.575 6  97785529.527 5  23527577.141    23527576.934    23527579.977
        37.800          34.100
 116861543.423 8  91060978.08746  22238014.313                    22238019.387
        48.900          36.400
 118169367.516 7  92080054.64646  22486883.844                    22486888.102
        47.400          36.100
 108194497.834 8  84307415.53047  20588729.086                    20588733.328
        51.300          42.600
 115720238.144 6  90004633.004 6  21632679.805    21632678.738    21632681.633
        39.200          38.600
 123460701.225 6  96203192.33243  23493791.961                    23493799.879
        36.500          23.600
 124549684.379 5  96871983.393 5  23324153.820    23324152.430    23324156.113
        31.800          31.500
 127483973.123 6  99338166.69542  24259395.617                    24259398.797
        36.000          17.400
 106643737.455 7  82945130.379 7  19942914.523    19942914.879    19942918.238
        45.100          47.600
 110989510.746 7  86325185.171 7  20726510.047    20726509.891    20726512.250
        47.900          43.600
 128195393.629 6  99892543.78943  24394775.789                    24394782.922
        36.600          18.300
 118753141.935 7  92363563.673 6  22277784.906    22277785.070    22277788.762
        44.700          41.200
 121266924.122 6  94318933.432 6  22661682.891    22661681.918    22661685.457
        41.300          39.400
 126232006.292 6  98362658.16243  24021162.914                    24021165.660
        38.400          18.600
 120959450.167 7  94254137.14944  23017819.773                    23017824.914
        45.400          29.600
 105884471.282 8  82507394.33147  20149145.344                    20149149.648
        53.300          45.600
 106834001.410 8  83093130.496 7  19985514.414    19985513.676    19985515.266
        51.100          46.200
 124824256.792 5                  23392011.852    23392012.625
        32.800
 19  1 10  0 44 30.0000000  0 18R15G05G21G13R19G24R13G02R20R04G30R14
                                R21G20G29G15R05R06
 125608656.031 6  97695639.062 5  23505950.406    23505949.613    23505952.313
        37.100          35.200
 116928517.565 8  91113165.70846  22250759.273                    22250763.953
        49.000          36.400
 118103274.168 7  92028553.32646  22474306.477                    22474311.078
        47.000          36.200
 108238620.894 8  84341797.14247  20597125.750                    20597129.996
        51.200          42.600
 115843582.944 6  90100567.806 6  21655738.844    21655737.426    21655740.328
        38.900          39.800
 123350666.717 6  96117451.18744  23472853.023                    23472860.969
        36.400          24.800
 124591436.683 5  96904457.404 5  23331975.578    23331970.547    23331974.758
        30.700          30.700
 127588377.082 5  99419520.31242  24279262.672                    24279266.016
        35.000          17.400
 106651660.025 7  82951292.353 8  19944396.719    19944396.605    19944399.996
        44.800          48.400
 111053582.273 8  86375018.573 7  20738475.188    20738474.559    20738476.988
        48.100          45.200
 128257041.164 6  99940580.85543  24406506.633                    24406513.805
        36.800          18.300
 118698675.746 7  92321201.093 6  22267568.180    22267567.168    22267570.582
        43.300          41.500
 121162363.986 6  94237608.890 6  22642142.922    22642142.418    22642146.070
        40.900          41.100
 126143849.070 6  98293964.20743  24004386.992                    24004390.457
        39.500          19.000
 121047105.620 7  94322440.07245  23034500.047                    23034504.980
        45.100          30.200
 105861493.382 8  82489489.47347  20144773.023                    20144777.418
        52.700          45.800
 106817728.184 8  83080473.542 7  19982469.820    19982469.316    19982470.980
        50.900          47.600
 124740221.951 5                  23376265.289    23376263.715
        32.400
 19  1 10  0 45  0.0000000  0 18R15G05G21G13R19G24R13G02R20R04G30R14
                                R21G20G29G15R05R06
 125493153.217 6  97605803.578 5  23484334.211    23484334.473    23484337.742
        38.100          34.700
 116995656.801 7  91165481.98346  22263535.258                    22263540.297
        47.700          37.000
 118037461.405 7  91977270.64946  22461783.156                    22461787.078
        46.500          36.100
 108283189.697 8  84376526.07947  20605606.570                    20605610.762
        50.900          42.600
 115967269.398 6  90196768.404 6  21678860.648    21678858.996    21678861.641
        38.800          39.000
 123240735.241 6  96031790.31644  23451933.844                    23451942.094
        36.600          26.000
 124633897.931 5  96937482.761 5  23339925.852    23339923.520    23339926.781
        32.600          31.300
 127692931.53815  99500991.20453  24299158.805                    24299162.906
        35.400          18.300
 106660424.877 7  82958109.465 7  19946035.656    19946035.777    19946039.230
        44.900          47.800
 111117801.766 7  86424967.041 7  20750468.531    20750467.551    20750469.703
        47.700          43.700
 128319123.376 6  99988956.57843  24418320.648                    24418328.168
        37.100          18.600
 118644835.970 7  92279325.726 6  22257468.664    22257466.949    22257470.070
        44.300          41.200
 121058267.920 6  94156645.274 6  22622690.813    22622689.957    22622692.848
        41.100          39.800
 126055707.331 6  98225282.39243  23987613.664                    23987618.145
        37.900          19.000
 121135005.746 7  94390933.65645  23051226.727                    23051231.645
        44.600          30.000
 105839003.894 8  82471965.20747  20140493.188                    20140497.711
        53.200          46.100
 106801758.881 8  83068052.981 7  19979482.508    19979482.707    19979484.484
        50.700          47.000
 124656327.260 5                  23360542.938    23360542.891
        32.800
 19  1 10  0 45 30.0000000  0 18R15G05G21G13R19G24R13G02R20R04G30R14
                                R21G20G29G15R05R06
 125377726.669 6  97516027.388 5  23462734.750    23462734.309    23462737.465
        38.000          35.600
 117062961.531 8  91217927.20546  22276343.250                    22276348.176
        48.400          37.500
 117971932.160 7  91926208.88846  22449313.602                    22449317.461
        47.100          36.300
 108328203.909 8  84411602.08747  20614172.633                    20614176.730
        51.300          42.000
 116091294.801 6  90293232.565 6  21702045.469    21702044.754    21702047.324
        38.800          39.400
 123130909.853 6  95946212.11944  23431034.781                    23431043.180
        37.300          26.400
 124677068.120 5  96971059.548 5  23348009.523    23348007.309    23348010.832
        31.200          30.400
 127797635.65915  99582578.76352  24319083.930                    24319086.730
        35.300          16.900
 106670032.754 7  82965582.249 8  19947832.008    19947831.895    19947835.574
        44.900          48.900
 111182169.418 7  86475030.752 7  20762488.258    20762486.926    20762489.543
        47.800          44.500
 128381639.332 6 100037670.25943  24430217.016                    24430224.340
        37.000          18.600
 118591626.901 7  92237940.916 6  22247485.945    22247484.699    22247488.102
        44.000          41.900
 120954641.184 6  94076046.699 6  22603325.320    22603324.113    22603327.410
        41.600          40.300
 125967582.903 6  98156613.96243  23970843.867                    23970847.070
        38.100          19.900
 121223149.042 7  94459616.72944  23067999.852                    23068004.992
        44.500          29.100
 105817003.617 8  82454822.14347  20136306.805                    20136311.250
        53.600          46.300
 106786094.120 8  83055869.288 7  19976552.063    19976551.559    19976553.469
        50.800          47.800
 124572573.483 5                  23344847.773    23344845.496
        32.300
 19  1 10  0 46  0.0000000  0 18R15G05G21G13R19G24R13G02R20R04G30R14
                                R21G20G29G15R05R06
 125262383.285 6  97426315.910 5  23441149.273    23441149.066    23441152.293
        37.700          34.000
 117130434.298 7  91270503.37546  22289182.711                    22289187.102
        47.100          36.500
 117906691.667 7  91875372.14246  22436898.234                    22436902.652
        46.300          36.700
 108373663.763 8  84447025.34947  20622823.336                    20622827.430
        51.200          42.200
 116215657.270 6  90389958.911 6  21725294.016    21725292.949    21725295.164
        39.400          38.900
 123021196.319 6  95860721.09344  23410156.805                    23410164.949
        37.900          25.800
 124720948.042 5  97005188.416 5  23356226.109    23356224.602    23356228.805
        32.000          30.700
 127902489.839 5  99664283.23742  24339036.789                    24339040.371
        34.200          17.800
 106680486.180 7  82973712.682 7  19949787.086    19949787.324    19949790.852
        44.700          47.600
 111246685.876 8  86525210.213 7  20774535.758    20774535.012    20774537.441
        48.400          43.200
 128444589.879 6 100086722.62843  24442196.641                    24442203.207
        36.800          18.300
 118539054.275 7  92197051.076 6  22237623.297    22237622.168    22237625.605
        43.800          41.000
 120851490.408 6  93995818.341 6  22584049.172    22584047.730    22584051.543
        41.400          40.200
 125879479.039 6  98087961.58943  23954078.328                    23954081.934
        38.500          18.600
 121311534.656 7  94528488.61144  23084819.227                    23084824.547
        44.400          29.900
 105795494.625 8  82438061.89447  20132213.641                    20132218.355
        52.800          46.400
 106770735.584 8  83043923.746 7  19973678.766    19973678.145    19973680.148
        50.600          46.900
 124488963.953 5                  23329180.547    23329178.738
        32.300
 19  1 10  0 46 30.0000000  0 18R15G05G21G13R19G24R13G02R20R04G30R14
                                R21G20G29G15R05R06
 125147126.132 6  97336671.485 5  23419580.594    23419580.270    23419583.691
        38.600          35.600
 117198073.407 7  91323209.15446  22302054.172                    22302058.660
        47.900          36.700
 117841740.264 7  91824760.65545  22424538.141                    22424542.383
        46.500          35.900
 108419565.625 8  84482793.02546  20631558.117                    20631562.121
        51.100          41.800
 116340351.670 6  90486943.457 6  21748603.844    21748602.660    21748605.465
        38.600          38.700
 122911596.768 6  95775318.88044  23389300.609                    23389308.898
        38.400          25.600
 124765534.188 5  97039866.487 5  23364577.289    23364574.020    23364577.754
        31.300          30.500
 128007490.848 5  99746102.11343  24359018.523                    24359021.742
        34.500          18.300
 106691783.227 7  82982499.239 7  19951899.391    19951899.629    19951903.387
        45.500          47.900
 111311349.463 7  86575504.105 7  20786611.930    20786610.598    20786612.898
        47.600          44.200
 128507971.572 6 100136110.94042  24454257.289                    24454264.473
        37.100          17.400
 118487120.000 7  92156657.788 6  22227880.875    22227879.395    22227882.844
        44.700          41.200
 120748818.336 6  93915962.262 6  22564862.773    22564861.801    22564865.402
        41.200          41.400
 125791395.178 6  98019324.80943  23937316.953                    23937319.988
        37.900          20.900
 121400157.828 7  94597545.61144  23101683.875                    23101689.059
        45.400          29.300
 105774475.303 8  82421683.20247  20128214.039                    20128218.770
        53.500          46.300
 106755680.934 8  83032214.579 7  19970862.297    19970862.027    19970864.105
        50.800          47.500
 124405496.744 5                  23313537.203    23313536.684
        32.900
 19  1 10  0 47  0.0000000  0 18R15G05G21G13R19G24R13G02R20R04G30R14
                                R21G20G29G15R05R06
 125031957.619 6  97247095.970 5  23398028.984    23398028.074    23398031.621
        37.500          34.900
 117265876.594 7  91376042.78246  22314956.922                    22314961.586
        47.600          36.600
 117777077.698 7  91774374.22746  22412233.742                    22412237.879
        47.100          36.800
 108465905.519 8  84518902.03447  20640376.336                    20640381.012
        51.000          42.300
 116465370.242 6  90584180.067 6  21771974.594    21771973.762    21771976.465
        38.400          38.800
 122802111.769 6  95690005.92944  23368466.625                    23368474.313
        39.100          26.400
 124810823.083 5  97075091.184 4  23373058.594    23373055.676    23373059.586
        31.800          28.700
 128112634.960 5  99828032.43242  24379026.352                    24379030.172
        32.500          17.400
 106703921.709 7  82991940.264 7  19954170.406    19954169.824    19954173.414
        45.100          47.700
 111376156.137 7  86625909.292 7  20798713.094    20798712.113    20798714.578
        47.700          43.200
 128571780.537 6 100185832.19943  24466399.977                    24466406.551
        37.100          18.300
 118435825.220 7  92116761.832 6  22218257.750    22218256.387    22218259.758
        44.100          41.000
 120646627.085 7  93836480.176 6  22545766.180    22545765.559    22545768.695
        42.300          40.200
 125703330.109 6  97950702.71643  23920557.984                    23920562.305
        38.300          19.300
 121489013.318 7  94666783.63344  23118592.391                    23118597.125
        44.900          29.400
 105753943.523 8  82405684.41547  20124306.906                    20124311.152
        53.400          46.100
 106740927.163 8  83020739.425 7  19968102.828    19968102.207    19968104.172
        50.800          47.400
 124322169.671 5                  23297924.945    23297922.199
        33.300
 19  1 10  0 47 30.0000000  0 18R15G05G21G13R19G24R13G02R20R04G30R14
                                R21G20G29G15R05R06
 124916883.983 6  97157594.325 5  23376493.711    23376492.449    23376496.777
        38.500          35.100
 117333845.350 7  91429005.43546  22327890.758                    22327894.973
        46.600          36.200
 117712707.743 7  91724215.82745  22399984.539                    22399988.406
        46.400          35.800
 108512683.374 8  84555352.31147  20649277.969                    20649282.238
        50.800          42.000
 116590712.448 6  90681668.450 6  21795406.320    21795404.785    21795407.461
        39.000          38.300
 122692746.623 6  95604786.38644  23347655.172                    23347663.527
        38.900          26.900
 124856814.838 5  97110862.523 4  23381671.508    23381667.652    23381671.859
        31.600          29.400
 128217921.54815  99910073.91952  24399061.453                    24399065.508
        33.700          17.400
 106716902.937 7  83002036.768 8  19956596.773    19956597.129    19956600.965
        44.900          48.100
 111441106.823 7  86676426.471 7  20810842.695    20810841.480    20810843.973
        47.000          44.200
 128636016.719 5 100235886.31342  24478623.258                    24478630.996
        35.400          17.800
 118385175.110 7  92077367.323 6  22208756.445    22208755.316    22208758.254
        45.000          41.600
 120544922.355 6  93757376.505 6  22526759.664    22526758.340    22526761.930
        41.500          40.400
 125615285.812 6  97882096.75643  23903804.422                    23903807.918
        38.100          20.400
 121578099.899 7  94736201.73744  23135544.477                    23135550.188
        44.300          28.500
 105733900.779 8  82390066.70447  20120492.945                    20120497.570
        53.100          46.200
 106726475.578 8  83009499.303 7  19965399.023    19965398.754    19965400.496
        51.100          47.400
 124238985.297 5                  23282334.547    23282332.855
        35.800
 19  1 10  0 48  0.0000000  0 18R15G05G21G13R19G24R13G02R20R04G30R14
                                R21G20G29G15R05R06
 124801908.828 6  97068169.269 5  23354977.023    23354977.168    23354980.676
        38.600          34.100
 117401978.857 7  91482096.46146  22340855.742                    22340860.957
        46.400          36.300
 117648632.135 7  91674286.77946  22387791.664                    22387795.035
        46.800          37.100
 108559896.269 8  84592141.57347  20658262.063                    20658266.492
        51.000          42.200
 116716372.518 6  90779404.038 6  21818898.305    21818896.770    21818898.871
        38.800          38.800
 122583503.204 6  95519661.66344  23326866.750                    23326874.258
        39.400          27.400
 124903506.838 5  97147178.526 4  23390414.297    23390412.434    23390416.270
        31.900          28.700
 128323347.72315  99992224.05552  24419123.984                    24419127.238
        32.800          16.900
 106730725.882 7  83012787.932 7  19959182.094    19959182.332    19959185.980
        45.200          47.400
 111506199.492 7  86727054.090 7  20822997.672    20822997.160    20822999.953
        47.700          43.500
 128700677.312 6 100286271.18543  24490928.336                    24490934.891
        36.400          19.000
 118335171.581 7  92038475.706 6  22199375.703    22199374.930    22199378.328
        44.900          41.600
 120443707.564 6  93678653.887 6  22507844.938    22507844.434    22507848.156
        41.900          40.000
 125527261.878 6  97813506.67143  23887053.344                    23887058.066
        38.100          20.400
 121667413.244 7  94805796.54244  23152540.469                    23152545.684
        44.500          28.700
 105714345.415 8  82374828.75747  20116771.508                    20116775.969
        53.400          46.600
 106712324.253 8  82998492.715 7  19962751.906    19962751.168    19962753.293
        51.100          47.000
 124155942.219 5                  23266771.906    23266770.449
        35.800
 19  1 10  0 48 30.0000000  0 18R15G05G21G13R19G24R13G02R20R04G30R14
                                R21G20G29G15R05R06
 124687035.218 6  96978823.207 5  23333480.117    23333479.324    23333482.750
        38.200          35.700
 117470275.389 7  91535314.51845  22353852.477                    22353857.109
        46.600          35.600
 117584850.798 7  91624587.03046  22375654.242                    22375657.938
        46.800          37.600
 108607540.539 8  84629266.97247  20667328.586                    20667332.785
        50.800          42.500
 116842344.177 6  90877381.960 6  21842446.664    21842445.598    21842447.984
        38.400          38.400
 122474383.043 6  95434633.00044  23306101.719                    23306109.820
        40.200          27.100
 124950895.946 5  97184036.746 4  23399288.250    23399286.387    23399290.641
        31.900          29.500
 128428910.256 5 100074480.47742  24439211.281                    24439215.906
        32.300          17.800
 106745388.250 7  83024191.976 8  19961923.453    19961924.043    19961927.379
        45.100          48.900
 111571431.445 7  86777790.043 7  20835179.953    20835178.621    20835181.305
        47.200          44.000
 128765758.993 5 100336984.15843  24503312.930                    24503320.418
        35.200          19.000
 118285816.576 7  92000088.483 6  22190117.438    22190115.840    22190118.898
        44.700          41.700
 120342985.338 6  93600314.383 6  22489023.266    22489022.293    22489025.773
        41.600          41.200
 125439257.673 6  97744932.00643  23870306.320                    23870311.391
        36.900          19.000
 121756948.660 7  94875564.37544  23169578.563                    23169584.691
        45.200          29.100
 105695275.914 8  82359969.41547  20113142.617                    20113147.168
        52.800          46.400
 106698471.111 8  82987718.047 7  19960160.555    19960159.465    19960161.402
        51.200          47.600
 124073038.937 5                  23251236.391    23251235.285
        34.800
 19  1 10  0 49  0.0000000  0 18R15G05G21G13R19G24R13G02R20R04G30R14
                                R21G20G29G15R05R06
 124572268.330 6  96889560.097 5  23312003.203    23312002.410    23312006.395
        39.000          35.000
 117538734.734 7  91588659.44845  22366880.000                    22366884.227
        45.800          34.800
 117521367.049 7  91575119.16946  22363573.773                    22363577.469
        45.500          36.700
 108655614.976 8  84666727.57946  20676476.797                    20676481.141
        50.000          41.700
 116968624.091 6  90975599.625 6  21866053.188    21866051.418    21866053.711
        38.300          37.900
 122365390.686 6  95349703.92344  23285361.539                    23285369.293
        38.900          27.500
 124998980.159 5  97221435.506 4  23408293.953    23408291.504    23408294.555
        31.600          28.300
 128534607.859 5 100156842.12042  24459326.273                    24459328.547
        32.300          17.800
 106760890.192 7  83036249.039 7  19964822.836    19964822.957    19964826.711
        44.300          47.900
 111636802.447 7  86828634.148 7  20847388.070    20847386.152    20847388.996
        46.900          43.400
 128831260.441 6 100388024.20142  24515777.391                    24515783.930
        36.700          17.800
 118237113.562 7  91962208.357 6  22180979.391    22180978.852    22180982.168
        44.500          41.600
 120242760.415 6  93522361.682 6  22470293.391    22470293.238    22470296.309
        40.900          40.400
 125351274.686 6  97676373.84343  23853564.883                    23853568.461
        37.400          19.600
 121846703.784 7  94945503.41044  23186658.445                    23186664.242
        44.200          29.400
 105676692.497 8  82345488.83247  20109606.516                    20109611.090
        52.100          45.300
 106684915.523 8  82977174.832 7  19957624.141    19957624.223    19957626.246
        50.200          47.300
 123990276.599 5                  23235727.781    23235724.684
        35.200
 19  1 10  0 49 30.0000000  0 18R15G05G21G13R19G24R13G02R20R04G30R14
                                R21G20G29G15R05R06
 124457615.879 6  96800386.040 5  23290546.469    23290546.145    23290549.922
        38.600          35.100
 117607360.904 7  91642134.36945  22379938.984                    22379943.922
        46.300          35.200
 117458185.967 7  91525887.16146  22351550.508                    22351554.438
        46.300          36.300
 108704120.559 8  84704524.13346  20685707.023                    20685711.227
        50.200          41.600
 117095212.058 6  91074056.913 6  21889717.141    21889716.309    21889718.742
        38.400          37.700
 122256530.880 6  95264878.12644  23264645.523                    23264654.066
        39.500          27.500
 125047762.135 5  97259376.973 4  23417429.352    23417427.137    23417430.090
        32.400          28.800
 128640441.501 5 100239309.82842  24479464.625                    24479468.383
        32.500          16.900
 106777234.620 7  83048961.336 8  19967879.023    19967879.613    19967883.223
        45.200          48.600
 111702314.555 7  86879587.999 7  20859621.273    20859619.941    20859622.770
        47.000          44.200
 128897182.973 5 100439392.39843  24528322.273                    24528328.742
        34.800          18.300
 118189069.300 7  91924840.610 6  22171967.078    22171966.188    22171969.750
        44.400          41.100
 120143040.323 7  93444801.614 6  22451658.250    22451657.629    22451660.676
        42.300          40.500
 125263317.041 6  97607835.39043  23836826.523                    23836830.477
        38.500          21.300
 121936678.388 7  95015613.47944  23203780.219                    23203785.977
        44.800          29.900
 105658597.966 8  82331389.20347  20106163.094                    20106167.836
        53.100          45.500
 106671660.556 8  82966865.405 7  19955144.398    19955144.129    19955146.188
        51.200          47.500
 123907658.710 5                  23220245.016    23220242.504
        35.200
 19  1 10  0 50  0.0000000  0 18R15G05G21G13R19G24R13G02R20R04G30R14
                                R21G20G29G15R05R06
 124343078.736 6  96711301.672 6  23269112.648    23269112.676    23269116.699
        39.200          36.100
 117676149.061 7  91695735.51245  22393029.070                    22393033.820
        46.400          35.400
 117395305.934 7  91476889.72646  22339585.039                    22339589.023
        47.100          36.900
 108753051.719 8  84742652.31047  20695018.672                    20695022.715
        50.500          42.000
 117222099.284 6  91172746.969 6  21913438.266    21913437.082    21913439.156
        38.600          37.500
 122147804.421 6  95180156.25144  23243955.289                    23243964.148
        38.700          26.300
 125097235.401 5  97297856.197 4  23426694.070    23426691.855    23426695.906
        32.000          29.200
 128746405.782 5 100321879.30142  24499628.805                    24499632.723
        31.200          16.900
 106794417.053 7  83062325.452 7  19971093.438    19971092.855    19971096.418
        44.900          47.800
 111767962.730 7  86930647.681 7  20871880.633    20871879.652    20871882.488
        46.900          43.100
 128963521.015 6 100491084.32743  24540945.938                    24540952.973
        37.600          18.300
 118141683.067 7  91887984.672 6  22163077.391    22163076.145    22163079.547
        44.000          41.000
 120043825.249 6  93367634.327 6  22433117.563    22433116.121    22433120.176
        41.400          40.600
 125175381.486 6  97539314.17943  23820093.055                    23820097.758
        38.300          20.100
 122026865.683 7  95085889.27644  23220941.891                    23220947.543
        44.400          28.700
 105640988.279 8  82317667.37147  20102812.203                    20102816.777
        52.800          45.800
 106658701.346 8  82956786.034 7  19952720.414    19952720.496    19952722.051
        51.000          47.200
 123825181.173 5                  23204786.930    23204785.590
        35.400
 19  1 10  0 50 30.0000000  0 18R15G05G21G13R19G24R13G02R20R04G30R14
                                R21G20G29G15R05R06
 124228663.337 6  96622311.952 5  23247702.680    23247701.887    23247705.203
        39.100          34.500
 117745101.371 7  91749464.56445  22406150.063                    22406154.766
        45.900          34.400
 117332731.004 7  91428130.04546  22327677.680                    22327680.883
        47.000          36.600
 108802408.264 8  84781111.95447  20704410.719                    20704415.168
        50.300          42.000
 117349282.800 6  91271667.462 6  21937212.742    21937212.148    21937214.707
        38.100          36.700
 122039215.351 6  95095541.43244  23223292.672                    23223300.320
        38.500          25.900
 125147400.476 5  97336873.453 4  23436087.852    23436085.871    23436089.043
        31.300          25.200
 128852500.866 5 100404550.60142  24519819.352                    24519822.313
        32.200          16.900
 106812439.083 7  83076342.565 8  19974463.172    19974463.059    19974466.680
        44.600          48.200
 111833748.196 7  86981814.138 7  20884165.586    20884164.254    20884167.203
        47.000          43.600
 129030274.490 6 100543100.01542  24553648.109                    24553655.535
        36.600          17.800
 118094959.760 7  91851644.317 6  22154312.398    22154311.270    22154314.688
        44.800          40.900
 119945121.309 6  93290864.600 6  22414672.828    22414671.387    22414675.086
        41.600          39.900
 125087470.537 6  97470812.14243  23803363.656                    23803368.168
        38.200          22.000
 122117264.541 7  95156329.91744  23238144.281                    23238150.172
        43.200          28.200
 105623864.763 8  82304324.37547  20099553.547                    20099558.504
        52.200          45.500
 106646039.077 8  82946937.584 7  19950351.984    19950351.480    19950353.414
        50.800          47.000
 123742846.311 5                  23189358.094    23189356.988
        35.300
 19  1 10  0 51  0.0000000  0 18R15G05G21G13R19G24R13G02R20R04G30R14
                                R21G20G29G15R05R06
 124114374.742 6  96533420.881 5  23226314.867    23226314.191    23226317.469
        40.000          34.600
 117814217.975 7  91803321.64245  22419302.781                    22419307.332
        46.500          34.200
 117270463.676 7  91379610.05046  22315828.664                    22315832.113
        47.200          36.600
 108852188.698 8  84819901.90547  20713883.508                    20713887.609
        49.600          42.400
 117476760.326 6  91370816.604 6  21961044.945    21961042.590    21961044.922
        38.100          37.000
 121930767.846 6  95011036.90444  23202655.438                    23202663.184
        38.300          26.900
 125198254.945 5  97376426.935 4  23445611.734    23445609.988    23445612.684
        31.600          27.000
 128958724.502 5 100487322.16042  24540033.813                    24540036.031
        33.300          15.600
 106831300.049 7  83091012.209 8  19977990.328    19977989.746    19977993.379
        44.600          48.000
 111899670.221 7  87033086.814 7  20896476.133    20896475.621    20896478.398
        47.300          43.300
 129097441.884 6 100595438.20143  24566429.477                    24566436.957
        36.600          18.300
 118048902.673 7  91815822.124 6  22145671.719    22145671.063    22145674.359
        44.900          41.000
 119846932.870 6  93214495.798 6  22396324.039    22396323.418    22396326.625
        41.300          40.200
 124999585.954 6  97402330.64643  23786639.977                    23786644.648
        38.400          20.900
 122207872.140 7  95226933.20644  23255386.234                    23255392.559
        43.700          28.600
 105607227.433 8  82291360.22647  20096387.555                    20096392.035
        52.300          45.700
 106633673.469 8  82937319.896 7  19948038.742    19948038.121    19948039.871
        50.800          47.100
 123660654.119 6                  23173955.914    23173953.871
        36.700
 19  1 10  0 51 30.0000000  0 18R15G05G21G13R19G24R13G02R20R04G30R14
                                R21G20G29G15R05R06
 124000214.166 6  96444629.357 5  23204950.906    23204950.699    23204954.492
        40.100          35.400
 117883495.410 7  91857304.04145  22432485.867                    22432490.273
        46.600          33.900
 117208502.553 7  91331328.65045  22304037.641                    22304041.293
        46.700          35.500
 108902387.535 8  84859017.88346  20723435.953                    20723440.398
        49.400          41.100
 117604523.408 6  91470187.882 6  21984927.086    21984926.254    21984929.059
        38.100          37.000
 121822461.572 6  94926642.43144  23182044.836                    23182053.219
        37.800          26.200
 125249794.412 5  97416513.167 4  23455265.133    23455261.395    23455264.844
        31.300          27.200
 129065071.668 5 100570189.98742  24560270.781                    24560273.461
        33.600          16.900
 106850996.319 7  83106331.477 8  19981673.359    19981673.129    19981676.680
        44.500          48.000
 111965724.143 7  87084462.053 7  20908811.359    20908810.262    20908813.414
        46.400          43.500
 129165018.082 5 100648094.95042  24579289.406                    24579296.730
        33.100          17.800
 118003511.678 7  91780518.049 6  22137156.773    22137156.117    22137159.262
        44.500          40.900
 119749260.844 6  93138528.686 6  22378071.281    22378070.191    22378074.051
        41.600          40.600
 124911725.004 6  97333867.57443  23769920.930                    23769925.703
        38.800          22.200
 122298682.034 7  95297694.15244  23272666.953                    23272672.703
        43.300          28.200
 105591072.908 8  82278772.28847  20093313.641                    20093318.066
        51.600          45.300
 106621600.477 8  82927929.772 7  19945779.797    19945780.113    19945781.770
        50.800          46.800
 123578601.779 6                  23158579.352    23158577.660
        36.300
 19  1 10  0 52  0.0000000  0 18R15G05G21G13R19G24R13G02R20R04G30R14
                                R21G20G29G15R05R06
 123886188.781 6  96355942.993 6  23183613.070    23183612.629    23183616.102
        40.200          36.000
 117952936.132 7  91911413.68445  22445699.820                    22445704.559
        47.600          34.200
 117146852.684 7  91283289.78946  22292306.320                    22292309.887
        47.000          37.500
 108953005.401 8  84898460.36846  20733068.328                    20733072.605
        49.000          41.800
 117732571.029 6  91569780.423 6  22008863.148    22008863.961    22008866.676
        37.700          36.500
 121714302.407 6  94842362.57744  23161463.094                    23161471.230
        38.700          27.400
 125302019.155 5  97457132.425 4  23465044.102    23465041.418    23465044.598
        31.600          26.500
 129171543.341 5 100653154.74542  24580531.000                    24580534.188
        31.600          16.300
 106871529.825 7  83122301.977 8  19985513.523    19985513.410    19985517.230
        45.100          48.000
 112031912.122 7  87135941.579 7  20921171.547    20921170.332    20921172.973
        46.100          43.200
 129233003.626 5 100701070.67342  24592226.883                    24592233.891
        34.600          16.300
 117958792.362 7  91745736.350 6  22128767.359    22128766.820    22128770.094
        44.600          40.900
 119652112.020 7  93062968.497 6  22359916.938    22359915.613    22359919.324
        42.300          40.600
 124823890.585 6  97265425.18643  23753207.305                    23753210.785
        37.900          21.700
 122389693.785 7  95368612.38244  23289985.969                    23289991.602
        42.300          27.300
 105575403.589 8  82266562.42747  20090331.719                    20090336.180
        52.200          46.000
 106609821.910 8  82918768.664 7  19943576.672    19943576.871    19943578.520
        51.100          47.100
 123496691.995 5                  23143229.125    23143227.434
        35.300
 19  1 10  0 52 30.0000000  0 18R15G05G21G13R19G24R13G02R20R04G30R14
                                R21G20G29G15R05R06
 123772303.037 6  96267365.232 6  23162301.063    23162300.270    23162303.309
        40.900          36.000
 118022539.474 7  91965650.04345  22458944.742                    22458949.785
        47.900          33.700
 117085515.732 7  91235494.75746  22280634.047                    22280637.535
        46.700          36.800
 109004039.945 8  84938227.54347  20742780.023                    20742784.102
        49.400          42.300
 117860898.617 6  91669590.727 6  22032854.734    22032853.785    22032856.195
        38.500          36.800
 121606293.421 6  94758199.73644  23140909.336                    23140917.781
        38.500          26.000
 125354927.150 5  97498283.031 4  23474950.813    23474948.012    23474952.766
        31.500          28.500
 129278137.006 5 100736214.61442  24600815.688                    24600818.922
        33.500          17.800
 106892899.186 7  83138922.572 8  19989509.547    19989510.020    19989513.445
        44.900          48.200
 112098232.574 7  87187524.124 7  20933556.742    20933555.410    20933558.031
        46.700          44.500
 129301396.357 5 100754363.70942  24605241.141                    24605248.129
        34.300          17.400
 117914747.438 7  91711479.195 6  22120505.008    22120504.352    22120507.563
        45.000          41.800
 119555490.249 7  92987818.219 6  22341859.930    22341858.371    22341862.078
        42.400          40.000
 124736083.686 6  97197004.24243  23736497.695                    23736501.719
        37.900          21.800
 122480903.881 7  95439685.16244  23307342.305                    23307348.523
        42.300          29.000
 105560218.294 8  82254729.73347  20087442.273                    20087446.855
        52.800          46.400
 106598336.769 8  82909835.797 7  19941428.070    19941427.449    19941429.367
        50.300          47.700
 123414924.753 6                  23127907.414    23127905.137
        37.300
 19  1 10  0 53  0.0000000  0 18R15G05G21G13R19G24R13G02R20R04G30R14
                                R21G20G29G15R05R06
 123658560.433 6  96178898.796 6  23141016.000    23141015.090    23141018.215
        40.700          36.100
 118092304.642 7  92020012.49745  22472220.883                    22472226.020
        47.500          34.600
 117024492.692 7  91187944.33046  22269021.992                    22269025.188
        47.500          37.200
 109055488.202 8  84978317.09247  20752570.398                    20752574.273
        50.600          42.000
 117989500.557 6  91769614.456 6  22056893.836    22056894.297    22056896.602
        37.800          37.400
 121498436.787 6  94674155.63644  23120385.266                    23120392.980
        39.500          26.800
 125408515.233 5  97539962.651 4  23484986.977    23484984.527    23484987.395
        31.800          27.100
 129384849.81215 100819367.25752  24621122.258                    24621125.539
        31.800          16.300
 106915102.860 7  83156192.083 8  19993661.727    19993661.848    19993665.750
        45.000          48.600
 112164683.633 7  87239208.291 7  20945965.984    20945964.184    20945967.188
        46.800          43.700
 129370193.287 5 100807971.66742  24618332.594                    24618340.270
        34.200          16.900
 117871378.812 7  91677748.036 6  22112370.055    22112368.340    22112371.656
        44.600          41.400
 119459398.488 7  92913080.174 6  22323903.414    22323902.207    22323905.613
        42.400          40.500
 124648304.401 6  97128604.82043  23719794.234                    23719797.613
        38.400          21.700
 122572308.208 7  95510909.29844  23324736.641                    23324741.953
        43.000          28.200
 105545515.549 8  82243273.05547  20084644.086                    20084648.793
        52.800          46.400
 106587143.510 8  82901129.922 7  19939334.094    19939334.059    19939335.723
        51.300          47.500
 123333298.465 6                  23112608.953    23112607.496
        36.600
 19  1 10  0 53 30.0000000  0 18R15G05G21G13R19G24R13G02R20R04G30R14
                                R21G20G29G15R05R06
 123544967.654 6  96090548.897 6  23119757.078    23119756.871    23119760.449
        41.200          36.400
 118162233.181 7  92074502.25545  22485528.148                    22485532.043
        46.900          33.900
 116963787.813 7  91140641.82046  22257469.945                    22257473.457
        47.600          37.200
 109107350.000 8  85018728.88146  20762439.391                    20762443.305
        49.200          41.600
 118118374.470 6  91869849.666 6  22080986.859    22080986.027    22080989.000
        37.900          37.300
 121390737.443 6  94590234.06744  23099890.844                    23099898.617
        38.900          26.500
 125462783.462 5  97582171.245 4  23495148.164    23495146.535    23495151.020
        30.500          29.000
 129491681.66415                  24641450.789
        31.900
 106938142.015 7  83174111.414 8  19997969.750    19997970.223    19997973.555
        44.300          48.200
 112231266.386 7  87290994.847 7  20958399.719    20958398.738    20958401.484
        46.400          43.900
 129439394.460 5 100861894.59942  24631500.766                    24631508.559
        34.800          17.800
 117828691.223 7  91644546.569 6  22104361.727    22104360.246    22104363.402
        44.500          41.400
 119363842.765 7  92838759.067 6  22306046.906    22306046.051    22306049.406
        42.200          40.600
 124560554.796 6  97060228.49343  23703095.414                    23703099.902
        36.900          20.900
 122663905.470 6  95582283.77944  23342166.406                    23342172.359
        41.700          26.500
 105531297.119 8  82232193.76247  20081938.469                    20081943.305
        51.900          45.400
 106576243.174 8  82892651.865 7  19937294.570    19937294.535    19937296.566
        50.200          47.400
 123251815.872 6                  23097340.680    23097338.754
        36.800
 19  1 10  0 54  0.0000000  0 18R15G05G21G13R19G24R13G02R20R04G30R14
                                R21G20G29G15R05R06
 123431526.369 6  96002316.847 6  23098528.680    23098528.121    23098531.688
        41.000          36.000
 118232322.209 7  92129117.07345  22498865.406                    22498870.355
        46.600          33.100
 116903400.318 7  91093586.62746  22245978.578                    22245981.863
        47.800          36.900
 109159620.691 8  85059459.28546  20772385.977                    20772390.293
        50.200          40.600
 118247514.773 6  91970292.090 6  22105128.422    22105127.473    22105130.730
        37.500          36.700
 121283195.369 6  94506435.05544  23079426.289                    23079433.730
        39.400          27.700
 125517726.730 5  97624904.860 4  23505440.211    23505436.121    23505439.461
        30.300          29.500
 129598627.880 5 100985947.27152  24661803.000                    24661805.844
        34.400          16.900
 106962012.513 7  83192677.330 8  20002434.773    20002434.309    20002437.945
        44.100          48.600
 112297976.796 7  87342880.728 7  20970857.445    20970855.996    20970858.863
        46.000          43.500
 129508995.003 5 100916128.77742  24644745.820                    24644753.500
        34.600          17.800
 117786684.700 7  91611874.859 6  22096480.633    22096479.270    22096482.664
        44.100          40.800
 119268824.371 7  92764855.884 6  22288290.109    22288289.137    22288292.523
        42.600          40.800
 124472833.256 6  96991874.07543  23686402.578                    23686406.965
        37.500          21.500
 122755689.690 6  95653803.92044  23359632.195                    23359638.922
        40.900          27.300
 105517559.734 8  82221489.30647  20079324.422                    20079329.039
        51.900          45.500
 106565632.091 8  82884398.817 7  19935310.250    19935309.980    19935311.660
        50.300          47.700
 123170473.795 5                  23082096.242    23082094.434
        35.800
 19  1 10  0 54 30.0000000  0 18R15G05G21G13R19G24R13G02R20R04G30R14
                                R21G20G29G15R05R06
 123318242.288 6  95914207.061 5  23077329.430    23077329.223    23077332.410
        41.500          35.800
 118302572.495 7  92183857.53745  22512233.750                    22512238.074
        46.300          33.900
 116843332.886 7  91046780.82446  22234548.336                    22234551.711
        47.300          37.200
 109212298.868 8  85100507.21246  20782410.398                    20782414.551
        49.400          41.000
 118376917.340 6  92070938.526 6  22129318.414    22129317.938    22129320.520
        37.800          37.100
 121175814.797 6  94422761.87544  23058992.703                    23059000.371
        40.500          28.100
 125573343.479 4  97668162.373 4  23515852.680    23515850.699    23515854.875
        28.600          29.300
 129705687.490 5 101069370.17742  24682175.438                    24682180.156
        33.300          17.400
 106986714.840 7  83211890.261 8  20007053.836    20007053.605    20007057.281
        44.300          49.000
 112364814.814 7  87394865.834 7  20983338.430    20983338.273    20983340.973
        45.200          44.400
 129578993.840 5 100970673.28042  24658066.695                    24658073.605
        34.800          17.400
 117745362.997 7  91579735.749 6  22088728.938    22088728.047    22088731.281
        44.300          41.400
 119174348.306 7  92691374.490 6  22270635.258    22270634.285    22270637.598
        42.600          41.300
 124385141.427 6  96923542.77843  23669715.484                    23669719.129
        36.000          20.900
 122847658.513 6  95725467.92644  23377134.109                    23377139.828
        41.600          26.700
 105504303.731 8  82211159.95947  20076801.797                    20076806.336
        51.400          45.900
 106555310.377 8  82876370.801 7  19933379.117    19933378.730    19933380.645
        51.000          47.600
 123089273.528 6                  23066878.266    23066877.746
        36.500
 19  1 10  0 55  0.0000000  0 18R15G05G21G13R19G24R13G02R20R04G30R14
                                R21G20G29G15R05R06
 123205119.252 6  95826222.509 5  23056159.500    23056159.762    23056162.281
        41.400          35.300
 118372983.201 7  92238723.00545  22525632.484                    22525637.043
        46.600          33.700
 116783586.777 7  91000225.41846  22223178.859                    22223182.578
        47.400          36.700
 109265381.863 8  85141870.57546  20792511.844                    20792515.828
        50.200          40.900
 118506575.802 6  92171783.962 6  22153558.383    22153555.676    22153558.930
        38.100          36.700
 121068598.606 6  94339216.80944  23038589.547                    23038596.965
        40.500          27.500
 125629631.141 5  97711941.628 4  23526395.094    23526390.887    23526396.137
        30.300          29.500
 129812857.54815                  24702569.492
        34.700
 107012246.654 7  83231748.310 7  20011828.469    20011828.004    20011831.969
        44.600          47.800
 112431779.190 7  87446949.216 7  20995844.914    20995842.762    20995845.594
        45.800          44.000
 129649388.265 5 101025526.08942  24671461.977                    24671469.855
        34.300          17.800
 117704728.271 7  91548130.971 6  22081105.203    22081105.016    22081108.078
        44.700          40.900
 119080417.922 7  92618317.518 6  22253082.344    22253081.254    22253084.574
        42.800          40.500
 124297479.420 6  96855234.74443  23653033.617                    23653038.211
        36.800          20.100
 122939808.101 6  95797272.76744  23394669.492                    23394675.824
        41.300          28.200
 105491527.863 8  82201204.74247  20074371.133                    20074375.141
        51.700          46.200
 106545276.828 8  82868566.937 7  19931501.742    19931502.059    19931503.711
        51.100          47.400
 123008214.239 6                  23051688.586    23051687.012
        36.300
 19  1 10  0 55 30.0000000  0 18R15G05G21G13R19G24R13G02R20R04G30R14
                                R21G20G29G15R05R06
 123092163.176 6  95738367.823 6  23035022.008    23035021.098    23035024.313
        41.200          36.400
 118443555.618 7  92293714.48045  22539061.469                    22539066.332
        45.900          33.500
 116724165.914 7  90953923.43746  22211871.484                    22211875.262
        47.700          37.900
 109318868.815 8  85183548.71746  20802690.180                    20802693.941
        50.100          41.100
 118636489.454 6  92272827.890 6  22177843.664    22177841.895    22177845.035
        37.800          37.500
 120961550.968 6  94255803.08144  23018218.945                    23018227.223
        40.200          27.300
 125686588.81115  97756242.040 4  23537059.469    23537058.547    23537062.195
        30.500          29.000
 129920137.371 5 101236473.59852  24722984.773                    24722987.895
        34.200          16.900
 107038608.550 7  83252251.987 8  20016757.828    20016758.066    20016761.750
        44.300          48.600
 112498869.892 7  87499130.853 7  21008372.055    21008371.074    21008373.672
        45.800          44.200
 129720177.568 5 101080686.50242  24684933.844                    24684940.945
        35.200          15.600
 117664784.672 7  91517063.737 6  22073612.086    22073611.781    22073615.016
        44.600          41.400
 118987038.369 7  92545688.970 6  22235631.047    22235630.191    22235634.016
        43.200          40.500
 124209849.337 6  96786951.57143  23636358.188                    23636362.598
        36.200          22.200
 123032136.917 6  95869217.27944  23412239.078                    23412244.977
        41.600          26.900
 105479233.058 8  82191624.37447  20072031.273                    20072035.707
        51.900          46.100
 106535531.928 8  82860987.548 8  19929679.313    19929678.926    19929680.668
        51.100          48.000
 122927297.735 5                  23036524.711    23036522.551
        35.200
 19  1 10  0 56  0.0000000  0 18R15G05G21G13R19G24R13G02R20R04G30R14
                                R21G20G29G15R05R06
 122979377.742 6  95650645.877 6  23013914.664    23013914.691    23013918.391
        41.100          36.000
 118514287.892 7  92348830.53145  22552521.297                    22552526.207
        46.800          33.700
 116665071.390 8  90907875.75146  22200626.172                    22200629.664
        48.200          38.100
 109372756.538 8  85225539.14746  20812944.414                    20812948.711
        49.400          41.100
 118766651.202 6  92374064.781 6  22202174.828    22202174.352    22202177.203
        37.600          37.000
 120854673.955 6  94172522.30044  22997880.766                    22997888.906
        40.900          27.900
 125744212.848 4  97801060.68515  23547852.586    23547849.199    23547853.957
        28.900          31.200
 130027524.26415 101320151.52552  24743420.672                    24743423.578
        35.400          16.900
 107065798.286 7  83273399.548 8  20021842.859    20021842.980    20021846.859
        44.600          48.000
 112566084.981 7  87551409.258 7  21020923.641    21020923.246    21020925.973
        46.500          43.800
 129791358.623 5 101136152.26042  24698478.570                    24698485.148
        34.300          16.900
 117625533.535 7  91486535.084 6  22066248.773    22066248.234    22066251.375
        45.200          41.500
 118894212.730 7  92473491.242 6  22218285.773    22218283.391    22218286.953
        42.900          39.900
 124122251.031 6  96718693.18943  23619687.664                    23619693.422
        36.500          20.400
 123124640.443 6  95941297.91444  23429841.859                    23429847.336
        41.600          27.700
 105467417.571 8  82182417.50547  20069782.820                    20069787.301
        52.100          46.300
 106526073.799 8  82853631.236 7  19927909.703    19927909.434    19927911.250
        50.500          47.600
 122846522.383 6                  23021387.984    23021385.824
        36.300
 19  1 10  0 56 30.0000000  0 18R15G05G21G13R19G24R13G02R20R04G30R14
                                R21G20G29G15R05R06
 122866766.649 6  95563059.503 6  22992841.148    22992841.410    22992844.078
        41.800          36.500
 118585179.460 7  92404070.69745  22566012.141                    22566016.563
        47.200          33.600
 116606304.300 7  90862083.20546  22189443.141                    22189446.766
        47.900          37.600
 109427042.259 8  85267839.70446  20823274.633                    20823278.703
        49.700          41.400
 118897057.276 6  92475491.670 6  22226554.672    22226553.840    22226555.730
        37.700          37.500
 120747970.071 6  94089376.42844  22977576.055                    22977583.941
        41.200          28.600
 125802501.07915  97846396.001 4  23558768.867    23558766.184    23558769.371
        30.500          28.300
 130135015.23715 101403910.59452  24763873.797                    24763878.844
        33.200          17.400
 107093813.991 7  83295189.527 8  20027081.891    20027081.543    20027084.961
        45.000          48.900
 112633423.018 7  87603783.270 7  21033499.211    21033497.762    21033500.695
        46.500          44.000
 129862928.64215 101191921.06952  24712097.484                    24712104.207
        34.200          17.800
 117586977.018 7  91456546.697 6  22059015.836    22059014.473    22059018.016
        44.900          40.900
 118801944.033 7  92401726.712 6  22201042.938    22201041.379    22201044.637
        43.700          41.200
 124034684.530 6  96650459.56543  23603025.359                    23603030.148
        37.900          22.800
 123217314.930 6  96013511.77144  23447476.789                    23447483.180
        41.600          26.600
 105456080.160 8  82173583.16447  20067625.273                    20067629.879
        53.500          47.200
 106516901.078 8  82846496.907 7  19926193.492    19926193.691    19926195.703
        51.100          47.600
 122765887.708 6                  23006277.078    23006275.035
        36.700
 19  1 10  0 57  0.0000000  0 18R15G05G21G13R19G24R13G02R20R04G30R14
                                R21G20G29G15R05R06
 122754333.612 6  95475611.627 6  22971801.750    22971801.426    22971804.063
        40.800          36.000
 118656228.878 7  92459433.86445  22579531.734                    22579536.539
        46.800          32.700
 116547865.576 7  90816546.52446  22178322.594                    22178326.156
        47.900          37.900
 109481722.821 8  85310447.92746  20833680.141                    20833684.145
        48.200          40.600
 119027702.841 6  92577104.848 6  22250977.664    22250975.543    22250978.234
        36.900          36.700
 120641441.175 6  94006366.91444  22957304.594                    22957311.746
        41.400          27.100
 125861449.37314  97892244.60215  23569806.992    23569804.426    23569808.133
        29.100          30.600
 130242607.02315 101487748.10252  24784350.273                    24784352.977
        33.700          17.800
 107122653.409 7  83317620.164 8  20032475.023    20032475.145    20032479.070
        44.400          48.200
 112700881.692 7  87656251.094 7  21046096.875    21046095.895    21046098.969
        46.000          43.300
 129934884.537 5 101247990.55842  24725790.570                    24725797.465
        34.400          15.600
 117549116.606 7  91427099.741 6  22051913.289    22051912.516    22051915.434
        44.600          40.200
 118710235.254 7  92330397.638 6  22183904.500    22183903.410    22183906.965
        43.600          40.600
 123947149.689 6  96582250.58243  23586368.430                    23586372.348
        38.100          21.100
 123310155.889 7  96085855.33744  23465144.508                    23465150.094
        42.400          26.800
 105445219.115 8  82165120.01547  20065558.461                    20065562.695
        52.300          46.600
 106508011.821 8  82839583.014 7  19924530.813    19924530.191    19924532.230
        51.200          47.300
 122685392.574 6                  22991191.883    22991189.605
        36.200
 19  1 10  0 57 30.0000000  0 18R15G05G21G13R19G24R13G02R20R04G30R14
                                R21G20G29G15R05R06
 122642087.806 6  95388309.365 6  22950795.820    22950795.848    22950798.684
        41.300          37.700
 118727440.537 7  92514923.44945  22593083.203                    22593087.965
        46.800          33.600
 116489761.524 7  90771270.63646  22167265.820                    22167269.527
        47.500          38.400
 109536800.591 8  85353365.66546  20844160.883                    20844165.113
        49.000          41.500
 119158587.065 6  92678903.665 6  22275445.938    22275444.402    22275446.277
        36.900          36.700
 120535095.179 6  93923499.92444  22937067.797                    22937075.281
        41.300          28.900
 125921060.20914  97938608.590 5  23580970.180    23580967.730    23580970.898
        29.100          30.100
 130350302.42715 101571666.37052  24804842.820                    24804846.449
        33.500          16.900
 107152319.931 7  83340694.114 8  20038023.070    20038022.488    20038026.125
        44.800          48.900
 112768464.789 7  87708815.721 7  21058717.680    21058716.230    21058719.180
        46.400          44.000
 130007228.607 5 101304362.48742  24739557.930                    24739564.012
        35.000          16.900
 117511959.356 7  91398199.675 6  22044942.133    22044941.945    22044945.215
        44.300          40.900
 118619094.899 7  92259510.720 6  22166872.547    22166872.160    22166875.453
        43.700          41.000
 123859651.530 6  96514070.23143  23569718.094                    23569721.895
        38.400          21.500
 123403164.731 7  96158329.72444  23482843.539                    23482848.891
        42.300          26.800
 105434838.255 8  82157031.03347  20063583.117                    20063587.438
        52.000          47.300
 106499409.882 8  82832892.619 8  19922922.141    19922921.520    19922923.313
        50.800          48.400
 122605041.639 6                  22976134.109    22976133.355
        37.100
 19  1 10  0 58  0.0000000  0 18R15G05G21G13R19G24R13G02R20R04G30R14
                                R21G20G29G15R05R06
 122530031.149 6  95301154.206 6  22929825.172    22929825.082    22929828.199
        41.700          37.300
 118798811.769 7  92570537.37845  22606664.758                    22606669.680
        45.600          32.800
 116431992.107 8  90726255.49646  22156272.438                    22156276.082
        48.100          38.000
 109592270.835 8  85396589.22546  20854716.602                    20854720.656
        48.600          41.300
 119289702.940 6  92780882.640 6  22299954.930    22299954.215    22299956.660
        37.300          36.500
 120428932.470 6  93840775.75144  22916865.445                    22916873.086
        41.100          28.700
 125981328.38714  97985483.854 4  23592256.469    23592254.723    23592257.230
        29.600          29.300
 130458096.705 5 101655661.68442  24825355.703                    24825358.859
        33.500          16.900
 107182809.331 7  83364408.073 7  20043723.758    20043724.113    20043727.910
        44.500          47.300
 112836168.629 7  87761474.222 7  21071360.969    21071359.988    21071362.629
        45.900          43.400
 130079956.124 5 101361033.25942  24753396.508                    24753403.570
        32.900          17.800
 117475505.258 7  91369846.469 6  22038104.414    22038102.934    22038105.965
        44.700          40.500
 118528524.236 7  92189066.889 6  22149947.875    22149946.316    22149949.672
        43.800          40.700
 123772188.281 6  96445917.04743  23553073.906                    23553078.637
        37.500          21.800
 123496336.109 7  96230930.77544  23500573.234                    23500578.598
        43.100          26.500
 105424934.583 8  82149313.89647  20061698.547                    20061703.125
        52.000          46.400
 106491091.704 8  82826422.944 7  19921365.898    19921364.926    19921366.504
        50.700          46.800
 122524832.148 6                  22961102.008    22961101.840
        37.600
 19  1 10  0 58 30.0000000  0 18R15G05G21G13R19G24R13G02R20R04G30R14
                                R21G20G29G15R05R06
 122418167.498 6  95214149.180 6  22908891.852    22908891.645    22908895.172
        41.300          38.200
 118870341.498 7  92626274.81345  22620276.375                    22620280.809
        46.400          32.600
 116374557.445 7  90681501.20946  22145343.070                    22145346.867
        47.500          37.900
 109648130.582 8  85440116.29646  20865346.117                    20865350.395
        49.000          41.400
 119421045.746 6  92883038.122 6  22324509.008    22324507.121    22324509.668
        36.900          37.400
 120322955.354 6  93758196.18144  22896698.125                    22896706.094
        41.600          29.300
 126042251.09714  98032868.145 4  23603666.625    23603662.418    23603665.535
        29.100          28.900
 130565986.828 5 101739731.75442  24845885.914                    24845889.555
        33.900          17.800
 107214119.521 7  83388760.436 8  20049580.023    20049579.090    20049582.754
        44.700          48.600
 112903991.561 7  87814225.385 7  21084025.945    21084025.434    21084028.375
        46.000          43.500
 130153064.24715 101418000.58252  24767308.617                    24767315.223
        33.200          14.800
 117439755.998 7  91342041.513 6  22031397.039    22031396.734    22031399.984
        44.500          41.200
 118438526.251 7  92119068.436 6  22133129.484    22133128.277    22133131.730
        43.900          40.900
 123684760.222 6  96377791.31643  23536436.445                    23536441.063
        38.000          21.800
 123589665.532 7  96303654.96344  23518333.820                    23518338.918
        43.700          27.500
 105415506.319 8  82141967.19847  20059904.398                    20059909.168
        52.400          46.900
 106483055.649 8  82820172.666 7  19919862.289    19919862.137    19919863.730
        50.800          47.800
 122444763.821 6                  22946098.641    22946096.480
        36.900
 19  1 10  0 59  0.0000000  0 18R15G05G21G13R19G24R13G02R20R04G30R14
                                R21G20G29G15R05R06
 122306501.864 7  95127298.167 6  22887995.719    22887994.574    22887997.527
        42.000          38.200
 118942029.885 7  92682135.86645  22633918.148                    22633922.824
        46.800          33.300
 116317460.987 8  90637010.45446  22134478.031                    22134481.676
        48.000          38.400
 109704377.895 8  85483945.37246  20876049.906                    20876053.969
        49.700          41.600
 119552612.486 6  92985367.778 6  22349103.219    22349102.859    22349105.039
        36.700          37.100
 120217167.255 7  93675763.91144  22876567.750                    22876575.570
        42.500          29.300
 126103825.91015  98080759.65715  23615197.445    23615194.059    23615197.531
        30.100          30.400
 130673971.430 5 101823875.43742  24866435.305                    24866438.660
        34.100          16.300
 107246249.526 7  83413750.406 8  20055588.016    20055588.488    20055591.793
        44.900          48.100
 112971933.048 7  87867068.749 7  21096714.180    21096713.199    21096715.805
        45.900          43.200
 130226551.249 5 101475263.18042  24781292.086                    24781300.125
        33.900          16.300
 117404714.485 7  91314787.029 6  22024824.156    22024822.910    22024826.070
        44.600          41.200
 118349105.374 7  92049518.860 6  22116418.758    22116417.668    22116421.125
        44.000          40.700
 123597368.373 6  96309693.77143  23519806.906                    23519811.566
        36.900          22.000
 123683150.142 7  96376500.09944  23536123.523                    23536128.727
        42.800          27.200
 105406553.488 8  82134990.97047  20058200.703                    20058205.055
        51.800          47.300
 106475301.709 8  82814141.823 7  19918411.852    19918410.996    19918412.691
        50.400          47.500
 122364836.715 6                  22931119.758    22931118.301
        37.700
 19  1 10  0 59 30.0000000  0 18R15G05G21G13R19G24R13G02R20R04G30R14
                                R21G20G29G15R05R06
 122195040.779 6  95040606.246 6  22867136.492    22867136.051    22867139.449
        41.500          38.300
 119013878.264 7  92738121.59645  22647590.586                    22647595.250
        46.700          33.500
 116260706.369 8  90592786.07146  22123677.898                    22123681.938
        48.500          37.900
 109761012.626 8  85528076.32846  20886826.977                    20886831.332
        49.600          41.100
 119684400.436 6  93087869.429 6  22373738.703    22373738.578    22373741.191
        36.400          37.900
 120111573.930 6  93593483.41445  22856473.898                    22856482.051
        41.600          30.200
 126166052.06915  98129157.735 5  23626849.281    23626847.773    23626850.422
        30.700          30.400
 130782050.128 5 101908092.35842  24887002.195                    24887005.723
        34.600          17.800
 107279199.518 7  83439378.173 8  20061750.227    20061750.348    20061753.816
        45.000          48.000
 113039994.199 7  87920005.168 7  21109423.789    21109422.691    21109425.660
        46.600          44.200
 130300416.723 5 101532820.68042  24795347.930                    24795355.711
        34.200          17.800
 117370384.924 7  91288086.251 6  22018383.875    22018383.336    22018386.477
        44.900          40.700
 118260267.244 7  91980422.554 6  22099816.969    22099816.699    22099819.875
        44.700          41.200
 123510015.434 6  96241626.57343  23503183.992                    23503188.570
        38.400          21.300
 123776788.809 7  96449465.27444  23553942.109                    23553947.645
        42.700          27.600
 105398077.389 8  82128386.22247  20056587.523                    20056591.863
        52.100          47.500
 106467830.796 8  82808331.115 7  19917014.398    19917013.777    19917015.516
        51.000          47.800
 122285052.552 6                  22916168.586    22916167.832
        38.800
 19  1 10  1  0  0.0000000  0 17R15G05G21G13R19G24R13R20R04G30R14R21
                                G20G29G15R05R06
 122083789.246 7  94954077.310 6  22846317.867    22846317.426    22846320.637
        42.100          38.000
 119085887.161 7  92794232.41245  22661292.938                    22661297.789
        46.700          34.100
 116204295.699 8  90548829.69646  22112943.422                    22112946.875
        48.400          38.400
 109818032.901 8  85572507.70646  20897678.031                    20897681.988
        49.600          41.700
 119816404.337 6  93190539.105 6  22398415.617    22398414.199    22398417.910
        36.600          37.100
 120006177.628 6  93511356.44544  22836417.805                    22836425.363
        41.600          29.800
 126228927.15715  98178060.583 5  23638624.969    23638621.582    23638624.770
        30.500          30.200
 107312968.458 7  83465642.878 8  20068065.141    20068064.559    20068068.234
        45.100          48.300
 113108174.448 7  87973034.226 7  21122155.500    21122155.227    21122158.027
        46.300          43.400
 130374658.922 5 101590671.69542  24809476.375                    24809483.602
        33.800          17.400
 117336770.056 7  91261941.381 6  22012077.391    22012076.734    22012079.605
        44.700          40.900
 118172016.036 7  91911782.709 6  22083325.336    22083324.598    22083327.691
        44.700          40.500
 123422702.741 6  96173590.74843  23486569.102                    23486573.125
        37.400          22.800
 123870578.115 7  96522547.82344  23571789.109                    23571794.645
        42.200          26.800
 105390077.393 8  82122152.45947  20055065.305                    20055069.539
        52.500          47.500
 106460642.280 8  82802740.058 7  19915669.586    19915669.316    19915671.223
        51.400          47.600
 122205411.446 6                  22901243.359    22901241.785
        37.300
 19  1 10  1  0 30.0000000  0 17R15G05G21G13R19G24R13R20R04G30R14R21
                                G20G29G15R05R06
 121972746.080 6  94867710.418 6  22825537.742    22825537.301    22825540.289
        41.500          38.900
 119158050.488 7  92850463.55245  22675025.711                    22675030.180
        46.700          33.400
 116148225.741 8  90505138.81546  22102273.695                    22102277.395
        48.600          38.100
 109875431.092 8  85617233.56346  20908600.086                    20908604.617
        49.500          41.000
 119948615.663 5  93293370.107 6  22423131.492    22423131.016    22423133.980
        35.900          37.600
 119900976.254 6  93429381.34844  22816398.516                    22816406.500
        40.900          29.300
 126292443.85115  98227462.437 4  23650517.953    23650517.031    23650519.340
        31.000          29.400
 107347549.204 7  83492539.017 8  20074532.055    20074531.824    20074535.445
        45.100          48.400
 113176467.001 7  88026150.653 7  21134909.492    21134907.926    21134911.055
        47.000          43.700
 130449269.957 5 101648810.12442  24823673.695                    24823682.125
        32.500          17.400
 117303866.425 7  91236349.676 6  22005905.086    22005904.430    22005907.594
        44.600          40.900
 118084349.880 7  91843597.928 6  22066943.188    22066941.746    22066945.051
        44.600          41.400
 123335425.562 6  96105582.56243  23469960.586                    23469964.840
        38.400          22.600
 123964509.900 6  96595741.41144  23589663.648                    23589669.730
        41.800          25.600
 105382547.147 8  82116284.74147  20053632.266                    20053636.645
        52.000          47.300
 106453730.072 8  82797363.891 8  19914376.047    19914376.598    19914378.313
        51.200          48.200
 122125908.286 6                  22886343.258    22886342.738
        36.200
 19  1 10  1  1  0.0000000  0 17R15G05G21G13R19G24R13R20R04G30R14R21
                                G20G29G15R05R06
 121861920.581 6  94781512.851 6  22804798.352    22804797.910    22804800.828
        41.100          39.100
 119230372.457 7  92906818.30845  22688787.969                    22688793.027
        46.400          33.500
 116092502.392 8  90461718.01946  22091670.016                    22091673.238
        48.200          38.300
 109933209.327 8  85662255.55646  20919594.867                    20919599.133
        48.300          40.700
 120081035.232 5  93396363.044 6  22447886.031    22447885.199    22447888.445
        35.800          36.900
 119795977.341 6  93347564.01145  22796417.953                    22796426.176
        40.600          30.000
 126356602.965 4  98277363.981 5  23662533.313    23662530.980    23662535.203
        29.600          31.600
 107382944.844 7  83520068.926 8  20081151.422    20081150.840    20081154.535
        44.500          48.600
 113244875.659 7  88079357.365 7  21147683.820    21147683.191    21147686.113
        45.100          43.400
 130524252.253 5 101707237.84642  24837943.563                    24837951.348
        33.600          15.600
 117271681.065 7  91211316.621 6  21999866.742    21999866.086    21999869.164
        44.200          40.800
 117997277.107 7  91775874.663 6  22050671.484    22050670.980    22050674.273
        43.500          41.300
 123248188.823 6  96037605.88943  23453359.422                    23453364.543
        37.200          22.600
 124058585.366 6  96669046.95044  23607565.852                    23607571.250
        41.500          25.000
 105375490.309 8  82110785.90947  20052289.531                    20052293.992
        51.100          46.800
 106447097.573 8  82792205.275 8  19913134.914    19913135.230    19913137.258
        49.200          48.000
 122046547.202 6                  22871472.594    22871470.785
        37.000
 19  1 10  1  1 30.0000000  0 17R15G05G21G13R19G24R13R20R04G30R14R21
                                G20G29G15R05R06
 121751315.978 7  94695487.094 6  22784099.906    22784098.996    22784102.336
        42.300          38.900
 119302851.326 7  92963295.33245  22702580.180                    22702585.012
        46.600          33.400
 116037126.413 8  90418567.90046  22081132.008                    22081135.813
        49.300          38.400
 109991364.294 8  85707571.11746  20930661.500                    20930665.305
        48.500          40.800
 120213656.175 5  93499512.649 6  22472677.633    22472677.859    22472680.891
        35.200          37.900
 119691183.102 6  93265906.17344  22776475.719                    22776484.301
        40.900          28.900
 126421401.66915  98327762.949 5  23674667.180    23674666.258    23674669.020
        30.300          30.800
 107419152.156 7  83548230.156 8  20087921.656    20087921.543    20087925.098
        45.300          48.900
 113313398.247 7  88132652.692 7  21160480.813    21160479.480    21160482.520
        45.500          44.200
 130599602.252 5 101765952.17142  24852282.367                    24852288.813
        32.300          16.900
 117240215.014 7  91186843.027 6  21993963.820    21993963.164    21993966.242
        44.400          41.200
 117910800.202 7  91708614.840 6  22034510.656    22034510.152    22034513.398
        44.200          40.900
 123160992.446 6  95969660.66743  23436767.016                    23436771.578
        37.400          22.500
 124152799.913 6  96742460.84844  23625494.523                    23625499.082
        41.600          24.700
 105368905.230 8  82105654.68247  20051036.484                    20051040.996
        52.100          46.700
 106440742.964 8  82787262.798 8  19911947.000    19911946.262    19911948.320
        51.200          48.300
 121967327.036 6                  22856626.078    22856626.031
        37.500
 19  1 10  1  2  0.0000000  0 17R15G05G21G13R19G24R13R20R04G30R14R21
                                G20G29G15R05R06
 121640939.218 6  94609638.521 6  22763445.297    22763444.387    22763447.262
        41.900          39.100
 119375489.331 7  93019896.34845  22716402.555                    22716407.668
        45.800          32.900
 115982101.919 7  90375691.67046  22070661.531                    22070665.262
        47.000          39.100
 110049895.475 8  85753179.82646  20941799.461                    20941804.055
        48.200          40.300
 120346477.157 5  93602817.803 6  22497507.906    22497506.840    22497509.500
        35.000          36.500
 119586598.195 6  93184411.45144  22756574.320                    22756581.941
        41.100          29.800
 126486838.372 4  98378658.147 5  23686923.531    23686920.965    23686924.086
        29.400          30.100
 107456171.582 7  83577023.023 7  20094844.117    20094844.590    20094848.500
        43.600          47.400
 113382036.063 7  88186037.634 7  21173298.492    21173296.926    21173299.766
        45.700          43.400
 130675319.837 5 101824952.84642  24866690.922                    24866698.195
        34.100          16.900
 117209472.460 7  91162932.168 6  21988195.695    21988196.211    21988199.258
        43.600          40.800
 117824925.019 7  91641823.034 6  22018463.117    22018462.379    22018465.121
        43.700          40.700
 123073839.041 6  95901748.94543  23420182.555                    23420186.867
        38.100          21.500
 124247152.121 7  96815982.01444  23643448.984                    23643454.031
        42.600          25.000
 105362793.190 8  82100892.05347  20049873.328                    20049878.047
        51.100          46.600
 106434667.543 7  82782537.464 7  19910810.219    19910809.832    19910811.598
        47.300          47.100
 121888250.245 6                  22841808.219    22841806.527
        37.700
 19  1 10  1  2 30.0000000  0 17R15G05G21G13R19G24R13R20R04G30R14R21
                                G20G29G15R05R06
 121530791.655 7  94523968.245 6  22742831.555    22742831.699    22742834.973
        42.200          39.300
 119448283.225 7  93076618.83645  22730255.336                    22730260.215
        46.800          31.900
 115927427.881 8  90333088.51746  22060257.180                    22060260.680
        48.400          38.300
 110108797.997 8  85799077.89346  20953008.313                    20953012.969
        48.100          40.300
 120479490.526 5  93706272.621 6  22522373.617    22522372.316    22522375.316
        34.800          37.200
 119482222.997 6  93103080.13544  22736712.602                    22736720.000
        40.700          29.800
 126552908.07014  98430045.641 5  23699296.938    23699293.434    23699296.824
        29.400          31.200
 107493998.152 7  83606443.671 8  20101918.273    20101918.395    20101922.145
        44.300          48.500
 113450785.178 7  88239509.147 7  21186136.383    21186135.520    21186138.531
        45.500          44.600
 130751399.740 5 101884235.86642  24881168.445                    24881175.273
        33.400          17.400
 117179452.451 7  91139583.280 6  21982565.227    21982564.215    21982567.719
        43.900          41.200
 117739652.360 7  91575499.848 6  22002528.180    22002526.855    22002530.027
        43.900          41.200
 122986726.793 6  95833869.26443  23403605.563                    23403609.953
        37.600          22.200
 124341636.072 6  96889605.83844  23661429.500                    23661434.496
        40.600          26.200
 105357150.173 8  82096494.89447  20048799.406                    20048804.281
        52.000          46.300
 106428867.432 8  82778026.258 8  19909725.328    19909724.824    19909726.781
        51.000          48.400
 121809313.010 6                  22827014.477    22827013.723
        37.700
 19  1 10  1  3  0.0000000  0 17R15G05G21G13R19G24R13R20R04G30R14R21
                                G20G29G15R05R06
 121420879.223 6  94438480.826 6  22722262.383    22722262.879    22722266.102
        41.800          39.500
 119521234.555 7  93133464.01345  22744137.125                    22744142.043
        46.700          31.800
 115873107.671 8  90290761.07646  22049920.563                    22049924.492
        48.400          38.700
 110168070.766 8  85845264.46146  20964287.781                    20964292.340
        49.100          40.900
 120612693.339 5  93809874.758 6  22547273.945    22547272.762    22547275.676
        34.400          36.500
 119378062.333 6  93021915.99444  22716890.781                    22716898.637
        41.100          29.100
 126619609.12714  98481924.18115  23711788.680    23711784.000    23711787.613
        29.600          31.100
 107532631.559 7  83636491.855 7  20109143.367    20109142.434    20109146.594
        44.700          47.800
 113519645.877 7  88293067.448 7  21198995.430    21198994.566    21198997.727
        45.900          43.500
 130827840.98315 101943800.40252  24895714.609                    24895722.148
        33.400          16.300
 117150158.408 7  91116799.035 6  21977069.352    21977068.813    21977072.137
        44.600          40.600
 117654986.950 7  91509648.989 6  21986705.938    21986704.730    21986708.191
        44.600          40.700
 122899657.433 6  95766023.01543  23387036.563                    23387041.891
        36.200          22.500
 124436249.634 6  96963330.66544  23679434.336                    23679438.715
        41.100          24.100
 105351976.678 8  82092463.60647  20047814.773                    20047819.555
        50.200          46.600
 106423343.081 8  82773729.557 7  19908692.281    19908691.777    19908693.691
        50.800          47.800
 121730516.734 6                  22812248.789    22812246.746
        36.900
 19  1 10  1  3 30.0000000  0 17R15G05G21G13R19G24R13R20R04G30R14R21
                                G20G29G15R05R06
 121311206.170 6  94353179.614 6  22701739.758    22701738.965    22701742.359
        41.700          39.800
 119594341.499 7  93190430.43845  22758049.102                    22758054.359
        46.600          32.400
 115819142.304 8  90248710.13846  22039651.148                    22039654.945
        48.600          38.800
 110227710.884 8  85891737.27046  20975636.953                    20975641.320
        48.400          40.200
 120746080.713 5  93913620.404 6  22572210.063    22572208.176    22572211.434
        34.700          36.800
 119274118.150 6  92940920.53344  22697111.703                    22697119.188
        41.900          29.400
 126686938.40414  98534291.42815  23724395.031    23724393.285    23724395.703
        29.400          31.900
 107572069.307 7  83667165.643 7  20116518.039    20116518.043    20116521.824
        44.700          47.400
 113588616.665 7  88346711.373 7  21211875.594    21211874.145    21211877.172
        45.700          43.900
 130904640.581 5 102003644.24743  24910327.875                    24910336.594
        33.300          18.600
 117121591.873 7  91094580.615 6  21971710.680    21971710.258    21971713.281
        44.400          40.800
 117570931.931 7  91444272.844 6  21970998.406    21970998.254    21971000.855
        45.000          41.000
 122812631.508 6  95698210.64543  23370476.492                    23370480.395
        37.600          23.600
 124530989.381 6  97037153.81544  23697461.859                    23697466.758
        41.300          24.800
 105347271.086 8  82088796.91047  20046919.477                    20046924.211
        51.600          46.900
 106418093.148 8  82769646.268 7  19907709.375    19907709.223    19907710.988
        50.800          47.900
 121651860.671 6                  22797508.211    22797507.223
        37.200
 19  1 10  1  4  0.0000000  0 17R15G05G21G13R19G24R13R20R04G30R14R21
                                G20G29G15R05R06
 121201776.391 6  94268067.586 6  22681261.367    22681260.457    22681263.270
        40.900          39.800
 119667603.272 7  93247517.51245  22771990.367                    22771995.516
        45.500          32.000
 115765533.340 8  90206936.91446  22029449.852                    22029453.520
        48.400          38.300
 110287715.857 8  85938494.38646  20987055.516                    20987059.348
        49.700          40.600
 120879647.725 5  94017505.805 6  22597178.172    22597177.813    22597180.184
        35.100          36.400
 119170393.316 6  92860096.01245  22677373.172                    22677381.152
        41.800          30.600
 126754892.18014  98587144.43514  23737119.719    23737117.621    23737120.750
        29.400          29.000
 107612309.003 7  83698463.158 8  20124043.563    20124043.098    20124046.602
        45.000          48.000
 113657696.559 7  88400440.161 7  21224775.617    21224775.223    21224777.777
        45.400          43.400
 130981796.08515 102063765.37652  24925011.383                    24925019.113
        33.500          17.800
 117093754.654 7  91072929.476 6  21966488.375    21966488.070    21966490.969
        44.900          41.100
 117487490.652 7  91379374.063 6  21955405.133    21955404.746    21955408.035
        44.500          40.700
 122725649.421 6  95630432.38043  23353924.180                    23353928.824
        37.300          23.000
 124625851.322 6  97111072.18144  23715513.766                    23715518.047
        41.600          24.700
 105343032.417 8  82085494.05247  20046112.891                    20046117.473
        51.900          46.800
 106413116.486 8  82765775.523 7  19906778.781    19906778.160    19906780.082
        50.700          47.800
 121573344.838 6                  22782793.672    22782792.566
        36.400
 19  1 10  1  4 30.0000000  0 17R15G05G21G13R19G24R13R20R04G30R14R21
                                G20G29G15R05R06
 121092595.942 6  94183149.501 6  22660829.336    22660828.309    22660831.574
        40.900          40.000
 119741021.407 7  93304726.42445  22785961.367                    22785966.414
        46.200          31.800
 115712283.926 8  90165443.86346  22019316.836                    22019320.559
        48.800          38.900
 110348084.731 8  85985535.06046  20998543.305                    20998547.621
        48.900          39.900
 121013392.145 5  94121529.225 6  22622179.828    22622178.996    22622182.258
        35.300          36.900
 119066892.300 7  92779445.89344  22657677.000                    22657685.453
        42.000          29.900
 126823469.66014  98640482.42915  23749962.039    23749960.410    23749964.352
        29.400          31.400
 107653350.173 7  83730384.039 7  20131717.383    20131717.855    20131721.746
        44.900          47.600
 113726885.393 7  88454253.670 7  21237695.891    21237695.379    21237697.961
        46.400          44.400
 131059306.401 5 102124163.01142  24939760.500                    24939769.027
        34.300          17.800
 117066649.667 7  91051847.804 6  21961403.195    21961403.125    21961405.758
        44.700          41.300
 117404668.031 7  91314956.477 6  21939928.141    21939927.168    21939929.852
        44.600          40.700
 122638713.101 6  95562689.80244  23337380.031                    23337385.535
        37.400          25.300
 124720833.440 6  97185084.19244  23733587.719                    23733592.891
        41.400          25.000
 105339261.085 8  82082555.35247  20045395.133                    20045399.672
        51.400          46.400
 106408413.573 8  82762117.705 7  19905898.867    19905899.301    19905901.012
        50.200          47.500
 121494969.959 6                  22768108.133    22768106.324
        37.100
 19  1 10  1  5  0.0000000  0 17R15G05G21G13R19G24R13R20R04G30R14R21
                                G20G29G15R05R06
 120983670.045 6  94098429.371 6  22640444.883    22640444.441    22640448.375
        40.800          39.400
 119814596.095 7  93362057.32345  22799962.055                    22799967.250
        46.100          32.300
 115659396.587 8  90124232.94246  22009252.484                    22009256.465
        48.100          38.400
 110408815.707 7  86032857.88946  21010100.305                    21010104.656
        47.900          40.000
 121147308.840 5  94225686.584 5  22647215.680    22647214.027    22647216.270
        35.200          35.600
 118963618.092 7  92698972.50245  22638025.016                    22638032.773
        42.500          30.400
 126892667.85014  98694303.187 5  23762922.172    23762919.605    23762922.500
        28.300          31.000
 107695191.163 7  83762927.018 7  20139543.406    20139542.707    20139546.066
        44.500          47.400
 113796183.834 7  88508152.448 7  21250637.016    21250635.566    21250638.656
        46.000          43.900
 131137169.800 5 102184835.74542  24954577.719                    24954585.332
        32.900          17.400
 117040279.761 7  91031337.883 6  21956456.938    21956455.809    21956459.371
        43.800          41.400
 117322468.224 7  91251023.263 6  21924567.430    21924566.457    21924569.246
        44.800          40.800
 122551824.101 6  95494984.09443  23320847.117                    23320850.555
        38.300          23.200
 124815933.464 6  97259188.09044  23751684.766                    23751690.172
        41.300          26.200
 105335956.767 8  82079980.55447  20044766.438                    20044771.004
        51.300          46.700
 106403983.952 8  82758672.457 7  19905070.633    19905069.660    19905071.566
        50.500          47.800
 121416737.005 6                  22753445.758    22753444.770
        37.200
 19  1 10  1  5 30.0000000  0 17R15G05G21G13R19G24R13R20R04G30R14R21
                                G20G29G15R05R06
 120875002.771 6  94013910.458 6  22620109.242    22620109.035    22620112.426
        41.000          39.400
 119888326.402 7  93419509.48745  22813992.328                    22813998.008
        46.700          31.900
 115606872.706 8  90083305.23346  21999257.813                    21999261.031
        48.200          38.900
 110469906.118 7  86080460.80446  21021725.375                    21021729.422
        47.600          40.500
 121281394.404 5  94329975.292 5  22672279.398    22672278.805    22672281.938
        35.500          35.800
 118860573.904 7  92618678.34945  22618416.469                    22618424.133
        43.000          30.300
 126962483.69314  98748604.41414  23775994.531    23775992.785    23775996.023
        28.300          29.500
 107737829.614 7  83796090.240 8  20147516.195    20147516.785    20147520.293
        44.600          48.000
 113865589.987 7  88562135.005 7  21263598.086    21263596.637    21263599.398
        45.500          44.000
 131215383.49115 102245781.42452  24969461.992                    24969469.340
        33.700          17.400
 117014646.438 7  91011400.841 6  21951648.117    21951647.344    21951650.918
        44.500          41.300
 117240894.227 7  91187576.844 6  21909323.203    21909322.348    21909325.199
        44.600          41.300
 122464982.857 6  95427315.58143  23304321.117                    23304325.426
        38.600          22.300
 124911147.387 6  97333380.72844  23769804.023                    23769809.012
        41.600          26.900
 105333117.966 8  82077768.50647  20044225.977                    20044230.805
        51.000          46.700
 106399826.806 8  82755439.109 8  19904292.258    19904292.340    19904294.090
        50.800          48.200
 121338644.823 6                  22738810.852    22738809.863
        36.200
 19  1 10  1  6  0.0000000  0 17R15G05G21G13R19G24R13R20R04G30R14R21
                                G20G29G15R05R06
 120766598.357 6  93929595.934 6  22599822.914    22599822.824    22599826.352
        41.300          39.700
 119962211.699 7  93477082.42245  22828052.727                    22828057.586
        46.800          32.400
 115554713.611 8  90042661.78846  21989332.117                    21989335.836
        48.600          39.200
 110531353.390 8  86128341.78546  21033418.578                    21033422.551
        48.500          41.000
 121415644.041 5  94434391.643 5  22697377.109    22697376.395    22697379.336
        35.700          35.800
 118757762.070 6  92538565.26045  22598851.969                    22598860.098
        41.800          30.900
 127032914.20914  98803383.61314  23789185.578    23789182.777    23789185.313
        28.300          27.500
 107781263.212 7  83829871.921 7  20155638.289    20155638.293    20155642.113
        45.100          47.800
 113935102.870 7  88616200.565 7  21276579.320    21276578.457    21276580.941
        46.200          43.000
 131293944.792 5 102306997.99142  24984411.070                    24984418.895
        32.400          15.600
 116989750.861 7  90992037.629 6  21946978.102    21946976.504    21946979.996
        44.600          41.500
 117159949.329 7  91124619.680 6  21894197.633    21894196.191    21894199.098
        45.300          41.000
 122378189.834 6  95359684.64043  23287804.898                    23287808.516
        39.200          22.900
 125006471.507 6  97407659.22944  23787943.453                    23787948.109
        41.600          25.900
 105330743.753 8  82075918.47147  20043774.203                    20043778.891
        52.700          47.300
 106395940.615 8  82752416.504 7  19903566.102    19903565.715    19903567.602
        51.200          47.300
 121260693.269 6                  22724203.703    22724202.012
        36.500
 19  1 10  1  6 30.0000000  0 17R15G05G21G13R19G24R13R20R04G30R14R21
                                G20G29G15R05R06
 120658460.670 6  93845488.915 6  22579586.953    22579585.809    22579589.016
        41.200          39.800
 120036251.255 7  93534775.56145  22842141.766                    22842146.930
        46.100          32.300
 115502920.709 8  90002303.66846  21979476.055                    21979479.938
        49.300          39.400
 110593154.572 8  86176498.54246  21045178.359                    21045182.520
        49.000          40.600
 121550053.074 5  94538931.951 6  22722503.750    22722503.391    22722505.984
        35.200          36.200
 118655185.290 7  92458635.32645  22579332.148                    22579340.293
        42.200          30.500
 127103955.45414  98858637.89915  23802489.906    23802487.223    23802490.695
        29.600          30.600
 107825488.872 7  83864269.628 7  20163909.359    20163909.012    20163912.691
        44.600          47.800
 114004721.086 7  88670348.047 7  21289579.844    21289578.746    21289581.742
        45.600          44.000
 131372850.763 5 102368483.15642  24999426.766                    24999433.984
        33.100          17.800
 116965594.593 7  90973249.439 6  21942446.328    21942444.613    21942447.957
        44.100          41.700
 117079636.489 7  91062154.128 6  21879188.461    21879187.723    21879190.293
        44.300          41.600
 122291445.204 6  95292091.43444  23271297.922                    23271302.715
        39.700          25.300
 125101902.293 7  97482020.85544  23806103.055                    23806107.684
        42.100          25.600
 105328832.267 8  82074429.00047  20043410.664                    20043415.211
        52.000          47.700
 106392324.148 8  82749603.703 8  19902888.844    19902888.691    19902890.578
        51.400          48.000
 121182881.758 6                  22709620.766    22709620.719
        37.100
 19  1 10  1  7  0.0000000  0 17R15G05G21G13R19G24R13R20R04G30R14R21
                                G20G29G15R05R06
 120550594.958 6  93761593.354 6  22559401.242    22559400.801    22559403.746
        41.700          39.600
 120110445.141 7  93592588.94945  22856260.617                    22856265.441
        46.400          32.100
 115451496.466 8  89962232.82846  21969690.117                    21969694.207
        48.300          39.200
 110655307.866 8  86224929.67546  21057005.914                    21057010.109
        48.900          39.600
 121684617.246 5  94643592.958 6  22747659.133    22747657.832    22747660.418
        35.200          36.200
 118552846.663 7  92378890.96645  22559857.711                    22559865.645
        42.900          31.400
 127175615.15214  98914365.45715  23815908.648    23815904.793    23815907.922
        29.600          31.200
 107870505.010 7  83899282.176 7  20172326.945    20172327.418    20172331.047
        44.800          47.300
 114074443.874 7  88724576.860 7  21302600.289    21302598.723    21302601.352
        45.800          43.000
 131452099.409 5 102430235.29642  25014508.039                    25014514.910
        34.900          17.400
 116942179.613 7  90955037.801 6  21938053.000    21938052.813    21938055.789
        44.300          40.500
 116999959.464 7  91000183.126 6  21864298.641    21864297.668    21864300.699
        44.900          40.900
 122204750.242 6  95224536.92743  23254800.602                    23254804.637
        39.200          23.200
 125197436.812 6  97556463.29343  23824282.781                    23824287.563
        41.800          23.400
 105327383.124 8  82073299.80247  20043134.664                    20043139.438
        52.600          47.600
 106388977.000 8  82747000.365 8  19902262.766    19902262.379    19902264.410
        51.600          48.000
 121105210.580 6                  22695066.328    22695064.754
        36.700
 19  1 10  1  7 30.0000000  0 17R15G05G21G13R19G24R13R20R04G30R14R21
                                G20G29G15R05R06
 120443006.430 6  93677913.457 6  22539267.234    22539266.676    22539269.758
        41.700          38.800
 120184793.635 7  93650522.81645  22870408.500                    22870413.188
        46.400          32.300
 115400443.495 8  89922451.28746  21959975.469                    21959979.246
        49.400          40.000
 110717811.644 8  86273633.91046  21068899.953                    21068904.270
        48.700          40.000
 121819333.797 5  94748372.394 5  22772842.406    22772842.047    22772844.566
        35.700          35.800
 118450750.146 6  92299335.25945  22540429.273                    22540437.469
        41.800          31.200
 127247870.52915  98970564.09215  23829439.141    23829436.340    23829438.898
        31.200          30.600
 107916310.206 7  83934908.402 8  20180893.570    20180893.105    20180896.723
        44.900          48.300
 114144271.664 7  88778887.335 7  21315640.281    21315638.715    21315641.500
        46.000          43.600
 131531689.314 5 102492253.40742  25029652.047                    25029660.020
        32.900          16.900
 116919508.788 7  90937404.933 6  21933799.492    21933799.422    21933802.895
        44.000          41.300
 116920922.700 7  90938710.077 6  21849528.813    21849528.074    21849530.699
        45.500          41.800
 122118106.628 6  95157022.43344  23238312.969                    23238316.410
        39.900          24.300
 125293072.687 7  97630984.73144  23842481.352                    23842486.938
        42.200          24.600
 105326395.979 8  82072530.59547  20042947.242                    20042951.699
        52.900          47.600
 106385899.399 8  82744606.669 7  19901687.656    19901687.152    19901688.941
        50.800          47.500
 121027679.608 6                  22680536.656    22680535.551
        36.900
 19  1 10  1  8  0.0000000  0 17R15G05G21G13R19G24R13R20R04G30R14R21
                                G20G29G15R05R06
 120335700.498 6  93594453.330 6  22519186.727    22519186.285    22519189.094
        41.900          39.200
 120259297.188 7  93708577.51245  22884586.023                    22884590.953
        46.900          32.200
 115349763.926 8  89882960.70946  21950331.266                    21950335.379
        48.600          39.400
 110780664.581 8  86322610.22046  21080860.273                    21080864.738
        48.400          39.700
 121954197.906 5  94853266.698 5  22798053.891    22798054.000    22798056.227
        35.000          34.700
 118348899.449 6  92219971.10245  22521047.555                    22521055.602
        41.700          32.300
 127320729.54315  99027232.199 4  23843082.539    23843079.973    23843082.281
        30.300          28.800
 107962902.947 7  83971147.196 7  20189606.508    20189605.926    20189609.734
        45.200          47.200
 114214204.049 7  88833279.172 7  21328699.547    21328697.863    21328700.723
        46.000          42.700
 131611618.640 5 102554535.94742  25044863.570                    25044870.043
        34.300          16.300
 116897584.126 7  90920352.434 6  21929687.328    21929686.672    21929690.000
        44.600          40.600
 116842530.335 7  90877738.237 6  21834879.359    21834878.504    21834881.668
        45.300          41.100
 122031515.697 6  95089548.98944  23221835.367                    23221839.109
        40.500          24.000
 125388807.193 6  97705583.00644  23860699.555                    23860704.520
        41.700          25.600
 105325870.764 8  82072121.33647  20042847.008                    20042851.699
        52.500          47.300
 106383091.027 8  82742422.382 7  19901161.484    19901161.449    19901163.363
        50.600          47.200
 120950290.166 6                  22666034.461    22666032.887
        36.600
 19  1 10  1  8 30.0000000  0 17R15G05G21G13R19G24R13R20R04G30R14R21
                                G20G29G15R05R06
 120228679.497 6  93511214.795 6  22499158.797    22499158.004    22499160.973
        40.900          39.100
 120333953.404 7  93766751.15745  22898792.898                    22898797.289
        46.200          31.500
 115299457.560 8  89843760.94146  21940758.578                    21940762.398
        48.600          38.700
 110843862.011 8  86371854.96046  21092886.484                    21092890.883
        48.500          39.600
 122089204.578 5  94958271.803 5  22823294.195    22823293.012    22823294.629
        35.800          34.500
 118247295.600 6  92140799.29145  22501713.148                    22501721.477
        41.900          30.900
 127394186.92515  99084365.680 4  23856839.141    23856836.223    23856839.180
        30.100          28.200
 108010278.235 7  84007994.616 7  20198465.867    20198465.402    20198468.801
        44.500          47.200
 114284238.079 7  88887750.073 7  21341777.430    21341775.980    21341778.992
        45.900          42.700
 131691882.77415 102617079.39452  25060136.711                    25060144.102
        34.600          17.800
 116876405.217 7  90903879.959 6  21925713.914    21925712.668    21925716.129
        43.400          40.700
 116764783.523 7  90817268.490 6  21820350.789    21820349.582    21820352.656
        45.300          41.000
 121944976.539 6  95022115.88844  23205367.000                    23205370.797
        38.200          24.600
 125484635.033 6  97780254.01344  23878934.734                    23878940.418
        41.700          25.100
 105325804.186 8  82072069.46547  20042834.117                    20042838.789
        51.300          46.400
 106380548.677 8  82740444.988 7  19900685.883    19900686.199    19900687.832
        51.300          47.000
 120873040.023 6                  22651557.969    22651556.160
        36.800
 19  1 10  1  9  0.0000000  0 17R15G05G21G13R19G24R13R20R04G30R14R21
                                G20G29G15R05R06
 120121948.891 6  93428202.157 6  22479185.320    22479184.645    22479188.250
        41.600          39.100
 120408762.716 7  93825044.09145  22913028.461                    22913033.285
        45.700          32.600
 115249526.589 8  89804853.68246  21931256.852                    21931260.520
        49.100          38.700
 110907402.271 7  86421366.84446  21104977.977                    21104981.980
        47.500          39.000
 122224349.130 5  95063384.139 5  22848556.813    22848556.570    22848558.520
        35.400          34.000
 118145942.051 7  92061822.52145  22482426.367                    22482434.223
        42.700          31.600
 127468240.35315  99141962.758 4  23870707.078    23870703.691    23870708.219
        30.100          29.000
 108058434.941 7  84045449.822 7  20207470.664    20207471.254    20207474.969
        44.400          46.600
 114354373.669 7  88942299.940 6  21354875.500    21354873.934    21354876.828
        45.300          41.800
 131772480.268 5 102679882.61142  25075475.047                    25075481.371
        32.400          15.600
 116855974.517 7  90887989.433 6  21921880.750    21921880.563    21921883.633
        43.900          40.700
 116687686.333 7  90757303.998 6  21805943.477    21805941.918    21805944.855
        45.100          40.700
 121858490.358 6  94954724.06843  23188909.609                    23188913.422
        40.000          23.300
 125580553.367 6  97854995.54044  23897187.133                    23897192.496
        41.500          24.100
 105326196.288 8  82072374.99847  20042909.234                    20042913.492
        51.000          46.000
 106378272.486 8  82738674.607 7  19900260.703    19900259.965    19900261.988
        50.800          46.800
 120795929.589 6                  22637107.172    22637106.066
        37.500
 19  1 10  1  9 30.0000000  0 17R15G05G21G13R19G24R13R20R04G30R14R21
                                G20G29G15R05R06
 120015515.239 6  93345420.418 6  22459267.391    22459267.652    22459270.563
        41.600          39.400
 120483727.050 7  93883457.82745  22927293.516                    22927298.762
        46.000          31.700
 115199975.330 8  89766242.31046  21921827.305                    21921831.355
        49.100          39.100
 110971285.221 8  86471145.75546  21117134.156                    21117138.844
        48.400          39.400
 122359629.329 5  95168602.024 5  22873847.094    22873844.855    22873847.383
        35.400          34.500
 118044844.160 6  91983044.97245  22463188.055                    22463195.766
        41.900          31.000
 127542889.60715  99200023.26815  23884685.109    23884683.012    23884687.309
        30.300          30.700
 108107372.614 7  84083512.430 7  20216623.008    20216623.246    20216626.484
        45.400          47.600
 114424612.241 7  88996929.918 7  21367991.492    21367990.863    21367993.645
        45.900          42.300
 131853410.724 5 102742945.32742  25090872.977                    25090881.855
        33.900          17.400
 116836295.694 7  90872683.676 6  21918189.234    21918188.461    21918191.703
        43.400          40.500
 116611244.510 7  90697849.259 6  21791658.281    21791656.957    21791660.160
        45.100          41.300
 121772060.188 6  94887375.87244  23172462.102                    23172466.582
        39.600          24.600
 125676561.473 6  97929807.02643  23915457.313                    23915462.738
        41.600          23.000
 105327047.822 8  82073038.53547  20043071.164                    20043075.656
        51.600          46.300
 106376263.888 8  82737112.368 7  19899884.398    19899884.363    19899886.289
        50.900          46.900
 120718960.660 6                  22622683.008    22622682.020
        36.800
 19  1 10  1 10  0.0000000  0 17R15G05G21G13R19G24R13R20R04G30R14R21
                                G20G29G15R05R06
 119909379.302 6  93262870.278 6  22439406.406    22439405.496    22439408.566
        41.700          39.700
 120558841.934 7  93941988.88245  22941587.664                    22941592.500
        46.400          31.500
 115150801.618 8  89727925.12646  21912470.242                    21912474.273
        49.600          39.900
 111035504.768 8  86521186.96446  21129354.805                    21129359.453
        48.500          39.400
 122495037.678 5  95273919.573 5  22899159.648    22899158.348    22899161.035
        35.400          34.100
 117944001.228 7  91904466.07845  22443998.281                    22444006.254
        42.100          32.000
 127618126.94314  99258541.220 4  23898773.039    23898771.176    23898775.332
        28.600          29.300
 108157085.042 7  84122177.613 7  20225919.078    20225919.668    20225923.254
        44.700          47.600
 114494949.317 7  89051636.527 7  21381126.578    21381125.715    21381128.340
        45.800          42.600
 131934668.00015 102806262.62652  25106337.063                    25106345.070
        34.300          16.300
 116817366.505 7  90857960.979 6  21914638.945    21914638.055    21914641.262
        43.600          41.100
 116535457.485 7  90638903.773 6  21777495.734    21777494.410    21777497.434
        45.000          40.700
 121685683.443 6  94820069.34544  23156024.977                    23156029.082
        39.200          24.400
 125772652.210 7  98004682.90843  23933743.094                    23933747.691
        42.600          22.300
 105328353.927 8  82074056.27447  20043319.648                    20043324.031
        51.800          47.000
 106374518.244 8  82735754.638 7  19899558.086    19899558.285    19899560.055
        50.900          47.000
 120642129.720 6                  22608285.172    22608283.832
        37.600
 19  1 10  1 10 30.0000000  0 17R15G05G21G13R19G24R13R20R04G30R14R21
                                G20G29G15R05R06
 119803548.961 7  93180557.820 6  22419601.789    22419601.113    22419604.211
        42.600          39.700
 120634110.548 7  94000639.71945  22955911.250                    22955916.047
        46.400          31.400
 115102010.695 8  89689906.21446  21903185.305                    21903189.563
        48.200          38.800
 111100062.040 8  86571491.32646  21141639.836                    21141643.770
        48.000          38.700
 122630573.272 5  95379336.078 5  22924494.875    22924495.453    22924498.008
        35.700          34.100
 117843419.741 7  91826090.92045  22424858.398                    22424866.023
        42.100          32.700
 127693953.05114  99317517.087 4  23912973.625    23912971.645    23912975.168
        29.100          28.700
 108207573.095 7  84161446.091 7  20235360.938    20235360.355    20235364.262
        44.200          47.000
 114565387.480 7  89106421.748 7  21394280.328    21394279.816    21394282.223
        45.700          42.800
 132016253.019 5 102869835.35042  25121860.844                    25121869.820
        33.800          16.900
 116799191.687 7  90843825.014 6  21911228.055    21911227.750    21911231.508
        44.400          41.400
 116460331.829 7  90580472.703 6  21763456.453    21763455.598    21763458.598
        44.400          41.600
 121599364.051 6  94752807.47044  23139599.281                    23139603.648
        38.800          24.500
 125868825.626 7  98079623.18943  23952043.688                    23952048.297
        42.600          22.600
 105330116.840 8  82075429.97847  20043655.375                    20043659.805
        51.500          46.800
 106373038.196 8  82734603.478 7  19899281.555    19899281.168    19899283.027
        51.000          46.800
 120565439.863 6                  22593912.359    22593911.254
        36.500
 19  1 10  1 11  0.0000000  0 17R15G05G21G13R19G24R13R20R04G30R14R21
                                G20G29G15R05R06
 119698029.147 7  93098486.861 6  22399855.117    22399854.793    22399857.805
        42.700          40.200
 120709532.589 7  94059410.11345  22970262.992                    22970267.922
        45.500          30.900
 115053604.082 8  89652186.78246  21893974.320                    21893978.102
        49.600          39.800
 111164954.942 7  86622057.21646  21153989.305                    21153992.875
        47.600          38.600
 122766231.935 5  95484848.325 5  22949856.313    22949855.129    22949858.414
        35.400          34.400
 117743102.585 7  91747921.71745  22405768.758                    22405776.246
        43.000          32.900
 127770364.49414  99376948.22114  23927285.023    23927281.402    23927285.090
        28.300          27.900
 108258834.549 7  84201316.103 7  20244946.289    20244946.762    20244950.133
        44.700          46.900
 114635925.737 7  89161284.802 7  21407452.844    21407451.863    21407454.770
        45.500          42.100
 132098163.475 5 102933661.66242  25137448.164                    25137457.297
        34.100          17.800
 116781772.958 7  90830277.134 6  21907961.414    21907961.344    21907964.227
        44.300          41.400
 116385871.222 7  90522558.894 6  21749542.117    21749541.027    21749544.297
        45.000          41.600
 121513103.571 6  94685591.50944  23123184.047                    23123188.059
        38.800          24.100
 125965078.915 6  98154625.72143  23970360.453                    23970365.059
        41.100          22.300
 105332336.112 8  82077159.28447  20044077.680                    20044081.938
        52.000          46.900
 106371822.920 8  82733658.255 7  19899054.336    19899053.949    19899055.828
        51.200          47.000
 120488891.010 6                  22579567.148    22579566.746
        36.700
 19  1 10  1 11 30.0000000  0 17R15G05G21G13R19G24R13R20R04G30R14R21
                                G20G29G15R05R06
 119592822.634 7  93016659.612 6  22380167.086    22380166.176    22380169.336
        42.600          40.400
 120785106.077 7  94118298.51445  22984644.609                    22984649.043
        45.900          31.000
 115005582.229 8  89614767.14946  21884835.938                    21884839.914
        49.400          39.000
 111230179.526 8  86672881.57046  21166400.633                    21166404.539
        48.100          38.300
 122902007.774 5  95590451.746 5  22975238.477    22975237.645    22975240.113
        35.500          34.800
 117643050.674 7  91669959.20945  22386729.227                    22386737.406
        43.400          31.900
 127847356.28114  99436830.53314  23941702.758    23941697.492    23941703.867
        27.300          29.600
 108310864.893 7  84241784.129 7  20254677.086    20254676.855    20254680.371
        44.900          46.900
 114706561.785 7  89216223.938 7  21420644.250    21420643.152    21420645.801
        45.400          42.300
 132180395.241 5 102997738.32942  25153098.969                    25153105.578
        33.600          17.800
 116765110.017 7  90817317.065 6  21904835.211    21904834.672    21904837.758
        44.000          41.000
 116312077.009 7  90465163.412 6  21735751.438    21735751.051    21735753.637
        45.300          41.900
 121426900.764 6  94618420.51443  23106780.469                    23106784.395
        39.400          23.600
 126061407.162 6  98229686.65743  23988690.945                    23988696.195
        41.000          22.500
 105335008.808 8  82079241.90347  20044586.094                    20044590.613
        51.600          46.400
 106370870.157 8  82732917.209 7  19898876.234    19898875.613    19898877.598
        51.400          47.300
 120412481.600 6                  22565248.680    22565247.223
        36.900
 19  1 10  1 12  0.0000000  0 17R15G05G21G13R19G24R13R20R04G30R14R21
                                G20G29G15R05R06
 119487933.960 7  92935079.582 6  22360537.820    22360538.316    22360541.266
        42.500          40.300
 120860830.861 7  94177304.81445  22999054.531                    22999059.121
        45.000          30.700
 114957946.836 8  89577648.65146  21875771.164                    21875774.590
        48.400          39.600
 111295733.080 8  86723962.25046  21178874.867                    21178879.082
        48.000          38.500
 123037896.934 5  95696143.171 5  23000641.875    23000640.926    23000643.141
        34.900          33.700
 117543267.868 7  91592206.37745  22367740.906                    22367748.938
        43.300          32.700
 127924897.17014  99497161.96415  23956226.438    23956223.988    23956231.047
        28.300          32.800
 108363661.496 7  84282848.114 7  20264550.453    20264549.754    20264553.355
        45.000          47.000
 114777295.279 7  89271238.861 7  21433853.148    21433852.168    21433855.113
        45.300          42.300
 132262945.928 5 103062063.49342  25168805.867                    25168814.340
        33.800          16.900
 116749204.060 7  90804945.756 6  21901851.336    21901851.148    21901853.992
        44.300          41.400
 116238952.576 7  90408288.837 7  21722086.086    21722084.996    21722088.359
        44.600          42.100
 121340756.432 6  94551295.05644  23090388.242                    23090391.492
        40.000          25.600
 126157806.815 6  98304803.24143  24007035.242                    24007040.324
        41.700          22.000
 105338133.640 8  82081676.84347  20045181.031                    20045185.313
        50.900          47.000
 106370179.040 8  82732379.686 7  19898746.039    19898746.004    19898748.117
        50.200          47.800
 120336211.045 6                  22550956.172    22550954.246
        36.900
 19  1 10  1 12 30.0000000  0 16R15G05G21G13R19G24R20R04G30R14R21G20
                                G29G15R05R06
 119383369.318 7  92853751.524 6  22340970.734    22340969.824    22340973.156
        43.000          40.400
 120936708.042 7  94236429.86845  23013493.563                    23013498.582
        45.200          31.600
 114910700.781 8  89540833.53946  21866780.852                    21866784.328
        49.000          39.500
 111361614.883 7  86775298.71646  21191411.719                    21191415.852
        47.200          39.400
 123173895.599 5  95801919.859 5  23026065.555    23026064.488    23026066.934
        35.100          33.800
 117443757.922 7  91514666.18445  22348804.820                    22348813.078
        43.700          33.200
 108417223.361 7  84324507.336 7  20274566.648    20274566.301    20274570.051
        44.100          47.100
 114848126.453 7  89326329.760 7  21447079.922    21447079.293    21447082.105
        45.200          42.700
 132345814.379 5 103126636.33842  25184575.219                    25184583.664
        32.600          16.300
 116734057.894 7  90793165.408 6  21899010.805    21899009.676    21899012.730
        43.700          41.500
 116166502.441 7  90351938.729 7  21708547.305    21708546.684    21708550.000
        45.200          42.700
 121254672.990 6  94484217.04744  23074006.594                    23074010.848
        40.400          24.100
 126254275.982 7  98379973.99243  24025392.625                    24025397.137
        42.100          22.300
 105341710.975 8  82084464.37447  20045861.625                    20045866.273
        51.200          46.600
 106369750.108 8  82732046.063 7  19898666.414    19898665.676    19898667.891
        50.900          47.700
 120260080.037 6                  22536687.609    22536687.563
        36.400
 19  1 10  1 13  0.0000000  0 17R15G05G21G13R19G24R13R20R04G30R14R21
                                G20G29G15R05R06
 119279133.119 7  92772678.965 6  22321463.359    22321463.504    22321467.254
        42.600          40.400
 121012737.377 7  94295673.47845  23027961.133                    23027966.121
        44.700          30.900
 114863845.984 8  89504323.29946  21857864.039                    21857867.883
        49.300          40.400
 111427823.037 8  86826889.47046  21204010.742                    21204014.441
        48.500          39.400
 123310000.903 5  95907779.461 5  23051507.906    23051507.664    23051510.750
        35.500          33.900
 117344524.173 7  91437341.19345  22329921.734                    22329929.578
        43.700          33.200
 128081758.40714  99619165.09815  23985600.805    23985599.648    23985603.352
        29.400          31.400
 108471547.893 7  84366759.734 7  20284725.539    20284726.129    20284729.453
        44.700          47.400
 114919054.971 7  89381496.357 7  21460326.164    21460324.715    21460327.215
        45.400          42.100
 132428998.553 5 103191455.14142  25200404.813                    25200412.395
        33.700          17.400
 116719673.219 7  90781977.322 6  21896311.750    21896310.621    21896314.094
        44.300          41.700
 116094730.259 7  90296115.904 7  21695135.242    21695134.387    21695137.910
        45.400          42.000
 121168651.751 6  94417187.50344  23057637.367                    23057641.684
        40.600          25.800
 126350811.938 6  98455196.77043  24043763.438                    24043767.250
        41.600          21.700
 105345740.234 8  82087604.06447  20046628.328                    20046632.898
        52.800          47.700
 106369582.786 8  82731915.923 7  19898634.945    19898635.027    19898636.891
        50.900          47.800
 120184089.997 6                  22522448.523    22522446.598
        37.300
 19  1 10  1 13 30.0000000  0 17R15G05G21G13R19G24R13R20R04G30R14R21
                                G20G29G15R05R06
 119175228.107 7  92691863.989 6  22302019.586    22302019.027    22302022.070
        43.000          40.000
 121088916.014 7  94355033.43045  23042457.820                    23042462.313
        44.900          30.500
 114817382.088 8  89468117.66246  21849022.602                    21849026.504
        48.800          39.400
 111494352.785 7  86878730.82546  21216670.750                    21216675.016
        47.800          39.400
 123446205.947 5  96013716.648 5  23076970.641    23076969.691    23076972.633
        34.700          34.000
 117245567.668 7  91360232.24445  22311090.516                    22311098.125
        44.100          32.600
 128161042.54315  99680830.530 4  24000454.086    24000449.762    24000451.621
        31.900          28.500
 108526630.045 7  84409601.400 7  20295026.117    20295026.590    20295029.918
        44.600          47.000
 114990078.118 7  89436736.544 7  21473589.039    21473587.707    21473590.555
        44.900          42.300
 132512493.681 5 103256516.27042  25216293.875                    25216301.250
        33.900          16.900
 116706048.980 7  90771380.680 6  21893755.500    21893755.195    21893758.520
        43.800          40.900
 116023636.698 7  90240820.928 7  21681849.508    21681848.301    21681851.699
        44.700          42.300
 121082691.319 6  94350205.37944  23041280.219                    23041283.926
        40.800          24.400
 126447408.930 6  98530467.10843  24062145.203                    24062150.184
        41.600          22.000
 105350217.321 8  82091092.70447  20047480.438                    20047484.789
        52.300          47.000
 106369674.470 8  82731987.229 7  19898651.844    19898651.340    19898653.328
        50.000          47.000
 120108237.933 6                  22508234.422    22508232.145
        37.300
 19  1 10  1 14  0.0000000  0 17R15G05G21G13R19G24R13R20R04G30R14R21
                                G20G29G15R05R06
 119071659.343 7  92611310.509 6  22282638.148    22282637.590    22282640.801
        43.600          40.500
 121165244.839 7  94414510.40545  23056982.750                    23056987.844
        44.900          31.300
 114771311.573 8  89432218.55546  21840255.906                    21840259.250
        49.100          40.300
 111561202.576 8  86930821.56246  21229392.164                    21229396.277
        49.500          40.100
 123582507.027 5  96119728.557 5  23102450.781    23102449.715    23102452.578
        34.400          33.800
 117146892.017 7  91283342.13045  22292313.102                    22292320.902
        43.600          33.200
 128240890.78715  99742934.77514  24015405.281    24015402.949    24015404.152
        32.800          28.100
 108582468.026 7  84453030.910 7  20305467.820    20305468.648    20305472.313
        44.700          47.700
 115061195.607 7  89492050.140 7  21486870.086    21486868.402    21486871.082
        45.000          42.100
 132596298.063 5 103321818.38142  25232240.844                    25232249.324
        33.500          17.400
 116693187.013 7  90761376.926 6  21891343.242    21891342.230    21891345.172
        44.500          41.700
 115953225.814 7  90186056.929 7  21668692.023    21668690.699    21668694.059
        44.900          43.100
 120996793.428 6  94283271.95844  23024934.492                    23024937.727
        41.300          27.000
 126544065.038 6  98605783.54443  24080538.367                    24080543.738
        41.600          22.600
 105355142.722 8  82094930.68448  20048417.477                    20048421.863
        53.400          48.000
 106370024.711 8  82732259.636 8  19898717.031    19898717.348    19898719.406
        50.700          48.200
 120032524.543 6                  22494044.891    22494044.137
        37.700
 19  1 10  1 14 30.0000000  0 17R15G05G21G13R19G24R13R20R04G30R14R21
                                G20G29G15R05R06
 118968432.381 7  92531022.910 6  22263319.945    22263320.559    22263323.617
        42.700          40.000
 121241723.950 7  94474104.48944  23071535.766                    23071540.594
        43.700          29.500
 114725636.952 8  89396627.93346  21831564.086                    21831568.043
        48.400          39.000
 111628371.260 7  86983160.78846  21242174.063                    21242178.117
        46.600          37.800
 123718900.526 5  96225812.316 5  23127946.563    23127946.672    23127950.484
        34.200          33.900
 117048501.075 7  91206673.87245  22273590.344                    22273597.617
        42.700          31.700
 128321300.63615  99805475.69914  24030462.453    24030461.531    24030463.734
        31.500          27.100
 108639059.934 7  84497046.824 7  20316050.992    20316050.645    20316054.465
        43.800          47.200
 115132407.720 7  89547437.319 7  21500167.578    21500166.715    21500169.875
        44.500          42.100
 132680410.115 5 103387360.21542  25248246.461                    25248254.945
        34.400          17.400
 116681089.572 7  90751967.790 6  21889073.484    21889072.945    21889076.172
        43.600          41.400
 115883501.679 7  90131827.022 7  21655662.414    21655660.973    21655664.758
        44.900          42.400
 120910959.680 6  94216388.49144  23008600.344                    23008604.492
        38.900          26.000
 126640777.727 6  98681144.04543  24098941.430                    24098946.926
        40.800          21.700
 105360515.976 8  82099117.63647  20049440.109                    20049444.477
        50.100          45.600
 106370633.892 8  82732733.442 7  19898831.555    19898831.051    19898833.176
        50.500          47.400
 119956950.125 6                  22479882.461    22479880.418
        36.000
 19  1 10  1 15  0.0000000  0 17R15G05G21G13R19G24R13R20R04G30R14R21
                                G20G29G15R05R06
 118865552.403 7  92451005.155 6  22244067.922    22244067.129    22244070.293
        42.500          40.200
 121318353.923 7  94533816.14144  23086118.414                    23086123.094
        43.300          28.700
 114680360.898 7  89361347.88946  21822948.391                    21822952.242
        47.900          38.600
 111695857.306 7  87035747.30346  21255016.047                    21255020.219
        47.100          38.300
 123855384.405 5  96331966.374 5  23153462.258    23153461.426    23153464.957
        32.500          34.000
 116950398.378 6  91130230.22545  22254921.188                    22254929.738
        41.400          31.700
 128402270.17015  99868451.984 4  24045624.898    24045622.801    24045627.750
        30.700          29.900
 108696403.317 7  84541647.220 7  20326774.453    20326774.691    20326778.293
        44.100          47.500
 115203714.630 7  89602898.228 7  21513484.242    21513482.793    21513485.867
        44.000          42.400
 132764828.301 5 103453140.61742  25264311.680                    25264319.203
        33.000          17.800
 116669758.464 7  90743154.698 6  21886948.047    21886946.215    21886949.402
        43.200          41.400
 115814468.074 7  90078134.224 7  21642760.523    21642759.902    21642763.945
        44.500          43.100
 120825191.841 6  94149556.43244  22992279.320                    22992283.629
        39.200          25.900
 126737544.472 6  98756546.67243  24117355.484                    24117361.164
        40.000          21.700
 105366336.712 8  82103653.26847  20050547.930                    20050552.234
        51.300          46.400
 106371502.176 8  82733408.775 7  19898993.695    19898993.660    19898995.688
        50.100          47.800
 119881515.745 6                  22465746.375    22465744.566
        37.000
